     3.05           OBSERVATION DATA    M (MIXED)           RINEX VERSION / TYPE
sbf2rin-13.4.5                          20220706 130812 UTC PGM / RUN BY / DATE
gfzrnx-1.16-8177    FILE MERGE          20220706 132211 UTC COMMENT
ESBC00DNK                                                   MARKER NAME
10118M001                                                   MARKER NUMBER
SDFE                SDFE                                    OBSERVER / AGENCY
3047937             SEPT POLARX5        5.2.0               REC # / TYPE / VERS
CR5200327016        ASH701945E_M    SCIS                    ANT # / TYPE
        0.2160        0.0000        0.0000                  ANTENNA: DELTA H/E/N
  3582105.2910   532589.7313  5232754.8054                  APPROX POSITION XYZ
C   12 C2I C6I C7I D2I D6I D7I L2I L6I L7I S2I S6I S7I      SYS / # / OBS TYPES
E   20 C1C C5Q C6C C7Q C8Q D1C D5Q D6C D7Q D8Q L1C L5Q L6C  SYS / # / OBS TYPES
       L7Q L8Q S1C S5Q S6C S7Q S8Q                          SYS / # / OBS TYPES
G   18 C1C C1W C2L C2W C5Q D1C D2L D2W D5Q L1C L2L L2W L5Q  SYS / # / OBS TYPES
       S1C S1W S2L S2W S5Q                                  SYS / # / OBS TYPES
J   12 C1C C2L C5Q D1C D2L D5Q L1C L2L L5Q S1C S2L S5Q      SYS / # / OBS TYPES
R   20 C1C C1P C2C C2P C3Q D1C D1P D2C D2P D3Q L1C L1P L2C  SYS / # / OBS TYPES
       L2P L3Q S1C S1P S2C S2P S3Q                          SYS / # / OBS TYPES
S    8 C1C C5I D1C D5I L1C L5I S1C S5I                      SYS / # / OBS TYPES
DBHZ                                                        SIGNAL STRENGTH UNIT
C L2I                                                       SYS / PHASE SHIFT
C L6I                                                       SYS / PHASE SHIFT
C L7I                                                       SYS / PHASE SHIFT
E L1C  0.00000                                              SYS / PHASE SHIFT
E L5Q  0.00000                                              SYS / PHASE SHIFT
E L6C  0.00000                                              SYS / PHASE SHIFT
E L7Q  0.00000                                              SYS / PHASE SHIFT
E L8Q  0.00000                                              SYS / PHASE SHIFT
G L1C                                                       SYS / PHASE SHIFT
G L2L  0.00000                                              SYS / PHASE SHIFT
G L2W                                                       SYS / PHASE SHIFT
G L5Q  0.00000                                              SYS / PHASE SHIFT
J L1C                                                       SYS / PHASE SHIFT
R L1C                                                       SYS / PHASE SHIFT
R L1P  0.00000                                              SYS / PHASE SHIFT
R L2C                                                       SYS / PHASE SHIFT
R L2P  0.00000                                              SYS / PHASE SHIFT
R L3Q  0.00000                                              SYS / PHASE SHIFT
S L1C                                                       SYS / PHASE SHIFT
S L5I                                                       SYS / PHASE SHIFT
J L2L  0.00000                                              SYS / PHASE SHIFT
J L5Q  0.00000                                              SYS / PHASE SHIFT
INITIAL_RINEX_VERSION: 3.04                                 COMMENT
SEPTENTRIO RECEIVERS OUTPUT ALIGNED CARRIER PHASES.         COMMENT
NO FURTHER PHASE SHIFT APPLIED IN THE RINEX ENCODER.        COMMENT
 23 R01  1 R02 -4 R03  5 R04  6 R05  1 R06 -4 R07  5 R08  6 GLONASS SLOT / FRQ #
    R09 -2 R10 -7 R11  0 R12 -1 R13 -2 R14 -7 R15  0 R16 -1 GLONASS SLOT / FRQ #
    R17  4 R18 -3 R19  3 R20  2 R21  4 R23  3 R24  2        GLONASS SLOT / FRQ #
GEODETIC                                                    MARKER TYPE
GFZRNX.NUM_EPOCHS: 0                                        COMMENT
     0                                                      # OF SATELLITES
    30.000                                                  INTERVAL
  2020     6    25     0     0    0.0000000     GPS         TIME OF FIRST OBS
  2020     6    25     0    59   30.0000000     GPS         TIME OF LAST OBS
                                                            END OF HEADER
> 2020 06 25 00 00 00.0000000  0 43
C05  40715949.461 5                  40715946.882 6        -2.196 5                        -1.633 6 212018673.07105                 163946288.27506        34.500                          38.000
C07  39491936.793 6  39491927.647 5  39491931.984 7      -484.694 6      -394.144 5      -374.896 7 205644910.73906 167103300.43705 159017680.34007        38.500          32.750          42.500
C10  38352566.929 7  38352559.892 5  38352564.245 7       246.594 7       200.415 5       190.699 7 199711909.89707 162282258.24405 154429919.85807        42.750          35.500          45.250
C12  26299450.773 6  26299444.820 5  26299448.691 6       586.982 6       477.176 5       454.065 6 136948138.73606 111281558.94405 105896986.15406        36.250          31.250          41.000
C19  23804752.822 7  23804746.558 6                      2537.169 7      2061.683 6                 123957629.80607 100725706.08106                        46.750          40.000
C20  22145206.876 8  22145197.109 7                      -325.313 8      -264.326 7                 115315936.11108  93703613.10707                        52.750          45.500
C23  23510863.108 8                                     -1962.016 8                                 122427266.79008                                        49.750
C32  24521966.313 7  24521965.909 6                     -3014.133 7     -2449.140 6                 127692344.57107 103760504.39906                        46.250          38.500
C34  27164429.269 6  27164428.989 5                      1620.898 6      1316.910 5                 141452309.88706 114941586.90505                        38.000          30.500
C37  22426185.919 8                                      1204.872 8                                 116779058.84008                                        52.250
E01  27616185.992 6  27616184.819 5  27616182.308 4  27616184.997 6  27616184.366 6     -2620.702 6     -1957.227 5     -2127.515 4     -2008.154 6     -1982.658 6 145124050.10606 108371872.76005 117795484.95904 111198966.55706 109785420.22706        37.500          32.500          28.250          40.750          40.750
E03  27055946.391 6  27055945.532 5                  27055946.711 7  27055945.690 7      2664.689 6      1989.742 5                      2041.746 7      2015.766 7 142179967.77806 106173364.68605                 108943109.41507 107558234.12507        39.000          34.250                          43.000          43.000
E05  23730317.923 8  23730316.788 7  23730312.049 6  23730317.528 8  23730316.490 8       764.306 8       570.783 7       620.333 6       585.634 8       578.192 8 124703702.22008  93122915.92107 101220495.25106  95552211.25908  94337540.66508        49.500          44.000          40.250          53.000          53.000
E09  22756243.562 8  22756242.295 6  22756238.769 6  22756242.917 8  22756241.958 8     -1851.121 8     -1382.383 6     -1502.626 6     -1418.438 8     -1400.400 8 119584910.61108  89300442.79106  97065632.48006  91630017.31408  90465229.12508        48.000          41.500          37.500          50.500          50.250
E13  27978718.264 6  27978716.335 5                  27978718.347 6  27978716.704 6      1366.608 6      1020.402 5                      1047.011 6      1033.706 6 147029158.32706 109794501.18405                 112658705.75506 111226601.04906        36.000          30.000                          40.750          40.250
E15  26889610.666 6  26889610.961 5  26889605.887 4  26889611.867 7  26889610.803 7     -1132.569 6      -845.872 5      -919.019 4      -867.743 7      -856.752 7 141305866.86906 105520617.36505 114696301.33904 108273333.21807 106896973.85307        37.750          32.750          29.500          42.000          42.000
E24  23636670.553 7  23636680.074 6  23636658.192 5  23636680.852 7  23636679.922 8      2563.967 7      1914.621 6      2081.105 5      1964.654 7      1939.659 8 124211548.36407  92755422.74406 100821011.85905  95175128.42007  93965277.65408        45.500          39.000          35.000          47.750          48.000
E31  24566160.392 7  24566159.582 6  24566154.455 6  24566160.375 8  24566159.351 8      -164.180 7      -122.619 6      -133.047 6      -125.769 8      -124.172 8 129096072.83207  96402914.19206 104785736.17306  98917781.44608  97660341.89308        47.750          41.500          37.750          50.500          50.500
G02  25847357.745 3                                                                     -3123.088 3                                                                                                                        22.000
G05  20947300.931 8  20947300.507 9  20947301.155 7  20947300.413 9                     -1037.205 8      -808.180 7      -808.209 9                 110078836.38908  85775716.72307  85775729.71809                        50.500          55.000          47.250          55.000
G07  21777182.297 8  21777181.730 8  21777181.805 7  21777181.716 8                     -1843.922 8     -1436.857 7     -1436.824 8                 114439911.63508  89173983.26807  89173970.25408                        49.000          51.750          44.750          51.750
G08  24985914.282 6  24985913.625 5  24985918.556 6  24985917.497 5  24985909.884 4      1958.974 6      1526.438 6      1526.473 5      1463.305 4 131301866.32106 102313160.46806 102313154.46205  98050086.08604        36.500          32.750          38.500          32.750          28.750
G09  24545460.880 6  24545460.330 5  24545463.548 6  24545462.948 5  24545458.453 5     -3465.631 6     -2700.368 6     -2700.489 5     -2588.158 5 128987295.99906 100509610.29906 100509612.31905  96321695.87405        38.500          33.500          38.250          33.500          33.000
G13  21695570.939 8  21695570.372 6                  21695569.941 6                      2501.209 8                      1948.995 6                 114011024.75108                  88839770.26006                        48.750          37.000                          37.000
G15  24050353.947 6  24050353.545 3  24050353.862 6  24050353.688 3                      3556.637 6      2771.508 6      2771.392 3                 126385473.46806  98482218.97306  98482204.97803                        39.250          22.250          36.500          22.250
G18  24140002.290 6  24140001.946 3  24140003.020 6  24140002.515 3  24140002.415 6      1196.887 6       932.590 6       932.636 3       893.848 6 126856581.78306  98849278.39206  98849280.39903  94730564.10806        38.000          21.250          38.500          21.250          36.500
G21  26293032.534 5  26293031.466 1                  26293031.291 1                      2019.560 5                      1573.693 1                 138170813.28605                 107665570.96101                        34.500          10.250                          10.250
G27  24755349.228 6  24755348.518 5  24755351.984 5  24755351.282 5  24755347.005 5       473.939 6       369.144 5       369.298 5       353.916 5 130090243.39306 101369032.55505 101369029.54905  97145302.03905        38.750          31.750          35.000          31.750          33.250
G28  23440614.175 6  23440613.223 3                  23440613.768 3                      3227.634 6                      2515.056 3                 123181266.58806                  95985402.98303                        40.500          23.500                          23.500
G30  20621361.127 8  20621360.184 9  20621363.448 8  20621363.021 9  20621358.355 7        90.272 8        70.321 8        70.339 9        67.470 7 108366020.64508  84441088.84208  84441080.84109  80922683.74407        51.750          57.250          50.000          57.250          46.500
R01  19307563.721 7  19307563.663 7  19307572.471 7  19307573.029 7                      -465.042 7      -465.013 7      -361.641 7      -361.715 7                 103210031.73707 103210027.73607  80274505.45707  80274512.47007                        46.250          45.750          45.000          44.750
R02  21952994.458 7  21952995.474 7  21953002.278 7  21953002.492 7                      3683.676 7      3683.626 7      2865.099 7      2865.056 7                 117145418.31107 117145413.30307  91113138.74707  91113144.74107                        46.500          45.500          44.250          44.250
R08  21367773.379 7  21367773.744 6  21367781.225 7  21367781.700 7                     -3308.695 7     -3308.690 6     -2573.516 7     -2573.467 7                 114423493.47307 114423492.49106  88996094.36207  88996106.35107                        42.000          41.250          44.500          44.250
R09  23083617.394 6  23083617.526 6  23083623.160 6  23083623.276 6  23083604.720 6     -4072.288 6     -4072.361 6     -3167.399 6     -3167.086 6     -3057.482 6 123265261.95706 123265246.97606  95873010.19806  95873015.17906  92553138.31106        40.250          40.000          40.500          40.250          38.750
R10  20294115.282 8  20294114.750 8                                                     -2205.711 8     -2205.722 8                                                 108179051.35608 108179070.35908                                                        49.750          49.750
R11  20155568.446 8  20155568.887 8  20155575.968 8  20155575.944 8                      2526.351 8      2526.375 8      1964.925 8      1964.885 8                 107705250.93608 107705261.94008  83770790.41708  83770791.40908                        50.250          49.750          48.500          48.500
R12  23716759.920 6  23716760.396 6  23716769.123 6  23716768.396 6                      4528.085 6      4528.076 6      3522.038 6      3521.825 6                 126690670.52006 126690671.53006  98537206.63106  98537226.63806                        40.000          39.500          36.000          36.000
R17  23475090.450 6  23475090.728 6  23475099.870 6  23475099.552 6                     -3111.200 6     -3111.414 6     -2419.836 6     -2419.896 6                 125619948.18906 125619963.19406  97704452.72806  97704446.71306                        38.000          37.000          38.500          38.000
R18  22840854.076 6  22840854.035 6  22840863.082 7  22840862.860 7                       -79.741 6       -79.736 6       -62.024 7       -62.000 7                 121926058.44506 121926054.43606  94831398.45807  94831404.44907                        40.750          40.000          42.750          42.750
R19                                  24133989.245 5                                                                      2323.965 5                                                                 100411554.25105                                                                        33.500
S23  39369577.519 6  39369549.461 5         3.466 6         2.493 5 206888973.73406 154494497.39905        40.500          32.250
S25  40360467.253 6                      -215.882 6                 212095300.18706                        37.000
S36  39057532.413 6  39057507.977 5         -.920 6         -.515 5 205250002.85506 153270632.78205        41.250          35.000
> 2020 06 25 00 00 30.0000000  0 43
C05  40715964.078 5                  40715960.136 6        -1.787 5                        -1.342 6 212018742.33105                 163946341.84506        34.500                          38.000
C07  39494742.507 6  39494733.249 5  39494737.411 7      -488.475 6      -397.044 5      -377.823 7 205659518.85206 167115170.70405 159028976.26407        39.000          32.750          42.500
C10  38351160.179 7  38351153.226 5  38351157.682 7       242.162 7       196.916 5       187.248 7 199704586.68007 162276307.53105 154424257.09507        42.750          35.250          45.250
C12  26296118.079 6  26296111.662 5  26296115.707 6       570.293 6       463.801 5       441.020 6 136930784.56306 111267457.25805 105883566.83206        37.000          30.000          41.250
C19  23790160.401 7  23790154.370 6                      2529.074 7      2055.086 6                 123881644.48707 100663961.79406                        47.000          40.250
C20  22147125.517 8  22147115.464 7                      -340.037 8      -276.288 7                 115325925.02708  93711729.92507                        53.000          45.500
C23  23522201.615 8                                     -1973.503 8                                 122486309.23708                                        49.750
C32  24539352.747 7  24539352.298 6                     -3021.021 7     -2454.916 6                 127782880.88307 103834072.58406                        46.250          38.500
C34  27155130.965 6  27155130.669 5                      1607.531 6      1306.527 5                 141403892.79506 114902244.02605                        37.250          30.500
C37  22419288.005 8                                      1190.351 8                                 116743140.12708                                        52.750
E01  27631168.610 6  27631166.786 5  27631164.731 4  27631168.237 6  27631166.899 6     -2627.684 6     -1962.095 5     -2132.912 4     -2013.246 6     -1987.676 6 145202784.62406 108430668.00405 117859392.85504 111259295.59206 109844982.37306        37.750          32.500          27.250          41.500          41.500
E03  27040742.707 6  27040742.124 5                  27040742.756 7  27040741.892 7      2662.482 6      1988.377 5                      2040.167 7      2014.261 7 142100071.28806 106113701.73205                 108881890.03707 107497792.95807        39.250          34.250                          43.000          43.000
E05  23725981.640 8  23725980.604 7  23725975.550 6  23725981.299 8  23725980.232 8       755.411 8       564.063 7       613.124 6       578.835 8       571.470 8 124680915.12008  93105899.59507 101201999.23906  95534751.01808  94320302.37908        49.250          43.750          40.250          53.000          52.750
E09  22766834.452 7  22766833.144 6  22766829.836 6  22766833.793 8  22766832.853 8     -1858.624 7     -1387.871 6     -1508.526 6     -1424.118 8     -1406.004 8 119640566.19007  89342003.76806  97110807.44006  91672662.49308  90507332.20508        47.750          41.250          37.500          50.250          50.250
E13  27970957.396 5  27970955.673 5                  27970957.086 6  27970955.904 6      1353.241 5      1010.635 5                      1036.848 6      1023.659 6 146988374.91905 109764046.03905                 112627456.11606 111195748.65206        35.250          30.000                          40.250          40.000
E15  26896117.363 6  26896117.647 5  26896113.136 4  26896118.817 7  26896117.582 6     -1146.481 6      -856.031 5      -930.823 4      -878.335 7      -867.176 6 141340060.77106 105546151.75405 114724056.18304 108299533.74307 106922841.32206        37.750          32.250          29.250          42.000          41.750
E24  23622060.696 7  23622070.342 6  23622048.380 5  23622071.082 8  23622070.098 7      2555.012 7      1908.070 6      2073.659 5      1957.729 8      1932.851 7 124134773.34107  92698090.75006 100758694.49105  95116300.82008  93907197.86207        45.250          38.750          35.000          48.000          47.750
E31  24567140.313 7  24567139.562 6  24567134.120 6  24567140.286 8  24567139.321 8      -178.491 7      -133.277 6      -144.697 6      -136.820 8      -135.055 8 129101222.58907  96406759.80506 104789916.19506  98921727.38008  97664237.66708        47.750          41.500          37.500          50.500          50.250
G02  25865198.942 4                                                                     -3123.813 4                                                                                                                        24.250
G05  20953278.537 8  20953278.117 9  20953278.871 7  20953278.123 9                     -1056.333 8      -823.134 7      -823.115 9                 110110249.71608  85800194.64007  85800207.63109                        50.000          54.500          47.000          54.500
G07  21787743.843 8  21787743.280 8  21787743.479 7  21787743.241 8                     -1855.519 8     -1445.843 7     -1445.854 8                 114495412.73508  89217230.87007  89217217.86508                        49.000          51.500          44.500          51.500
G08  24974771.969 5  24974771.263 4  24974776.857 6  24974775.944 4  24974769.549 5      1944.480 5      1515.384 6      1515.181 4      1452.073 5 131243317.47805 102267538.06606 102267532.06604  98006364.60005        33.250          29.750          38.500          29.750          31.250
G09  24565255.771 6  24565255.226 5  24565258.724 6  24565258.580 5  24565252.999 5     -3468.471 6     -2702.625 6     -2702.701 5     -2590.187 5 129091318.66306 100590666.91006 100590668.90805  96399375.12405        38.500          35.000          39.000          35.000          33.500
G13  21681321.163 8  21681320.605 6                  21681320.127 6                      2491.660 8                      1941.552 6                 113936141.01208                  88781419.30606                        48.750          37.000                          37.000
G15  24030062.040 6  24030061.625 3  24030062.254 6  24030062.037 3                      3552.875 6      2768.412 6      2768.485 3                 126278839.15406  98399127.34806  98399113.35003                        39.250          23.000          36.500          23.000
G18  24133224.215 6  24133223.880 3  24133225.376 6  24133224.752 3  24133224.304 6      1178.322 6       918.175 6       918.171 3       879.779 6 126820962.96206  98821523.50806  98821525.49503  94703965.68906        39.250          21.750          38.500          21.750          36.750
G21  26281534.271 5  26281533.042 1                  26281533.802 1                      2008.951 5                      1565.459 1                 138110394.24005                 107618491.18401                        32.250           6.250                           6.250
G27  24752702.731 6  24752702.052 5  24752704.523 5  24752704.291 5  24752699.686 5       454.102 6       354.065 5       353.845 5       339.210 5 130076332.02106 101358192.47905 101358189.50905  97134913.64705        38.000          31.000          35.750          31.000          33.000
G28  23422210.742 6  23422209.799 3                  23422210.077 3                      3220.565 6                      2509.525 3                 123084554.81506                  95910043.18703                        40.750          23.000                          23.000
G30  20620894.948 8  20620894.005 9  20620897.408 8  20620896.805 9  20620892.138 7        73.791 8        57.453 8        57.500 9        55.114 7 108363570.63908  84439179.74908  84439171.75009  80920854.19707        51.500          57.250          50.000          57.250          46.500
R01  19310234.334 7  19310234.939 7  19310243.325 7  19310244.300 7                      -486.261 7      -486.182 7      -378.238 7      -378.194 7                 103224310.51507 103224306.51407  80285611.18507  80285618.18007                        46.500          46.000          45.000          44.250
R02  21932306.011 7  21932306.408 7  21932313.157 7  21932313.126 7                      3677.024 7      3677.083 7      2860.030 7      2859.925 7                 117035016.76707 117035011.77307  91027270.90607  91027276.91207                        46.500          45.500          43.750          44.250
R08  21386346.319 6  21386347.031 6  21386355.062 7  21386355.264 7                     -3321.184 6     -3321.294 6     -2583.119 7     -2583.157 7                 114522953.39506 114522952.42206  89073452.05407  89073464.05407                        41.750          41.250          44.250          44.250
R09  23106516.365 6  23106516.902 6  23106523.935 6  23106522.871 6  23106504.395 6     -4079.553 6     -4079.376 6     -3172.853 6     -3172.895 6     -3063.142 6 123387544.52306 123387529.51606  95968118.82106  95968123.82306  92644954.75506        40.750          40.000          39.750          40.000          38.750
R10  20306590.314 8  20306589.853 8                                                     -2226.809 8     -2226.785 8                                                 108245548.99108 108245567.98708                                                        50.000          49.750
R11  20141445.633 8  20141446.260 8  20141453.274 8  20141453.121 8                      2505.441 8      2505.469 8      1948.690 8      1948.688 8                 107629783.84608 107629794.85508  83712093.79408  83712094.79508                        50.000          50.000          48.250          48.250
R12  23691342.318 6  23691342.410 6  23691350.947 6  23691350.392 6                      4524.470 6      4524.335 6      3518.819 6      3519.028 6                 126554892.42306 126554893.42906  98431601.47306  98431621.46106                        39.750          39.500          37.750          38.250
R17  23492580.875 6  23492580.612 6  23492589.057 6  23492589.267 6                     -3127.384 6     -3127.217 6     -2432.409 6     -2432.332 6                 125713537.01006 125713552.02006  97777244.03006  97777238.02706                        37.250          37.000          39.250          38.500
R18  22841380.568 6  22841380.108 6  22841387.724 7  22841388.034 7                      -106.640 6      -106.748 6       -83.017 7       -83.063 7                 121928865.78106 121928861.78706  94833581.97007  94833587.95807                        41.000          40.250          42.000          42.250
R19                                  24117284.500 5                                                                      2310.015 5                                                                 100342055.94305                                                                        33.500
S23  39369556.833 6  39369530.529 5         3.848 6         2.589 5 206888873.00306 154494422.09805        40.500          32.250
S25  40361723.940 6                      -215.107 6                 212101767.26506                        38.250
S36  39057539.143 6  39057513.365 5         -.539 6         -.455 5 205250032.59606 153270650.30205        41.750          35.250
> 2020 06 25 00 01 00.0000000  0 43
C05  40715976.496 5                  40715972.930 6        -3.034 5                        -2.358 6 212018810.59905                 163946394.64106        34.500                          37.750
C07  39497571.750 6  39497562.167 5  39497566.698 7      -493.850 6      -401.554 5      -381.858 7 205674250.93506 167127141.75005 159040368.03907        39.000          32.750          42.250
C10  38349781.868 7  38349775.191 5  38349779.413 7       236.107 7       191.514 5       182.502 7 199697409.27507 162270475.32605 154418707.07907        42.500          35.500          45.250
C12  26292882.504 6  26292876.888 4  26292881.146 6       552.059 6       448.475 4       426.954 6 136913941.47506 111253770.89604 105870542.67806        36.000          29.750          40.750
C19  23775618.534 7  23775611.650 6                      2519.281 7      2047.056 6                 123805916.47307 100602426.59706                        47.250          40.250
C20  22149131.159 8  22149120.975 7                      -356.424 8      -289.646 7                 115336368.46308  93720216.07407                        53.500          45.750
C23  23533608.749 8                                     -1986.679 8                                 122545709.81608                                        49.500
C32  24556781.553 7  24556781.075 6                     -3029.556 7     -2461.890 6                 127873636.63007 103907819.04606                        46.000          38.750
C34  27145911.993 6  27145911.486 5                      1592.635 6      1294.064 5                 141355887.23406 114863235.57305                        37.000          30.750
C37  22412476.541 8                                      1174.060 8                                 116707671.43008                                        52.500
E01  27646192.922 6  27646192.331 5  27646189.397 4  27646192.543 6  27646191.564 6     -2636.202 6     -1968.379 5     -2140.180 4     -2019.915 6     -1994.201 6 145281739.11906 108489627.49405 117923479.28304 111319793.17706 109904710.91106        38.000          33.250          27.500          40.750          41.000
E03  27025553.361 6  27025552.715 5                  27025553.163 7  27025552.295 7      2658.652 6      1985.616 5                      2037.147 7      2011.297 7 142020249.81406 106054094.83405                 108820728.17807 107437408.58507        39.750          34.750                          42.750          43.000
E05  23721698.975 8  23721697.897 7  23721692.843 6  23721698.710 8  23721697.607 8       744.720 8       556.203 7       604.458 6       570.616 8       563.381 8 124658409.76508  93089093.64807 101183731.90806  95517506.66208  94303277.22908        49.500          44.000          40.500          53.000          52.750
E09  22777470.182 8  22777468.871 6  22777465.736 6  22777469.599 8  22777468.625 8     -1867.731 8     -1394.677 6     -1515.971 6     -1431.088 8     -1412.882 8 119696457.45008  89383740.73806  97156173.72906  91715488.25608  90549613.57108        48.000          41.500          37.500          50.250          50.250
E13  27963274.550 5  27963273.367 5                  27963274.629 6  27963273.446 6      1337.929 5       999.415 5                      1025.227 6      1012.198 6 146948003.53305 109733898.61605                 112596522.23406 111165208.00206        34.750          31.500                          40.250          40.250
E15  26902705.809 6  26902705.793 5  26902701.550 4  26902706.688 6  26902705.713 6     -1161.765 6      -867.441 5      -943.119 4      -890.301 6      -878.994 6 141374681.65106 105572005.02205 114752157.53404 108326061.43806 106949031.80506        38.250          32.500          29.750          41.500          41.500
E24  23607504.612 7  23607514.182 6  23607492.282 5  23607515.109 8  23607514.117 8      2544.256 7      1899.988 6      2065.161 5      1949.555 8      1924.777 8 124058281.04007  92640969.90006 100696606.57305  95057689.84708  93849331.94508        45.500          38.750          35.250          48.250          48.000
E31  24568204.755 8  24568204.040 6  24568198.728 6  24568204.818 8  24568203.889 8      -194.561 8      -145.460 6      -157.801 6      -149.093 8      -147.234 8 129106816.91108  96410937.40406 104794457.03206  98926013.94008  97668469.74208        48.000          41.500          37.500          50.500          50.250
G02  25883034.787 3                                                                     -3122.847 3                                                                                                                        21.000
G05  20959368.361 8  20959367.941 9  20959368.632 7  20959367.869 9                     -1077.284 8      -839.471 7      -839.441 9                 110142251.48508  85825131.07807  85825144.07309                        49.500          54.500          47.000          54.500
G07  21798373.920 8  21798373.353 8  21798373.628 7  21798373.232 8                     -1868.815 8     -1456.221 7     -1456.220 8                 114551274.18608  89260759.27307  89260746.26508                        48.750          51.750          44.500          51.750
G08  24963712.790 5  24963712.053 4  24963718.270 6  24963717.599 4  24963712.026 5      1928.651 5      1503.102 6      1502.841 4      1440.215 5 131185205.55005 102222256.14506 102222250.14404  97962969.40905        31.500          28.500          38.750          28.500          33.500
G09  24585069.144 6  24585068.603 5  24585072.098 6  24585072.415 5  24585067.392 5     -3473.150 6     -2706.440 6     -2706.350 5     -2593.798 5 129195442.02006 100671801.96706 100671803.95405  96477129.58205        37.250          33.750          38.500          33.750          34.000
G13  21667127.878 8  21667127.315 6                  21667127.094 6                      2480.414 8                      1932.790 6                 113861555.54508                  88723300.78006                        48.750          37.500                          37.500
G15  24009793.836 6  24009793.416 3  24009794.860 6  24009794.345 3                      3547.389 6      2764.070 6      2764.204 3                 126172332.09406  98316134.89406  98316120.87603                        39.250          23.500          36.750          23.500
G18  24126554.994 6  24126554.655 3  24126556.340 6  24126555.367 3  24126554.971 6      1157.853 6       902.365 6       902.213 3       864.779 6 126785914.92906  98794213.32806  98794215.35003  94677793.45006        39.250          22.000          38.250          22.000          36.750
G21  26270101.835 5  26270100.718 2                  26270100.493 2                      1996.375 5                      1555.650 2                 138050311.09705                 107571673.11002                        34.750          12.000                          12.000
G27  24750169.594 6  24750168.892 5  24750172.901 5  24750172.432 5  24750167.416 5       432.686 6       337.125 5       337.151 5       322.927 5 130063025.76406 101347824.01305 101347820.99305  97124977.20905        36.750          30.250          35.750          30.250          33.000
G28  23403849.930 6  23403848.969 3                  23403849.536 3                      3211.545 6                      2502.492 3                 122988071.92606                  95834861.70603                        40.750          23.000                          23.000
G30  20620525.155 8  20620524.212 9  20620527.498 8  20620527.042 9  20620522.355 7        55.554 8        43.328 8        43.289 9        41.559 7 108361627.56808  84437665.67408  84437657.67409  80919403.20607        51.500          57.500          50.000          57.500          46.750
R01  19313027.815 7  19313028.156 7  19313036.324 7  19313037.092 7                      -509.305 7      -509.267 7      -396.173 7      -396.207 7                 103239240.99807 103239236.99007  80297223.77807  80297230.77207                        46.750          46.250          44.750          44.250
R02  21911657.084 7  21911657.184 7  21911663.373 7  21911663.768 7                      3668.557 7      3668.550 7      2853.359 7      2853.301 7                 116924828.75507 116924823.76607  90941569.16007  90941575.16007                        46.250          46.000          43.500          44.000
R08  21404991.805 7  21404993.035 6  21405000.763 7  21405001.049 7                     -3335.403 7     -3335.417 6     -2594.193 7     -2594.333 7                 114622800.56707 114622799.57706  89151110.95907  89151122.96307                        42.000          41.500          44.250          44.250
R09  23129460.508 6  23129460.010 6  23129466.210 6  23129466.082 6  23129446.946 6     -4088.225 6     -4088.083 6     -3179.642 6     -3179.877 6     -3069.595 6 123510055.66006 123510040.66106  96063405.23706  96063410.26506  92736942.83306        41.250          40.250          40.750          40.500          38.250
R10  20319185.716 8  20319185.340 8                                                     -2249.444 8     -2249.513 8                                                 108312689.93508 108312708.93508                                                        50.000          49.750
R11  20127443.080 8  20127443.513 8  20127450.411 8  20127450.516 8                      2482.751 8      2482.725 8      1931.032 8      1930.915 8                 107554958.38008 107554969.38208  83653896.21308  83653897.22008                        50.000          50.250          48.250          48.500
R12  23665946.807 6  23665947.623 6  23665955.935 6  23665955.940 6                      4518.967 6      4518.927 6      3514.544 6      3514.759 6                 126419238.61606 126419239.61106  98326092.97106  98326112.96006                        40.250          39.250          40.250          40.250
R17  23510161.090 6  23510161.870 6  23510170.199 6  23510170.166 6                     -3145.003 6     -3144.828 6     -2446.194 6     -2446.069 6                 125807618.05506 125807633.04606  97850418.16906  97850412.16606                        37.500          36.750          38.500          38.250
R18  22842060.558 6  22842061.158 6  22842067.542 7  22842068.096 7                      -135.512 6      -135.475 6      -105.341 7      -105.513 7                 121932496.30706 121932492.31306  94836405.71707  94836411.72007                        41.250          40.500          42.000          42.250
R19                                  24100682.988 5                                                                      2294.697 5                                                                 100272981.35705                                                                        34.250
S23  39369539.398 6  39369511.967 5         2.469 6         1.890 5 206888775.12406 154494349.33505        40.750          32.250
S25  40362979.398 6                      -216.616 6                 212108243.25506                        38.250
S36  39057544.446 6  39057518.892 5        -1.634 6        -1.371 5 205250062.39406 153270673.06605        41.500          35.000
> 2020 06 25 00 01 30.0000000  0 42
C05  40715989.111 5                  40715985.361 6        -2.065 5                        -1.617 6                                 163946443.48606        34.500                          37.750
C07  39500423.746 6  39500415.054 5  39500418.811 7      -497.222 6      -403.939 5      -384.549 7 205689102.64706 167139209.95205 159051852.33207        38.500          33.000          42.250
C10  38348430.352 7  38348424.018 5  38348428.260 7       232.006 7       188.445 5       179.320 7 199690373.35007 162264758.05505 154413266.45607        42.500          35.750          45.500
C12  26289746.089 6  26289740.073 5  26289744.473 6       535.818 6       435.543 5       414.325 6 136897605.99406 111240497.02105 105857911.08306        36.500          30.250          41.500
C19  23761124.140 7  23761117.767 6                      2511.250 7      2040.559 6                 123730443.41507 100541098.56106                        47.250          40.250
C20  22151223.218 8  22151213.106 7                      -370.838 8      -301.391 7                 115347262.58408  93729068.44207                        53.500          45.500
C23  23545083.673 8                                     -1997.828 8                                 122605462.70808                                        49.500
C32  24574251.247 7  24574251.048 6                     -3036.129 7     -2467.136 6                 127964606.35307 103981739.38506                        45.750          38.500
C34  27136771.445 6  27136771.526 5                      1579.453 6      1283.308 5                 141308290.95806 114824559.72605                        38.500          31.250
C37  22405750.932 8                                      1159.747 8                                 116672649.15508                                        52.500
E01  27661258.503 6  27661257.497 5                  27661257.818 6  27661257.024 6     -2642.620 6     -1973.272 5                     -2024.852 6     -1999.081 6 145360907.68606 108548746.85105                 111380454.78906 109964601.39406        38.250          32.250                          41.250          41.000
E03  27010377.430 6  27010376.711 5                  27010377.358 7  27010376.310 7      2656.816 6      1984.011 5                      2035.701 7      2009.802 7 141940500.11306 105994541.53505                 108759621.27807 107377078.48007        40.250          34.750                          43.250          43.250
E05  23717469.331 8  23717468.180 7  23717463.275 6  23717469.012 8  23717467.922 8       736.021 8       549.587 7       597.471 6       563.992 8       556.824 8 124636182.67108  93072495.50007 101165690.43506  95500475.51308  94286462.57908        49.750          43.750          40.250          53.250          53.000
E09  22788149.916 8  22788148.659 6  22788145.250 6  22788149.399 8  22788148.380 8     -1874.807 8     -1399.997 6     -1521.822 6     -1436.553 8     -1418.268 8 119752579.85708  89425650.32806  97201727.64706  91758491.13808  90592069.80508        48.250          41.250          37.250          50.500          50.250
E13  27955670.294 5  27955669.386 5                  27955670.182 6  27955668.973 6      1324.798 5       989.317 5                      1015.258 6      1002.309 6 146908041.21705 109704056.64205                 112565901.78406 111134976.78806        35.500          31.750                          40.500          40.500
E15  26909374.208 6  26909374.364 5  26909369.683 4  26909375.165 6  26909374.043 6     -1175.100 6      -878.090 5      -953.740 4      -900.583 6      -889.189 6 141409724.23706 105598173.22505 114780601.20004 108352912.27206 106975541.31806        39.000          32.000          29.000          41.750          41.250
E24  23593001.901 7  23593011.562 6  23592989.741 5  23593012.565 8  23593011.433 8      2535.415 7      1893.203 6      2058.132 5      1942.831 8      1918.091 8 123982068.74507  92584058.14406 100634745.96805  94999293.42808  93791677.85408        45.500          38.750          35.500          48.500          48.250
E31  24569353.107 8  24569352.356 6  24569347.028 6  24569353.146 8  24569352.157 8      -208.652 8      -155.876 6      -169.264 6      -159.899 8      -157.878 8 129112851.21008  96415443.54106 104799355.01806  98930637.63808  97673034.66108        48.000          41.250          37.500          50.500          50.250
G05  20965569.284 8  20965568.864 9  20965569.440 7  20965568.619 9                     -1096.085 8      -854.069 7      -854.091 9                 110174836.96508  85850522.36307  85850535.35609                        49.250          54.250          47.000          54.250
G07  21809071.593 8  21809071.026 8  21809071.122 7  21809070.802 8                     -1879.991 8     -1464.919 7     -1464.927 8                 114607490.61708  89304564.27607  89304551.27408                        49.000          51.750          44.250          51.750
G08  24952738.364 5  24952737.649 5  24952743.216 6  24952742.319 5  24952736.667 5      1915.181 5      1492.305 6      1492.347 5      1430.126 5 131127529.48005 102177313.82706 102177307.82505  97919899.68605        35.250          30.250          37.750          30.250          34.500
G09  24604900.425 6  24604899.911 5  24604903.698 6  24604903.905 5  24604900.122 5     -3475.599 6     -2708.176 6     -2708.264 5     -2595.703 5 129299660.85506 100753011.39706 100753013.40705  96554955.29505        37.750          32.000          36.500          32.000          34.750
G13  21652990.830 8  21652990.272 6                  21652990.198 6                      2471.102 8                      1925.535 6                 113787265.87208                  88665412.74606                        48.500          37.500                          37.500
G15  23989549.580 6  23989549.165 3  23989550.760 6  23989550.469 3                      3543.772 6      2761.126 6      2761.371 3                 126065949.68906  98233239.56806  98233225.55203                        39.500          23.750          36.750          23.750
G18  24119993.212 6  24119992.895 3  24119994.553 6  24119993.748 3  24119993.701 6      1139.658 6       887.921 6       888.056 3       851.002 6 126751434.65006  98767345.61606  98767347.61803  94652045.22906        39.250          22.250          37.500          22.250          36.250
G21  26258729.780 4  26258728.506 1                  26258730.481 1                      1985.849 4                      1547.453 1                 137990561.43504                 107525114.96801                        29.000           7.250                           7.250
G27  24747752.054 6  24747751.339 5  24747754.982 5  24747754.863 5  24747750.063 5       413.216 6       322.064 5       321.983 5       308.719 5 130050321.31906 101337924.42205 101337921.43405  97115490.10205        37.500          30.250          35.000          30.250          33.500
G28  23385533.478 6  23385532.517 3                  23385532.639 3                      3204.459 6                      2496.991 3                 122891816.33806                  95759857.36203                        41.000          23.250                          23.250
G30  20620251.013 8  20620250.070 9  20620253.330 8  20620252.847 9  20620248.221 7        39.451 8        30.785 8        30.740 9        29.388 7 108360186.89708  84436543.08108  84436535.07809  80918327.39107        51.500          57.500          50.000          57.500          46.500
R01  19315942.670 7  19315942.478 7  19315950.760 7  19315951.607 7                      -530.311 7      -530.376 7      -412.433 7      -412.386 7                 103254819.43407 103254815.42907  80309340.32607  80309347.33007                        46.750          46.250          45.000          44.500
R02  21891047.073 7  21891047.288 7  21891054.680 7  21891054.426 7                      3662.067 7      3661.993 7      2848.205 7      2848.226 7                 116814852.42807 116814847.44407  90856032.05807  90856038.06607                        46.250          45.500          44.250          44.250
R08  21423710.568 6  21423710.049 6  21423717.735 7  21423718.031 7                     -3347.578 6     -3347.608 6     -2603.611 7     -2603.525 7                 114723029.21006 114723028.24106  89229066.56707  89229078.56307                        41.750          41.250          44.500          44.250
R09  23152441.935 6  23152442.326 6  23152449.440 7  23152450.240 6  23152430.221 6     -4094.971 6     -4094.914 6     -3184.951 7     -3184.798 6     -3074.688 6 123632787.63606 123632772.63606  96158863.40307  96158868.40306  92829096.71806        39.000          38.000          42.000          40.750          37.750
R10  20331900.483 8  20331900.050 8                                                     -2270.006 8     -2270.027 8                                                 108380466.76408 108380485.76708                                                        49.750          49.750
R11  20113560.320 8  20113560.918 8  20113567.724 8  20113567.868 8                      2461.901 8      2461.922 8      1914.812 8      1914.872 8                 107480772.64508 107480783.65308  83596196.21808  83596197.21308                        50.250          50.250          48.500          48.750
R12  23640575.847 6  23640575.883 6  23640584.535 6  23640584.244 6                      4515.479 6      4515.451 6      3512.120 6      3511.945 6                 126283707.71306 126283708.71806  98220680.08106  98220700.10606                        40.000          39.250          40.500          40.750
R17  23527831.817 6  23527832.877 6  23527842.219 6  23527841.902 6                     -3160.385 6     -3160.379 6     -2458.110 6     -2458.110 6                 125902182.70906 125902197.71506  97923968.45606  97923962.47006                        36.750          36.250          38.500          38.500
R18  22842893.903 6  22842893.873 6  22842902.158 7  22842902.179 7                      -162.194 6      -162.144 6      -126.129 7      -125.986 7                 121936945.24606 121936941.24506  94839866.03707  94839872.03507                        40.750          39.750          43.000          42.750
R19                                  24084182.677 5                                                                      2281.001 5                                                                 100204330.33405                                                                        35.500
S23  39369519.509 6  39369492.578 5         3.228 6         2.771 5 206888674.54906 154494274.40405        40.750          32.000
S25  40364231.099 6                      -215.257 6                 212114698.32406                        38.250
S36  39057547.352 6  39057524.026 5         -.760 6         -.844 5 205250085.38006 153270699.20105        41.500          35.250
> 2020 06 25 00 02 00.0000000  0 42
C05  40716000.106 5                  40715996.701 6        -2.299 5                        -1.865 6 212018933.96205                 163946490.01706        34.250                          37.500
C07  39503299.633 6  39503290.002 5  39503294.038 7      -501.312 6      -407.391 5      -387.688 7 205704075.74806 167151376.84805 159063430.49807        38.500          33.250          42.000
C10  38347107.141 7  38347099.994 6  38347104.369 7       226.987 7       184.421 6       175.601 7 199683480.95507 162259157.42306 154407936.81607        42.500          36.000          45.000
C12  26286707.090 6  26286701.531 5  26286704.694 6       518.865 6       421.926 5       401.141 6 136881780.83006 111227637.81105 105845674.13606        36.500          31.250          41.250
C19  23746680.477 7  23746673.580 6                      2502.531 7      2033.461 6                 123655229.24207 100479980.91506                        47.250          40.500
C20  22153402.095 8  22153392.196 7                      -386.060 8      -313.662 7                 115358609.74808  93738288.94307                        53.750          45.750
C23  23556626.387 8                                     -2009.702 8                                 122665568.35008                                        49.250
C32  24591762.413 7  24591762.146 6                     -3043.351 7     -2473.011 6                 128055790.89507 104055834.27906                        45.750          39.000
C34  27127711.534 6  27127710.330 5                      1565.501 6      1272.141 5                 141261107.71806 114786219.46405                        39.000          31.500
C37  22399111.435 8                                      1144.650 8                                 116638075.93708                                        52.250
E01  27676365.168 6  27676363.634 5  27676359.902 4  27676363.898 6  27676363.109 6     -2650.043 6     -1979.049 5     -2151.484 4     -2030.378 6     -2004.654 6 145440290.79506 108608026.44905 118052173.80904 111441280.79606 110024654.19106        39.750          32.250          28.250          41.250          41.250
E03  26995215.170 6  26995214.771 5                  26995215.976 7  26995214.621 7      2654.280 6      1982.235 5                      2033.763 7      2007.935 7 141860825.14206 105935044.00005                 108698571.65907 107316804.91107        40.250          34.250                          43.750          43.500
E05  23713293.150 8  23713292.035 7  23713287.068 6  23713292.834 8  23713291.744 8       726.483 8       542.648 7       589.697 6       556.687 8       549.631 8 124614236.70308  93056107.28007 101147877.15306  95483659.77408  94269860.60108        49.750          43.750          40.500          53.000          53.000
E09  22798874.048 8  22798872.769 6  22798869.270 6  22798873.479 8  22798872.435 8     -1882.685 8     -1406.038 6     -1528.146 6     -1442.603 8     -1424.291 8 119808935.24708  89467733.90406  97247470.64206  91801672.53608  90634702.29208        48.000          41.250          37.750          50.500          50.250
E13  27948143.890 5  27948143.178 5                  27948143.312 6  27948142.803 6      1311.158 5       979.423 5                      1004.672 6       991.944 6 146868491.29305 109674522.63205                 112535597.30306 111105057.53806        35.500          30.750                          39.000          39.250
E15  26916123.181 6  26916123.260 5  26916118.491 4  26916124.130 6  26916122.893 6     -1189.473 6      -888.142 5      -965.621 4      -911.547 6      -899.913 6 141445189.63006 105624657.09805 114809388.03304 108380087.05906 107002370.65506        38.750          32.250          29.500          41.750          41.500
E24  23578553.240 7  23578562.924 6  23578541.256 5  23578563.642 8  23578562.726 8      2525.853 7      1886.343 6      2050.342 5      1935.419 8      1910.846 8 123906140.07807  92527358.17806 100573115.56005  94941114.34108  93734238.33108        45.500          39.000          35.500          48.500          48.250
E31  24570585.451 8  24570584.735 6  24570579.346 6  24570585.459 8  24570584.487 8      -223.569 8      -166.781 6      -181.535 6      -171.247 8      -169.050 8 129119327.23008  96420279.53206 104804611.54306  98935599.79108  97677933.73608        48.000          41.500          37.750          50.250          50.250
G05  20971881.261 8  20971880.837 8  20971881.383 7  20971880.525 8                     -1115.676 8      -869.340 7      -869.357 8                 110208006.59408  85876368.82407  85876381.82008                        49.250          53.750          46.750          53.750
G07  21819836.821 8  21819836.254 8  21819836.586 7  21819836.036 8                     -1891.942 8     -1474.237 7     -1474.239 8                 114664062.62908  89348646.36107  89348633.35808                        48.750          51.250          44.250          51.250
G08  24941846.922 6  24941846.189 5  24941851.422 5  24941850.439 5  24941844.719 5      1900.168 6      1480.649 5      1480.654 5      1418.957 5 131070293.52306 102132714.39205 102132708.39805  97877158.58505        36.750          30.250          35.500          30.250          34.750
G09  24624752.291 6  24624751.755 5  24624754.727 5  24624753.742 5  24624750.745 5     -3479.008 6     -2710.907 5     -2710.914 5     -2598.105 5 129403976.19506 100834296.09305 100834298.10505  96632853.06805        38.250          31.500          35.500          31.500          34.500
G13  21638910.930 8  21638910.376 6                  21638910.186 6                      2461.060 8                      1917.710 6                 113713275.27808                  88607757.75606                        48.750          37.500                          37.500
G15  23969330.833 6  23969330.386 3  23969331.080 6  23969330.548 3                      3539.391 6      2758.055 6      2757.956 3                 125959695.97106  98150444.49206  98150430.48503                        39.750          23.500          36.500          23.500
G18  24113540.827 6  24113540.523 3  24113541.828 6  24113540.544 3  24113541.146 6      1120.465 6       873.192 6       873.081 3       836.664 6 126717525.54106  98740922.93106  98740924.92603  94626723.50906        39.500          21.500          36.750          21.500          36.250
G21  26247425.070 6  26247424.704 2                  26247425.758 2                      1974.381 6                      1538.475 2                 137931153.55406                 107478821.01802                        38.000          15.500                          15.500
G27  24745450.027 6  24745449.334 5  24745452.742 5  24745452.281 5  24745447.899 5       392.977 6       305.951 5       306.219 5       293.593 5 130038221.56706 101328496.06205 101328493.04805  97106454.55405        37.250          30.250          35.000          30.250          33.750
G28  23367260.431 6  23367259.479 3                  23367260.091 3                      3196.638 6                      2490.883 3                 122795792.99506                  95685033.99203                        40.250          22.750                          22.750
G30  20620072.818 8  20620071.875 9  20620075.074 8  20620074.594 9  20620069.970 7        22.570 8        17.572 8        17.589 9        16.880 7 108359250.40808  84435813.36008  84435805.35409  80917628.07207        51.250          57.250          49.750          57.250          46.500
R01  19318978.853 7  19318978.437 7  19318986.470 7  19318987.566 7                      -552.071 7      -552.091 7      -429.366 7      -429.408 7                 103271048.26907 103271044.27707  80321962.75607  80321969.76307                        46.750          45.750          45.000          44.500
R02  21870478.531 7  21870478.736 7  21870485.265 7  21870485.209 7                      3654.731 7      3654.743 7      2842.498 7      2842.654 7                 116705093.36307 116705088.35907  90770663.92707  90770669.90907                        46.500          45.750          44.000          44.250
R08  21442497.956 6  21442498.112 6  21442506.166 7  21442506.475 7                     -3360.257 6     -3360.308 6     -2613.542 7     -2613.537 7                 114823639.73106 114823638.75106  89307319.18907  89307331.18407                        41.250          41.000          44.500          44.750
R09  23175468.671 7  23175469.121 6  23175473.867 6  23175474.839 6  23175455.661 6     -4102.394 7     -4102.515 6     -3190.652 6     -3190.758 6     -3080.136 6 123755739.37707 123755724.37006  96254492.47906  96254497.46306  92921415.57306        42.500          41.000          41.500          40.000          39.000
R10  20344733.982 8  20344733.817 8                                                     -2291.242 8     -2291.242 8                                                 108448878.44108 108448897.44408                                                        49.750          49.750
R11  20099798.162 8  20099798.520 8  20099805.520 8  20099805.511 8                      2440.332 8      2440.335 8      1898.028 8      1898.017 8                 107407230.87408 107407241.87908  83538997.06908  83538998.07008                        50.250          50.250          48.500          48.750
R12  23615228.379 6  23615228.070 6  23615236.560 6  23615236.713 6                      4510.787 6      4510.918 6      3508.550 6      3508.477 6                 126148305.20706 126148306.21806  98115367.04906  98115387.06706                        38.750          38.250          40.000          40.000
R17  23545596.068 5  23545594.712 5  23545603.728 6  23545603.621 6                     -3176.601 5     -3176.549 5     -2470.598 6     -2470.683 6                 125997228.99705 125997243.99505  97997893.33106  97997887.33106                        35.750          35.500          38.750          38.500
R18  22843880.812 6  22843881.011 6  22843889.717 7  22843889.210 7                      -189.629 6      -189.630 6      -147.583 7      -147.443 7                 121942214.95506 121942210.94706  94843964.71307  94843970.70807                        41.250          40.000          43.000          43.000
R19                                  24067786.410 6                                                                      2266.604 6                                                                 100136107.67706                                                                        36.000
S23  39369499.207 6  39369473.412 5         3.278 6         2.415 5 206888572.57706 154494197.96605        41.000          32.000
S25  40365486.994 6                      -215.654 6                 212121153.77806                        38.250
S36  39057554.391 6  39057529.669 5        -1.277 6         -.711 5 205250110.41506 153270720.53205        41.500          35.000
> 2020 06 25 00 02 30.0000000  0 42
C05  40716010.006 5                  40716007.401 6        -1.477 5                         -.931 6 212018988.71405                 163946532.39906        34.250                          38.000
C07  39506197.291 6  39506188.280 5  39506192.140 7      -504.801 6      -410.297 5      -390.120 7 205719167.53906 167163640.15105 159075100.40507        38.000          33.250          42.250
C10  38345810.280 7  38345803.819 5  38345807.993 7       223.302 7       181.205 5       172.698 7 199676729.36507 162253671.22005 154402716.07607        42.250          35.500          45.250
C12  26283764.681 5  26283759.992 5  26283763.379 6       502.647 5       408.598 5       388.584 6 136866464.09505 111215191.70905 105833830.27906        35.500          31.000          41.000
C19  23732285.558 7  23732279.076 6                      2494.754 7      2027.204 6                 123580273.24207 100419073.02606                        47.000          40.250
C20  22155667.626 8  22155657.831 7                      -400.262 8      -325.279 7                 115370407.67308  93747875.72107                        53.250          45.500
C23  23568235.949 8                                     -2020.472 8                                 122726022.56008                                        49.000
C32  24609313.638 7  24609313.458 6                     -3049.405 7     -2478.093 6                 128147186.36307 104130100.59906                        45.500          38.250
C34  27118729.557 6  27118728.266 5                      1552.579 6      1261.556 5                 141214336.65606 114748214.10805                        38.500          31.250
C37  22392557.729 8                                      1130.604 8                                 116603949.72308                                        52.000
E01  27691510.886 6  27691509.324 5  27691506.925 4  27691510.128 6  27691509.286 6     -2655.906 6     -1983.326 5     -2156.140 4     -2035.124 6     -2009.233 6 145519884.18006 108667463.06305 118116778.84304 111502267.94406 110084866.07506        38.500          31.750          27.500          41.000          40.750
E03  26980067.594 6  26980067.172 5                  26980068.153 7  26980067.049 7      2652.688 6      1980.978 5                      2032.515 7      2006.720 7 141781223.29906 105875601.11105                 108637578.08207 107256586.67407        39.500          34.500                          43.500          43.250
E05  23709170.080 8  23709168.897 7  23709164.065 6  23709169.760 8  23709168.698 8       718.047 8       536.231 7       582.786 6       550.234 8       543.231 8 124592570.01508  93039927.60907 101130290.55706  95467058.02708  94253469.89308        49.500          43.750          40.500          53.000          52.750
E09  22809641.794 7  22809640.547 6  22809637.108 6  22809641.295 8  22809640.250 8     -1889.565 7     -1411.043 6     -1533.616 6     -1447.822 8     -1429.416 8 119865520.68107  89509989.24906  97293400.36806  91845030.20208  90677508.80108        47.750          41.000          37.750          50.250          50.250
E13  27940696.003 5  27940695.295 5                  27940695.338 6  27940694.784 6      1298.431 5       969.320 5                       994.734 6       982.074 6 146829352.40705 109645295.57905                 112505607.79706 111075449.26206        35.750          31.000                          38.750          39.000
E15  26922952.032 6  26922951.758 5  26922947.085 5  26922952.505 6  26922951.521 6     -1202.707 6      -897.824 5      -975.890 5      -921.442 6      -909.656 6 141481074.14906 105651453.98405 114838515.11505 108407582.99206 107029517.06206        38.750          32.250          30.000          41.500          41.250
E24  23564158.288 7  23564167.902 6  23564146.356 5  23564168.742 8  23564167.786 8      2517.324 7      1879.764 6      2043.170 5      1928.801 8      1904.274 8 123830493.95607  92470869.19806 100511714.53505  94883151.74608  93677012.54408        45.250          39.000          35.750          48.500          48.250
E31  24571901.236 8  24571900.513 6  24571894.894 6  24571901.277 8  24571900.316 8      -237.277 8      -177.274 6      -192.575 6      -181.789 8      -179.503 8 129126241.98108  96425443.16806 104810224.18406  98940898.12008  97683164.71508        48.000          41.250          37.750          50.250          50.250
G05  20978303.919 8  20978303.490 9  20978304.178 7  20978303.170 9                     -1134.196 8      -883.768 7      -883.785 9                 110241757.56908  85902668.28807  85902681.28109                        49.250          54.000          47.250          54.000
G07  21830668.954 8  21830668.387 8  21830668.664 7  21830668.171 8                     -1902.736 8     -1482.646 7     -1482.648 8                 114720985.88608  89393002.14307  89392989.13908                        48.750          51.500          44.500          51.500
G08  24931039.301 6  24931038.595 4  24931042.303 5  24931041.562 4  24931037.255 5      1886.307 6      1469.849 5      1469.851 4      1408.700 5 131013498.04906 102088458.18605 102088452.18704  97834746.41005        38.000          29.250          33.500          29.250          34.500
G09  24644620.385 6  24644619.844 5  24644623.183 6  24644622.627 5  24644618.771 5     -3481.384 6     -2712.731 6     -2712.761 5     -2599.652 5 129508384.41806 100915653.16306 100915655.17405  96710820.23605        37.750          32.750          37.500          32.750          34.000
G13  21624887.725 8  21624887.167 6                  21624886.842 6                      2451.912 8                      1910.586 6                 113639582.67308                  88550334.96406                        48.500          37.500                          37.500
G15  23949135.626 6  23949135.157 3  23949136.216 6  23949135.216 3                      3535.803 6      2755.198 6      2755.181 3                 125853570.30106  98067749.18806  98067735.19203                        39.000          23.500          36.750          23.500
G18  24107196.676 6  24107196.377 3  24107197.615 6  24107196.917 3  24107196.635 6      1102.367 6       858.763 6       858.987 3       823.073 6 126684186.16806  98714944.26006  98714946.23303  94601827.25306        39.750          22.000          37.750          22.000          36.250
G21  26236183.245 5  26236181.989 2                  26236183.080 2                      1964.082 5                      1530.457 2                 137872078.22305                 107432788.29902                        35.250          14.000                          14.000
G27  24743261.886 6  24743261.180 4  24743264.468 5  24743263.963 4  24743259.925 5       373.811 6       291.132 5       291.283 4       278.935 5 130026724.67006 101319537.44905 101319534.43704  97097869.22905        36.000          27.500          33.750          27.500          34.500
G28  23349032.515 6  23349031.550 3                  23349032.014 3                      3189.644 6                      2485.427 3                 122700002.38006                  95610391.98403                        40.250          22.750                          22.750
G30  20619989.835 8  20619988.892 9  20619992.388 8  20619991.753 9  20619987.138 7         6.756 8         5.252 8         5.264 9         5.026 7 108358815.17208  84435474.21908  84435466.21709  80917303.06907        51.500          57.500          50.000          57.500          46.500
R01  19322135.946 7  19322135.456 7  19322143.968 7  19322144.822 7                      -572.890 7      -572.892 7      -445.621 7      -445.526 7                 103287925.39007 103287921.40307  80335089.42507  80335096.41907                        46.500          45.750          45.000          44.500
R02  21849950.176 7  21849950.282 7  21849957.789 7  21849957.555 7                      3648.267 7      3648.249 7      2837.531 7      2837.547 7                 116595551.47907 116595546.47707  90685464.71207  90685470.71907                        45.750          45.500          44.250          44.500
R08  21461357.600 6  21461357.042 6  21461364.846 7  21461365.024 7                     -3371.991 6     -3371.996 6     -2622.751 7     -2622.656 7                 114924627.56506 114924626.57106  89385865.26807  89385877.26307                        41.250          40.500          44.250          44.250
R09  23198532.478 6  23198533.017 6  23198538.740 6  23198538.735 6  23198520.966 6     -4108.521 6     -4108.457 6     -3195.355 6     -3195.673 6     -3084.942 6 123878904.52806 123878889.49506  96350287.58206  96350292.62306  93013894.72806        41.000          40.000          40.000          39.250          38.750
R10  20357686.295 8  20357685.599 8                                                     -2311.310 8     -2311.305 8                                                 108517919.30608 108517938.30408                                                        49.750          49.750
R11  20086156.355 8  20086156.597 8  20086163.538 8  20086163.726 8                      2419.669 8      2419.681 8      1881.959 8      1881.994 8                 107334332.91408 107334343.92408  83482298.66708  83482299.67108                        50.250          49.750          48.250          48.500
R12  23589905.856 5  23589904.440 5  23589912.716 6  23589912.725 6                      4507.642 5      4507.330 5      3505.689 6      3505.644 6                 126013030.99705 126013032.04105  98010153.85406  98010173.87206                        35.750          35.500          38.250          39.000
R17  23563446.428 6  23563445.067 5  23563453.605 6  23563453.878 6                     -3191.416 6     -3191.431 5     -2482.253 6     -2482.164 6                 126092749.89706 126092764.88905  98072187.37306  98072181.36706                        36.250          35.750          39.500          38.500
R18  22845021.306 6  22845021.507 6  22845029.603 7  22845029.755 7                      -215.972 6      -215.952 6      -168.033 7      -168.009 7                 121948302.11306 121948298.09806  94848699.17307  94848705.16207                        41.500          40.000          43.250          43.250
R19                                  24051491.922 5                                                                      2252.953 5                                                                 100068314.41905                                                                        35.250
S23  39369482.162 6  39369453.594 5         4.006 6         2.836 5 206888468.27606 154494119.84105        41.500          32.000
S25  40366741.691 6                      -214.482 6                 212127611.21606                        38.750
S36  39057559.716 7  39057534.704 5         -.569 7         -.175 5 205250138.47107 153270739.17805        42.000          35.000
> 2020 06 25 00 03 00.0000000  0 42
C05  40716021.069 5                  40716017.440 6        -1.732 5                        -1.156 6 212019041.09205                 163946572.89406        34.250                          37.750
C07  39509118.985 6  39509109.812 5  39509113.631 6      -509.069 6      -413.362 5      -393.629 6 205734380.57206 167176001.96305 159086864.09906        38.500          32.500          41.750
C10  38344541.475 7  38344534.643 5  38344539.083 7       218.018 7       177.263 5       168.564 7 199670121.58207 162248301.83905 154397606.52107        42.500          35.250          45.250
C12  26280922.666 6  26280916.423 5  26280920.018 6       485.184 6       393.949 5       375.079 6 136851659.37106 111203161.73805 105822382.37606        36.500          31.250          41.000
C19  23717941.323 7  23717934.867 6                      2485.482 7      2019.807 6                 123505580.20607 100358378.83206                        47.000          40.000
C20  22158020.539 8  22158010.592 7                      -415.833 8      -337.941 7                 115382659.58808  93757831.41007                        53.250          45.250
C23  23579912.669 8                                     -2032.495 8                                 122786826.64508                                        49.250
C32  24626906.369 7  24626905.733 6                     -3056.935 7     -2484.078 6                 128238794.53807 104204539.74006                        46.000          38.250
C34  27109826.666 6  27109826.864 5                      1538.271 6      1250.088 5                 141167982.59706 114710547.66405                        37.750          31.250
C37  22386090.670 8                                      1115.163 8                                 116570274.01308                                        52.250
E01  27706696.989 6  27706695.460 5  27706692.556 4  27706696.851 6  27706695.712 6     -2663.627 6     -1989.060 5     -2161.943 4     -2040.961 6     -2015.014 6 145599689.28206 108727057.74505 118181555.63904 111563417.26406 110145238.07006        37.000          30.750          28.000          41.500          41.000
E03  26964934.879 6  26964934.353 5                  26964934.727 7  26964933.947 7      2649.645 6      1978.439 5                      2030.233 7      2004.380 7 141701698.52306 105816215.76705                 108576643.54407 107196426.73007        39.750          34.750                          42.750          43.000
E05  23705100.896 8  23705099.707 7  23705094.622 6  23705100.595 8  23705099.521 8       708.214 8       528.943 7       574.949 6       542.651 8       535.768 8 124571186.32908  93023959.28407 101112933.66706  95450673.13208  94237293.28008        49.750          43.750          40.500          53.000          52.750
E09  22820453.972 8  22820452.644 6  22820449.278 6  22820453.506 8  22820452.392 8     -1897.637 8     -1417.060 6     -1540.325 6     -1454.019 8     -1435.539 8 119922338.85208  89552418.40106  97339519.02006  91888566.19308  90720491.36908        48.000          41.250          37.750          50.250          50.250
E13  27933326.990 5  27933325.886 5                  27933327.047 6  27933325.774 6      1283.931 5       958.827 5                       983.826 6       971.346 6 146790628.77905 109616378.58905                 112475936.45006 111046155.09806        35.750          31.000                          39.250          39.500
E15  26929860.156 6  26929859.950 5  26929855.990 4  26929861.258 6  26929860.156 6     -1217.018 6      -908.811 5      -988.520 4      -932.655 6      -920.788 6 141517379.71506 105678565.33305 114867983.92804 108435401.55706 107056982.01506        38.500          31.750          29.750          41.000          40.750
E24  23549817.933 7  23549827.802 6  23549806.044 5  23549828.278 8  23549827.490 8      2507.381 7      1872.402 6      2035.289 5      1921.176 8      1896.769 8 123755134.89007  92414594.57306 100450546.42805  94825409.10108  93620003.91108        45.750          39.500          35.250          48.250          48.250
E31  24573300.983 8  24573300.410 6  24573294.969 6  24573301.136 8  24573300.140 8      -252.425 8      -188.416 6      -204.886 6      -193.424 8      -190.942 8 129133598.09408  96430936.37506 104816195.05806  98946534.63408  97688729.57708        48.250          41.250          38.000          50.250          50.250
G05  20984837.483 8  20984837.054 9  20984837.822 7  20984836.926 9                     -1154.076 8      -899.244 7      -899.285 9                 110276092.08408  85929422.45907  85929435.45009                        49.750          54.250          47.250          54.250
G07  21841568.092 8  21841567.529 8  21841567.826 7  21841567.420 8                     -1914.929 8     -1492.144 7     -1492.154 8                 114778261.82708  89437632.75407  89437619.74308                        48.750          51.250          44.500          51.250
G08  24920316.239 6  24920315.533 4  24920319.824 5  24920317.788 4  24920312.980 5      1870.971 6      1458.017 5      1457.901 4      1397.330 5 130957147.86206 102044548.91905 102044542.92004  97792666.75805        37.750          28.500          33.500          28.500          33.000
G09  24664506.649 6  24664506.117 5  24664510.185 6  24664509.775 5  24664504.727 5     -3484.890 6     -2715.506 6     -2715.496 5     -2602.254 5 129612887.44006 100997084.05406 100997086.06705  96788858.19105        37.750          33.500          39.000          33.500          32.250
G13  21610921.964 8  21610921.410 6                  21610921.138 6                      2441.430 8                      1902.412 6                 113566192.17108                  88493147.57606                        48.750          37.500                          37.500
G15  23928966.064 6  23928965.640 4  23928965.909 6  23928965.618 4                      3531.143 6      2751.274 6      2751.538 4                 125747577.07106  97985157.11806  97985143.10904                        40.250          24.250          37.250          24.250
G18  24100961.430 6  24100961.082 3  24100962.419 6  24100961.826 3  24100961.369 5      1082.605 6       843.819 6       843.588 3       808.387 5 126651420.80106  98689412.76106  98689414.76803  94577359.61705        39.750          21.750          37.000          21.750          35.750
G21  26225007.576 5  26225006.664 2                  26225006.375 2                      1952.559 5                      1521.450 2                 137813344.58305                 107387021.80302                        34.250          12.000                          12.000
G27  24741189.495 6  24741188.776 4  24741192.020 5  24741191.299 4  24741187.393 5       353.259 6       275.020 5       275.277 4       263.726 5 130015834.32406 101311051.46205 101311048.45604  97089736.84905        36.000          28.000          34.750          28.000          34.000
G28  23330849.281 6  23330848.334 3                  23330848.210 3                      3181.145 6                      2478.797 3                 122604450.13806                  95535935.71603                        41.000          23.500                          23.500
G30  20620002.970 8  20620002.027 9  20620005.423 8  20620004.784 9  20620000.249 7       -10.553 8        -8.220 8        -8.222 9        -7.877 7 108358883.82408  84435527.72408  84435519.71809  80917354.34207        51.500          57.250          50.000          57.250          46.500
R01  19325415.294 7  19325414.529 7  19325422.404 7  19325423.930 7                      -594.989 7      -595.039 7      -462.763 7      -462.831 7                 103305454.26107 103305450.28007  80348722.98107  80348729.98107                        46.500          45.500          44.750          44.500
R02  21829463.803 7  21829463.816 7  21829470.531 7  21829470.731 7                      3640.456 7      3640.429 7      2831.449 7      2831.364 7                 116486232.39807 116486227.40307  90600438.79207  90600444.79507                        46.000          45.500          44.250          44.250
R08  21480286.552 6  21480286.306 6  21480294.313 7  21480294.476 7                     -3385.120 6     -3385.086 6     -2632.791 7     -2632.757 7                 115025994.12606 115025993.16806  89464705.92907  89464717.92207                        41.250          40.750          44.000          44.250
R09  23221637.753 6  23221638.217 6  23221644.558 6  23221644.356 6  23221625.295 6     -4115.982 6     -4115.990 6     -3201.291 6     -3201.324 6     -3090.576 6 124002282.84806 124002267.83906  96446248.47906  96446253.49006  93106533.93206        41.000          40.000          41.250          41.000          37.000
R10  20370756.198 8  20370755.549 8                                                     -2332.643 8     -2332.615 8                                                 108587588.97808 108587607.97908                                                        50.000          50.000
R11  20072636.096 8  20072636.146 8  20072643.345 8  20072643.216 8                      2397.575 8      2397.562 8      1864.768 8      1864.733 8                 107262084.26608 107262095.27208  83426105.28908  83426106.28508                        50.000          50.000          48.250          48.500
R12  23564604.737 6  23564605.350 5  23564614.458 6  23564614.217 6                      4502.637 6      4502.486 5      3501.906 6      3501.836 6                 125877891.57106 125877892.55905  97905045.44406  97905065.44506                        37.250          35.750          38.250          38.000
R17  23581382.627 6  23581384.600 6  23581392.833 6  23581392.802 6                     -3207.434 6     -3207.525 6     -2494.602 6     -2494.687 6                 126188744.44706 126188759.44906  98146849.78906  98146843.78806                        36.000          36.000          39.250          38.750
R18  22846314.752 6  22846314.978 6  22846322.990 7  22846323.056 7                      -243.879 6      -243.815 6      -189.610 7      -189.583 7                 121955209.64506 121955205.63406  94854071.71007  94854077.70507                        40.250          39.500          42.000          42.500
R19                                  24035301.550 5                                                                      2238.199 5                                                                 100000955.99305                                                                        35.250
S23  39369462.102 6  39369433.780 5         3.319 6         2.674 5 206888365.16306 154494042.88305        40.750          32.000
S25  40367994.693 6                      -215.189 6                 212134064.15506                        38.250
S36  39057564.859 6  39057539.359 5        -1.033 6         -.544 5 205250171.08806 153270755.94305        41.500          35.000
> 2020 06 25 00 03 30.0000000  0 42
C05  40716031.314 5                  40716027.658 6        -1.885 5                        -1.790 6 212019094.23305                 163946614.01106        34.500                          37.750
C07  39512064.171 6  39512055.047 5  39512058.679 6      -513.587 6      -417.198 5      -397.071 6 205749717.78306 167188464.71305 159098723.80106        38.750          33.000          41.750
C10  38343300.694 7  38343294.063 5  38343298.498 7       212.754 7       172.799 5       164.473 7 199663660.65407 162243051.80105 154392610.52107        42.500          35.500          45.500
C12  26278178.136 6  26278172.286 5  26278176.060 6       467.442 6       379.844 5       361.606 6 136837370.39006 111191550.78605 105811333.26706        36.000          30.500          41.000
C19  23703648.870 7  23703642.587 6                      2476.110 7      2012.032 6                 123431155.04407 100297902.30806                        47.000          40.500
C20  22160461.205 8  22160451.422 7                      -431.500 8      -350.616 7                 115395368.81008  93768158.68907                        53.500          45.500
C23  23591656.686 8                                     -2044.623 8                                 122847982.01608                                        49.250
C32  24644540.070 7  24644539.199 6                     -3064.533 7     -2490.313 6                 128330617.16407 104279153.15006                        46.000          38.000
C34  27101006.334 6  27101006.312 5                      1523.721 6      1238.222 5                 141122050.27006 114673223.86105                        38.250          31.750
C37  22379710.939 8                                      1099.578 8                                 116537052.40708                                        52.250
E01  27721924.111 6  27721921.909 5  27721918.691 4  27721923.890 6  27721922.155 6     -2671.112 6     -1994.862 5     -2168.029 4     -2046.691 6     -2020.735 6 145679707.45806 108786811.57005 118246505.43904 111624729.84706 110205771.28206        38.500          31.000          27.500          41.250          41.000
E03  26949817.012 6  26949816.473 5                  26949817.055 7  26949816.138 7      2646.475 6      1976.565 5                      2027.859 7      2002.165 7 141622254.82106 105756890.94005                 108515771.11707 107136328.10507        39.750          34.750                          42.500          42.750
E05  23701086.322 8  23701085.223 7  23701080.294 6  23701085.974 8  23701084.912 8       698.278 8       521.415 7       566.883 6       535.013 8       528.214 8 124550089.46908  93008205.13907 101095809.59706  95434508.01408  94221333.65108        49.500          43.750          40.500          53.000          52.750
E09  22831310.904 7  22831309.608 6  22831306.467 6  22831310.478 8  22831309.344 8     -1905.989 7     -1423.246 6     -1547.117 6     -1460.434 8     -1441.864 8 119979392.54407  89595023.42506  97385828.82506  91932282.65608  90763652.11408        47.750          41.250          37.500          50.000          50.000
E13  27926038.170 6  27926036.919 5                  27926038.043 6  27926036.787 6      1269.374 6       947.747 5                       972.753 6       960.298 6 146752324.66406 109587774.91405                 112446586.55906 111017178.30406        36.500          30.250                          39.250          39.250
E15  26936849.565 6  26936849.260 5  26936844.889 4  26936850.262 6  26936849.177 6     -1231.488 6      -919.735 5      -999.720 4      -943.661 6      -931.640 6 141554108.37606 105705992.58405 114897796.14904 108463544.28806 107084767.00406        38.250          32.000          28.500          40.500          40.500
E24  23535532.946 7  23535542.822 6  23535520.837 5  23535543.413 8  23535542.534 8      2497.192 7      1864.833 6      2027.061 5      1913.401 8      1889.099 8 123680067.44907  92358537.73806 100389615.08705  94767889.90208  93563215.89408        45.750          39.500          35.500          48.250          48.250
E31  24574785.427 8  24574784.748 6  24574779.391 6  24574785.391 8  24574784.441 8      -267.641 8      -199.796 6      -217.136 6      -205.098 8      -202.477 8 129141398.23408  96436761.16106 104822526.33906  98952511.37208  97694630.34108        48.000          41.250          37.500          50.250          50.250
G05  20991482.603 8  20991482.179 9  20991482.873 7  20991482.178 9                     -1174.026 8      -914.847 7      -914.825 9                 110311012.32108  85956633.03107  85956646.02409                        49.500          54.500          47.250          54.500
G07  21852534.963 8  21852534.400 8  21852534.489 7  21852534.249 8                     -1927.218 8     -1501.745 7     -1501.728 8                 114835892.71108  89482539.92607  89482526.92108                        48.750          51.250          44.250          51.250
G08  24909679.397 6  24909678.718 4  24909682.367 5  24909681.149 4  24909675.948 5      1855.476 6      1445.719 5      1445.833 4      1385.259 5 130901249.31806 102000991.61705 102000985.59004  97750924.38705        37.000          29.500          35.000          29.500          32.500
G09  24684412.253 6  24684411.735 5  24684414.643 6  24684414.510 5  24684408.832 5     -3488.491 6     -2718.369 6     -2718.306 5     -2604.799 5 129717487.32906 101078590.42406 101078592.42905  96866968.45805        37.500          33.500          38.500          33.500          32.500
G13  21597014.617 8  21597014.063 6                  21597013.774 6                      2430.772 8                      1894.107 6                 113493108.71708                  88436199.44806                        48.500          37.750                          37.750
G15  23908822.125 6  23908821.705 4  23908822.151 6  23908821.911 4                      3525.951 6      2747.414 6      2747.505 4                 125641720.83806  97902671.77006  97902657.76604                        40.250          24.750          37.250          24.750
G18  24094836.542 6  24094836.198 3  24094837.017 6  24094836.897 3  24094836.524 5      1063.082 6       828.226 6       828.372 3       793.657 5 126619233.63006  98664331.87206  98664333.86403  94553323.77605        39.500          21.750          38.000          21.750          35.500
G21  26213895.047 5  26213893.885 1                  26213895.730 1                      1940.309 5                      1511.815 1                 137754957.57205                 107341525.47801                        31.250           8.500                           8.500
G27  24739233.385 5  24739232.657 4  24739235.583 5  24739235.336 4  24739231.178 5       332.273 5       258.758 5       258.915 4       248.140 5 130005554.45405 101303041.17305 101303038.16304  97082060.29905        34.750          28.500          35.250          28.500          33.500
G28  23312713.188 6  23312712.236 4                  23312712.145 4                      3172.544 6                      2472.111 4                 122509142.12206                  95461669.76504                        41.000          24.250                          24.250
G30  20620112.499 8  20620111.556 9  20620114.884 8  20620114.258 9  20620109.614 7       -27.781 8       -21.688 8       -21.649 9       -20.772 7 108359459.08808  84435975.99208  84435967.98509  80917783.93307        51.250          57.500          50.000          57.500          46.500
R01  19328816.950 7  19328816.320 7  19328824.571 7  19328825.569 7                      -617.289 7      -617.206 7      -480.215 7      -480.172 7                 103323638.54607 103323634.55307  80362866.31707  80362873.31607                        46.250          45.750          44.750          44.250
R02  21809020.998 7  21809020.496 7  21809027.692 7  21809027.658 7                      3632.160 7      3632.141 7      2824.997 7      2824.961 7                 116377142.49007 116377137.49907  90515591.12107  90515597.12207                        45.500          45.500          44.000          44.250
R08  21499286.003 6  21499286.762 6  21499294.983 7  21499295.107 7                     -3398.232 6     -3398.084 6     -2642.912 7     -2643.109 7                 115127740.54806 115127739.54906  89543841.99107  89543854.00507                        41.500          40.750          44.000          44.250
R09  23244782.974 6  23244782.378 6  23244789.348 6  23244788.951 6  23244770.150 6     -4123.460 6     -4123.469 6     -3207.223 6     -3207.216 6     -3096.206 6 124125874.13106 124125859.15806  96542375.02006  96542380.02006  93199333.05906        39.250          38.500          40.750          40.750          37.500
R10  20383943.853 8  20383943.513 8                                                     -2354.002 8     -2354.030 8                                                 108657887.62408 108657906.62008                                                        50.000          50.000
R11  20059238.209 8  20059238.185 8  20059245.496 8  20059245.475 8                      2375.326 8      2375.322 8      1847.471 8      1847.410 8                 107190489.95708 107190500.96908  83370420.84608  83370421.84608                        50.000          50.000          48.250          48.750
R12  23539332.639 6  23539334.239 6  23539343.198 6  23539342.788 6                      4497.357 6      4497.310 6      3497.944 6      3497.753 6                 125742893.10506 125742894.10406  97800046.68306  97800066.70506                        40.250          39.500          38.500          38.500
R17  23599411.860 6  23599411.660 5  23599420.382 6  23599419.916 6                     -3223.677 6     -3223.808 5     -2507.266 6     -2507.365 6                 126285211.43406 126285226.45305  98221879.66706  98221873.67806                        36.500          34.750          39.750          39.500
R18  22847763.902 6  22847763.672 6  22847771.714 7  22847771.102 7                      -271.623 6      -271.771 6      -211.418 7      -211.250 7                 121962940.24406 121962936.25106  94860084.43007  94860090.42407                        40.250          40.000          42.000          42.000
R19                                  24019216.906 5                                                                      2222.915 5                                                                  99934038.23105                                                                        35.000
S23  39369439.382 6  39369414.655 5         3.153 6         2.269 5 206888265.98506 154493969.04005        41.000          31.750
S25  40369248.559 6                      -215.448 6                 212140515.51906                        38.250
S36  39057571.338 6  39057544.890 5        -1.040 6        -1.012 5 205250203.43906 153270777.66805        41.750          35.000
> 2020 06 25 00 04 00.0000000  0 42
C05  40716040.007 5                  40716036.158 6         -.670 5                         -.665 6 212019139.65205                 163946649.13306        34.250                          37.750
C07  39515031.746 6  39515022.609 5  39515026.093 6      -516.287 6      -419.510 5      -399.206 6 205765170.33206 167201021.18205 159110672.70606        38.500          33.500          40.750
C10  38342086.922 7  38342079.752 5  38342084.178 7       209.320 7       170.173 5       161.878 7 199657337.73207 162237913.93305 154387721.25107        42.500          35.500          45.000
C12  26275532.063 6  26275525.783 5  26275529.762 6       451.883 6       366.916 5       349.232 6 136823589.12606 111180352.43705 105800676.76106        36.500          31.500          41.750
C19  23689406.368 7  23689399.789 6                      2468.614 7      2005.957 6                 123356991.03807 100237637.98806                        46.750          40.500
C20  22162988.178 8  22162978.279 7                      -445.267 8      -361.772 7                 115408527.00908  93778850.80707                        53.250          45.500
C23  23603466.637 8                                     -2054.721 8                                 122909478.46608                                        49.000
C32  24662212.647 7  24662212.190 6                     -3070.141 7     -2494.721 6                 128422644.35907 104353932.76606                        45.250          38.000
C34  27092266.013 6  27092264.991 5                      1511.147 6      1227.470 5                 141076532.81606 114636237.19905                        38.750          31.500
C37  22373416.747 8                                      1085.910 8                                 116504276.81308                                        52.250
E01  27737189.778 6  27737187.982 5  27737185.166 4  27737189.005 6  27737187.778 6     -2676.481 6     -1999.295 5     -2172.552 4     -2050.669 6     -2024.742 6 145759928.42406 108846716.84505 118311619.88304 111686197.84406 110266457.90906        38.000          31.500          26.750          39.750          40.000
E03  26934713.324 6  26934712.563 5                  26934713.483 7  26934712.352 7      2645.333 6      1975.268 5                      2026.889 7      2001.100 7 141542884.48606 105697620.95605                 108454954.92407 107076285.01607        39.500          34.250                          42.500          42.750
E05  23697124.853 8  23697123.589 7  23697118.612 6  23697124.454 8  23697123.394 8       690.107 8       515.410 7       560.275 6       528.800 8       522.087 8 124529271.56408  92992659.30707 101078911.94906  95418556.63808  94205585.04708        49.500          43.750          40.500          52.750          52.750
E09  22842210.965 8  22842209.608 6  22842206.355 6  22842210.513 8  22842209.411 8     -1912.267 8     -1428.142 6     -1552.169 6     -1465.205 8     -1446.635 8 120036672.79408  89637797.62406  97432322.53306  91976172.70608  90806984.23908        48.000          41.250          37.250          50.000          50.000
E13  27918827.108 6  27918825.971 5                  27918827.249 6  27918826.113 6      1256.981 6       938.864 5                       963.210 6       950.945 6 146714432.68306 109559478.91105                 112417552.44406 110988513.26106        36.250          30.500                          39.250          39.250
E15  26943917.639 6  26943917.792 5  26943912.792 4  26943917.983 6  26943917.216 6     -1244.026 6      -929.303 5     -1009.688 4      -953.257 6      -941.206 6 141591250.35306 105733728.48205 114927943.81604 108492003.74406 107112864.68606        38.500          32.500          28.500          39.750          40.250
E24  23521302.376 7  23521312.338 6  23521290.068 5  23521312.565 7  23521311.823 8      2488.868 7      1858.532 6      2019.986 5      1907.047 7      1882.793 8 123605284.48507  92302693.32806 100328914.64405  94710588.67907  93506643.07808        46.000          39.750          35.000          47.750          48.000
E31  24576352.571 8  24576351.867 6  24576346.502 6  24576352.472 8  24576351.521 8      -280.910 8      -209.768 6      -228.089 6      -215.233 8      -212.505 8 129149633.35708  96442910.77406 104829210.71106  98958821.41008  97700860.16708        48.250          41.250          37.750          50.000          50.000
G05  20998237.363 8  20998236.934 9  20998237.656 7  20998236.966 9                     -1191.949 8      -928.818 7      -928.794 9                 110346508.61308  85984292.48307  85984305.47509                        49.750          54.500          47.250          54.500
G07  21863567.500 8  21863566.942 8  21863566.916 7  21863566.672 8                     -1937.459 8     -1509.633 7     -1509.709 8                 114893868.22608  89527715.65607  89527702.64808                        48.750          51.250          44.500          51.250
G08  24899126.229 5  24899125.523 4  24899129.803 6  24899129.023 4  24899122.837 5      1841.517 5      1435.209 6      1434.945 4      1375.054 5 130845795.50905 101957780.86306 101957774.85504  97709514.09105        34.250          28.500          36.250          28.500          30.500
G09  24704332.490 6  24704331.932 5  24704335.432 6  24704335.271 5  24704330.889 5     -3490.303 6     -2719.564 6     -2719.719 5     -2606.431 5 129822174.38206 101160164.74406 101160166.73605  96945143.87605        38.500          32.750          37.250          32.750          33.250
G13  21583164.224 8  21583163.670 6                  21583163.523 6                      2421.959 8                      1887.236 6                 113420324.85408                  88379484.76706                        48.750          38.000                          38.000
G15  23888702.771 6  23888702.333 4  23888703.349 6  23888702.757 4                      3522.767 6      2745.011 6      2745.012 4                 125535994.95906  97820287.99506  97820274.00004                        39.750          24.250          36.750          24.250
G18  24088819.905 6  24088819.548 3  24088820.734 6  24088820.199 3  24088819.752 5      1045.211 6       814.528 6       814.462 3       780.332 5 126587617.21106  98639695.69406  98639697.69303  94529714.11005        39.750          21.500          37.500          21.500          34.250
G21  26202851.277 5  26202850.222 1                  26202849.830 1                      1929.802 5                      1503.756 1                 137696910.62005                 107296294.02301                        33.000          10.500                          10.500
G27  24737391.643 6  24737390.933 4  24737394.427 5  24737393.881 4  24737389.510 5       313.285 6       244.237 5       244.113 4       233.868 5 129995877.08806 101295500.37205 101295497.37704  97074833.73405        36.750          27.500          33.750          27.500          33.750
G28  23294621.936 6  23294620.975 4                  23294621.047 4                      3165.813 6                      2466.874 4                 122414072.78806                  95387589.78604                        41.250          24.500                          24.500
G30  20620316.664 8  20620315.725 9  20620318.921 8  20620318.446 9  20620313.784 7       -43.215 8       -33.693 8       -33.675 9       -32.235 7 108360531.96108  84436812.00208  84436803.99709  80918585.11007        51.750          57.250          50.000          57.250          46.250
R01  19332339.343 7  19332339.024 7  19332347.175 7  19332348.287 7                      -637.666 7      -637.664 7      -495.881 7      -496.035 7                 103342469.59607 103342465.60807  80377512.67207  80377519.68907                        46.000          45.500          44.500          44.250
R02  21788619.058 7  21788618.960 7  21788626.133 7  21788626.193 7                      3625.894 7      3625.961 7      2820.102 7      2820.155 7                 116268275.98507 116268270.99307  90430917.21907  90430923.21307                        45.750          45.750          44.000          44.500
R08  21518355.591 6  21518356.529 6  21518364.099 7  21518364.082 7                     -3409.235 6     -3409.202 6     -2651.568 7     -2651.611 7                 115229856.04406 115229855.06506  89623265.16407  89623277.16807                        41.250          40.750          44.000          44.000
R09  23267966.115 6  23267965.702 6  23267971.323 6  23267971.390 6  23267952.060 6     -4129.026 6     -4128.824 6     -3211.302 6     -3211.542 6     -3100.193 6 124249666.14906 124249651.14606  96638657.61406  96638662.62906  93292282.84406        41.750          40.750          40.500          40.250          38.250
R10  20397247.310 8  20397246.943 8                                                     -2373.306 8     -2373.235 8                                                 108728802.64908 108728821.64108                                                        50.000          49.750
R11  20045961.227 8  20045961.723 8  20045968.660 8  20045968.906 8                      2354.904 8      2354.929 8      1831.568 8      1831.482 8                 107119543.72508 107119554.72808  83315240.45208  83315241.45708                        50.250          50.250          48.750          49.000
R12  23514087.171 6  23514087.663 6  23514094.966 6  23514095.569 6                      4494.000 6      4493.978 6      3495.244 6      3495.322 6                 125608029.74906 125608030.74406  97695153.01806  97695173.00106                        41.500          40.750          37.250          37.000
R17  23617522.417 5  23617524.204 5  23617533.514 6  23617532.961 6                     -3237.772 5     -3237.724 5     -2518.276 6     -2518.151 6                 126382137.69005 126382152.68605  98297266.73606  98297260.72706                        35.000          35.000          39.500          39.250
R18  22849363.606 6  22849364.428 6  22849371.983 7  22849372.381 7                      -297.512 6      -297.540 6      -231.392 7      -231.465 7                 121971484.47206 121971480.47506  94866729.95507  94866735.94807                        41.250          40.250          42.500          42.500
R19                                  24003239.610 5                                                                      2209.505 5                                                                  99867557.15905                                                                        35.500
S23  39369423.498 6  39369394.766 5         4.342 6         3.169 5 206888161.83806 154493891.50205        40.750          32.750
S25  40370499.205 6                      -214.160 6                 212146959.40406                        38.000
S36  39057574.075 6  39057549.487 5         0.228 6         0.056 5 205250221.51806 153270798.44705        41.500          35.250
> 2020 06 25 00 04 30.0000000  0 42
C05  40716048.360 5                  40716045.084 6        -1.820 5                        -1.274 6 212019185.69105                 163946684.70106        34.250                          38.000
C07  39518022.994 6  39518014.121 5  39518016.960 6      -521.214 6      -423.892 5      -403.096 6 205780746.18906 167213677.87705 159122716.95906        38.500          32.750          40.750
C10  38340900.268 7  38340893.544 5  38340897.866 7       203.313 7       165.369 5       157.255 7 199651161.19607 162232894.97705 154382945.15707        42.500          35.750          45.000
C12  26272985.736 6  26272978.506 5  26272982.430 6       433.348 6       352.032 5       335.090 6 136810324.44606 111169573.79405 105790419.70406        37.000          31.000          41.500
C19  23675216.264 7  23675209.781 6                      2458.372 7      1997.635 6                 123283098.33507 100177594.13706                        46.750          40.500
C20  22165602.772 8  22165593.047 7                      -461.592 8      -375.113 7                 115422142.67908  93789914.66007                        53.250          45.500
C23  23615343.172 8                                     -2067.413 8                                 122971322.60308                                        49.000
C32  24679926.371 7  24679925.862 6                     -3078.239 7     -2501.434 6                 128514883.12707 104428884.34306                        45.250          37.750
C34  27083605.698 6  27083605.262 5                      1495.768 6      1215.414 5                 141031440.27906 114599595.80105                        37.750          31.250
C37  22367209.897 8                                      1069.628 8                                 116471955.98708                                        52.250
E01  27752495.536 6  27752493.922 5  27752490.837 4  27752493.952 6  27752493.422 6     -2684.615 6     -2004.715 5     -2179.094 4     -2057.040 6     -2030.861 6 145840358.91706 108906778.52805 118376904.36104 111747826.40906 110327303.04306        37.500          32.000          27.000          39.250          39.750
E03  26919625.571 6  26919624.797 5                  26919625.204 7  26919624.444 7      2641.405 6      1972.525 5                      2023.888 7      1998.176 7 141463596.82506 105638412.65205                 108394202.08407 107016304.45007        39.250          34.250                          42.250          42.500
E05  23693218.109 8  23693216.925 7  23693211.977 6  23693217.774 8  23693216.685 8       679.410 8       507.389 7       551.602 6       520.587 8       513.982 8 124508741.65008  92977328.53207 101062248.06106  95402825.92608  94190054.30208        49.500          44.000          40.500          52.750          52.750
E09  22853155.774 8  22853154.398 6  22853151.159 6  22853155.193 8  22853154.123 8     -1921.171 8     -1434.708 6     -1559.388 6     -1472.094 8     -1453.401 8 120094187.59608  89680746.98506  97479006.61806  92020242.48808  90850493.81108        48.000          41.250          37.500          50.000          50.000
E13  27911697.169 6  27911696.282 5                  27911696.909 6  27911695.918 6      1241.886 6       927.841 5                       951.580 6       939.587 6 146676962.24006 109531497.71205                 112388841.30106 110960167.08606        36.500          30.250                          39.500          39.500
E15  26951065.643 6  26951065.518 5  26951061.014 4  26951066.160 6  26951065.247 6     -1259.301 6      -940.191 5     -1021.773 4      -964.898 6      -952.578 6 141628812.92706 105761778.43505 114958432.91004 108520785.46306 107141280.52106        38.750          32.500          28.750          40.250          40.500
E24  23507127.604 7  23507137.225 6  23507115.203 5  23507137.862 8  23507136.972 8      2477.942 7      1850.513 6      2011.300 5      1898.661 8      1874.563 8 123530795.81707  92247068.68106 100268453.05805  94653512.95408  93450292.89408        46.250          40.000          35.250          48.000          48.250
E31  24578003.871 8  24578003.186 6  24577997.780 6  24578003.876 8  24578002.887 8      -296.785 8      -221.557 6      -240.850 6      -227.414 8      -224.514 8 129158311.39408  96449391.13806 104836254.56706  98965470.82908  97707425.06008        48.250          41.500          37.750          50.000          50.250
G05  21005103.246 8  21005102.822 9  21005103.458 7  21005102.754 9                     -1212.521 8      -944.772 7      -944.823 9                 110382588.56008  86012406.72407  86012419.71909                        49.750          54.500          47.500          54.500
G07  21874666.600 8  21874666.042 8  21874666.318 7  21874665.955 8                     -1950.195 8     -1519.668 7     -1519.635 8                 114952195.02508  89573165.11007  89573152.10008                        48.500          51.250          44.500          51.250
G08  24888659.681 5  24888658.997 4  24888665.214 6  24888663.794 4  24888657.793 5      1825.452 5      1422.595 6      1422.421 4      1363.002 5 130790797.91905 101914925.66806 101914919.65104  97668444.50105        32.750          28.500          38.250          28.500          30.250
G09  24724271.401 6  24724270.820 5  24724275.154 6  24724274.330 5  24724270.248 5     -3494.350 6     -2722.714 6     -2722.873 5     -2609.526 5 129926955.87606 101241812.63306 101241814.64005  97023389.75605        37.250          32.500          37.500          32.500          34.000
G13  21569373.012 8  21569372.454 6                  21569372.122 6                      2410.481 8                      1878.295 6                 113347850.83708                  88323011.53006                        48.750          38.000                          38.000
G15  23868611.128 6  23868610.713 4  23868611.133 6  23868610.474 4                      3517.023 6      2740.667 6      2740.542 4                 125430409.64206  97738013.74306  97737999.76204                        40.250          24.500          37.000          24.500
G18  24082914.352 6  24082913.999 3  24082914.368 6  24082914.174 3  24082913.660 5      1024.716 6       798.471 6       798.467 3       765.126 5 126556581.00606  98615511.66106  98615513.65303  94506537.72405        40.000          22.000          37.500          22.000          34.750
G21  26191870.826 5  26191869.615 2                  26191870.539 2                      1917.348 5                      1494.024 2                 137639213.69005                 107251335.41702                        32.750          12.250                          12.250
G27  24735666.994 5  24735666.292 4  24735668.859 5  24735668.237 4  24735664.866 5       291.806 5       227.435 5       227.381 4       218.043 5 129986811.21505 101288436.06505 101288433.06904  97068063.77605        34.750          27.750          33.750          27.750          34.500
G28  23276578.445 6  23276577.484 4                  23276577.790 4                      3156.455 6                      2459.566 4                 122319252.64606                  95313703.99104                        41.000          25.000                          25.000
G30  20620616.921 8  20620615.982 9  20620619.387 8  20620618.800 9  20620614.182 7       -61.167 8       -47.677 8       -47.662 9       -45.617 7 108362110.36508  84438041.93608  84438033.93209  80919763.79507        51.500          57.500          50.250          57.500          46.500
R01  19335984.019 7  19335984.345 7  19335992.899 7  19335993.715 7                      -660.675 7      -660.644 7      -513.840 7      -513.907 7                 103361956.43807 103361952.44707  80392669.10807  80392676.11907                        46.000          45.500          44.500          44.250
R02  21768261.506 7  21768261.563 7  21768268.480 7  21768268.357 7                      3616.899 7      3617.028 7      2813.183 7      2813.248 7                 116159644.07407 116159639.06807  90346425.74607  90346431.74507                        46.250          46.000          44.250          44.250
R08  21537495.982 6  21537495.874 6  21537503.939 7  21537504.039 7                     -3422.762 6     -3422.741 6     -2662.181 7     -2662.126 7                 115332347.74406 115332346.77006  89702980.94607  89702992.94507                        41.250          40.500          44.000          44.250
R09  23291185.544 6  23291186.753 6  23291191.882 6  23291192.074 6  23291173.338 6     -4136.682 6     -4136.817 6     -3217.552 6     -3217.574 6     -3106.133 6 124373663.92706 124373648.90206  96735100.35206  96735105.35606  93385387.16106        41.500          40.750          40.000          39.500          38.750
R10  20410667.404 8  20410666.918 8                                                     -2395.046 8     -2394.993 8                                                 108800340.38908 108800359.38108                                                        49.750          49.250
R11  20032808.359 8  20032808.280 8  20032815.563 8  20032815.427 8                      2331.777 8      2331.784 8      1813.610 8      1813.634 8                 107049256.12908 107049267.13208  83260572.33608  83260573.33208                        50.250          50.250          48.750          48.750
R12  23488868.555 6  23488868.383 6  23488874.408 5  23488874.688 5                      4488.142 6      4487.840 6      3490.591 5      3490.793 5                 125473313.03406 125473314.05706  97590373.29305  97590393.26905                        41.000          40.750          33.750          33.750
R17  23635724.234 5  23635723.529 5  23635732.256 6  23635732.438 6                     -3254.077 5     -3254.067 5     -2530.967 6     -2530.943 6                 126479527.30305 126479542.31605  98373014.22606  98373008.21606                        35.500          34.750          39.000          39.000
R18  22851118.618 6  22851118.726 6  22851126.674 7  22851126.831 7                      -325.972 6      -325.907 6      -253.536 7      -253.500 7                 121980850.61806 121980846.60106  94874014.73507  94874020.73007                        41.250          40.500          42.750          42.750
R19                                  23987367.148 5                                                                      2193.702 5                                                                  99801522.49405                                                                        34.750
S23  39369403.832 6  39369375.587 5         3.245 6         2.261 5 206888060.87506 154493816.24505        40.750          32.000
S25  40371750.865 6                      -215.344 6                 212153416.00206                        38.000
S36  39057579.217 6  39057555.282 5        -1.022 6        -1.121 5 205250247.72506 153270821.92105        41.500          35.000
> 2020 06 25 00 05 00.0000000  0 42
C05  40716055.022 5                  40716052.323 6        -1.091 5                         -.805 6 212019223.17605                 163946713.68906        34.500                          38.000
C07  39521036.444 6  39521026.805 5  39521030.028 6      -525.271 6      -426.756 5      -406.316 6 205796436.06106 167226427.16505 159134849.37906        38.500          33.000          40.750
C10  38339740.285 7  38339733.699 5  38339738.227 7       198.474 7       161.355 5       153.465 7 199645121.65707 162227987.35105 154378275.00107        42.500          35.750          45.000
C12  26270534.424 6  26270528.604 5  26270531.850 6       416.456 6       338.373 5       321.974 6 136797567.65406 111159207.90405 105780555.37006        36.500          31.250          41.250
C19  23661076.654 7  23661069.917 6                      2449.430 7      1990.487 6                 123209469.59107 100117764.77006                        47.000          40.750
C20  22168303.505 8  22168293.888 7                      -476.721 8      -387.365 7                 115436206.86908  93801342.96607                        53.000          45.500
C23  23627284.325 8                                     -2078.726 8                                 123033503.57608                                        49.250
C32  24697678.197 7  24697677.954 6                     -3085.127 7     -2506.825 6                 128607323.00007 104503999.28806                        45.000          38.250
C34  27075026.647 6  27075025.783 5                      1481.770 6      1204.093 5                 140986765.08306 114563293.54405                        38.500          32.000
C37  22361088.634 8                                      1054.636 8                                 116440081.21208                                        52.250
E01  27767838.587 6  27767837.116 5  27767834.369 4  27767837.763 6  27767836.843 6     -2691.302 6     -2009.667 5     -2184.356 4     -2062.152 6     -2035.980 6 145920988.00006 108966988.51505 118442350.05004 111809607.12206 110388298.40106        38.500          32.500          28.250          40.250          40.500
E03  26904551.712 6  26904551.050 5                  26904551.445 7  26904550.587 7      2638.778 6      1970.358 5                      2021.891 7      1996.163 7 141384383.52006 105579259.92605                 108333506.19307 106956380.12807        39.750          34.500                          42.500          42.750
E05  23689364.592 8  23689363.409 7  23689358.375 6  23689364.273 8  23689363.157 8       669.934 8       500.304 7       543.895 6       513.330 8       506.807 8 124488491.23208  92962206.47207 101045811.03006  95387309.37508  94174734.99508        49.500          44.000          40.500          53.000          53.000
E09  22864143.298 7  22864142.027 6  22864138.616 6  22864142.669 8  22864141.665 8     -1928.856 7     -1440.417 6     -1565.636 6     -1477.906 8     -1459.138 8 120151927.38207  89723864.34906  97525873.32906  92064484.65108  90894173.57308        47.750          41.500          37.250          50.000          50.000
E13  27904645.343 6  27904643.608 5                  27904645.537 6  27904644.071 6      1228.100 6       916.855 5                       940.943 6       928.916 6 146639905.28406 109503825.38405                 112360447.03306 110932133.77606        37.250          30.000                          40.250          39.750
E15  26958291.328 6  26958290.983 5  26958286.793 4  26958292.001 6  26958291.170 6     -1273.090 6      -950.482 5     -1032.953 4      -975.371 6      -962.986 6 141666785.66706 105790134.70805 114989254.95804 108549881.45906 107170006.66106        39.250          32.500          29.250          40.500          40.500
E24  23493007.270 7  23493017.476 6  23492995.294 5  23493017.676 8  23493016.804 8      2468.128 7      1843.180 6      2003.215 5      1891.216 8      1867.194 8 123456593.66407  92191657.98906 100208224.05105  94596656.76108  93394159.45008        46.000          40.250          35.250          48.250          48.500
E31  24579737.654 8  24579737.013 6  24579731.362 6  24579737.754 8  24579736.701 8      -311.401 8      -232.488 6      -252.775 6      -238.597 8      -235.542 8 129167422.63008  96456194.99606 104843650.05406  98972452.17108  97714317.65608        48.250          41.750          37.750          50.250          50.250
G05  21012078.157 8  21012077.728 9  21012078.309 7  21012077.631 9                     -1231.809 8      -959.831 7      -959.854 9                 110419241.94508  86040967.80607  86040980.79709                        50.000          54.500          47.250          54.500
G07  21885830.718 8  21885830.160 8  21885830.209 7  21885830.040 8                     -1961.709 8     -1528.595 7     -1528.604 8                 115010862.39008  89618879.91207  89618866.91208                        48.750          51.000          44.500          51.000
G08  24878280.910 5  24878280.258 4  24878284.560 6  24878283.620 4  24878276.961 5      1810.006 5      1410.625 6      1410.394 4      1351.757 5 130736249.47005 101872420.42106 101872414.41604  97627710.26005        34.750          29.750          38.250          29.750          30.500
G09  24744227.786 6  24744227.232 5  24744230.255 6  24744229.299 5  24744225.896 5     -3497.255 6     -2725.263 6     -2725.134 5     -2611.593 5 130031821.54506 101323526.15506 101323528.14305  97101698.50305        36.750          30.750          36.500          30.750          34.000
G13  21555639.078 8  21555638.520 6                  21555638.182 6                      2400.252 8                      1870.327 6                 113275678.57408                  88266773.41706                        49.000          38.250                          38.250
G15  23848543.610 6  23848543.199 4  23848543.897 6  23848543.531 4                      3512.414 6      2736.799 6      2736.932 4                 125324957.23606  97655843.08406  97655829.08504                        40.000          24.500          36.750          24.500
G18  24077116.904 6  24077116.547 3  24077118.041 6  24077117.502 3  24077116.751 5      1005.484 6       783.433 6       783.492 3       750.880 5 126526116.85606  98591773.35306  98591775.36003  94483788.50305        39.750          22.250          38.000          22.250          34.250
G21  26180957.354 5  26180956.152 1                  26180956.614 1                      1905.919 5                      1485.010 1                 137581859.76205                 107206644.12001                        32.250           6.750                           6.750
G27  24734056.274 6  24734055.581 4  24734057.813 5  24734057.734 4  24734053.889 5       271.550 6       211.713 5       211.595 4       202.426 5 129978348.25506 101281841.57305 101281838.56104  97061744.09205        36.250          27.750          33.750          27.750          33.750
G28  23258580.874 6  23258579.935 4                  23258580.225 4                      3148.031 6                      2453.011 4                 122224675.69306                  95240007.70204                        40.750          24.500                          24.500
G30  20621011.733 8  20621010.794 9  20621013.970 8  20621013.506 9  20621008.854 7       -77.864 8       -60.648 8       -60.674 9       -58.178 7 108364184.63408  84439658.25608  84439650.25309  80921312.78207        51.750          57.250          50.000          57.250          46.750
R01  19339750.616 7  19339750.542 7  19339759.248 7  19339760.073 7                      -682.302 7      -682.356 7      -530.720 7      -530.571 7                 103382089.63407 103382085.64407  80408328.26207  80408335.25507                        46.000          45.500          44.750          44.250
R02  21747946.373 7  21747946.928 7  21747953.340 7  21747953.620 7                      3609.195 7      3609.162 7      2807.141 7      2807.240 7                 116051239.96407 116051234.96607  90262111.46507  90262117.45407                        47.000          46.500          44.500          44.500
R08  21556702.813 6  21556703.693 6  21556711.319 7  21556711.353 7                     -3435.072 6     -3435.021 6     -2671.638 7     -2671.509 7                 115435204.02306 115435203.03206  89782980.25307  89782992.23407                        41.250          40.500          43.500          43.750
R09  23314441.721 6  23314442.128 6  23314448.662 6  23314448.938 6  23314430.299 6     -4143.269 6     -4143.412 6     -3222.527 6     -3222.409 6     -3111.306 6 124497854.83706 124497839.84606  96831693.24306  96831698.23506  93478636.48206        39.000          37.750          40.250          39.750          37.500
R10  20424202.537 8  20424201.773 8                                                     -2415.452 8     -2415.419 8                                                 108872487.09708 108872506.09408                                                        50.250          49.250
R11  20019776.563 8  20019776.734 8  20019783.877 8  20019783.858 8                      2309.919 8      2309.923 8      1796.571 8      1796.689 8                 106979619.83608 106979630.84408  83206410.79708  83206411.78208                        50.250          50.000          49.000          49.000
R12  23463675.095 6  23463675.176 6  23463682.456 6  23463683.073 6                      4482.944 6      4482.945 6      3486.812 6      3487.025 6                 125338736.80806 125338737.81506  97485702.85006  97485722.83106                        41.000          40.500          37.750          37.500
R17  23654006.264 5  23654007.668 6  23654016.305 6  23654016.358 6                     -3269.177 5     -3269.169 6     -2542.819 6     -2542.591 6                 126577366.81905 126577381.82706  98449111.60406  98449105.58706                        35.750          36.000          38.750          38.750
R18  22853026.357 6  22853025.784 6  22853033.682 7  22853033.433 7                      -353.109 6      -353.195 6      -274.704 7      -274.568 7                 121991028.41706 121991024.43806  94881930.81807  94881936.79807                        40.750          40.250          43.000          42.500
R19                                  23971599.980 5                                                                      2178.567 5                                                                  99735930.05705                                                                        33.750
S23  39369384.305 6  39369355.634 5         3.302 6         2.255 5 206887953.76506 154493736.14205        40.750          31.750
S25  40373003.997 6                      -215.021 6                 212161455.74406                        37.750
S36  39057584.181 6  39057559.741 5        -1.087 6         -.805 5 205250267.96806 153270837.60305        41.500          35.000
> 2020 06 25 00 05 30.0000000  0 42
C05  40716064.176 5                  40716059.666 6        -1.651 5                        -1.293 6 212019261.53805                 163946743.38806        34.500                          38.000
C07  39524072.501 6  39524063.060 5  39524066.578 6      -529.550 6      -430.182 5      -409.403 6 205812248.86506 167239276.36505 159147076.83706        38.250          32.500          40.750
C10  38338609.249 7  38338601.909 5  38338606.372 7       193.698 7       157.357 5       149.722 7 199639228.46407 162223198.66105 154373718.01407        42.750          35.500          45.250
C12  26268184.515 6  26268178.124 5  26268182.631 7       399.004 6       324.477 5       308.665 7 136785328.68906 111149262.72405 105771091.44507        36.750          31.000          42.250
C19  23646989.587 7  23646983.221 6                      2440.236 7      1982.885 6                 123136115.97207 100058158.97806                        47.250          40.750
C20  22171092.163 8  22171082.688 7                      -492.028 8      -399.803 7                 115450729.10308  93813143.46907                        53.000          45.500
C23  23639291.773 8                                     -2090.171 8                                 123096029.07008                                        49.000
C32  24715470.369 7  24715470.272 6                     -3092.094 7     -2512.392 6                 128699971.98307 104579284.17006                        44.750          38.250
C34  27066529.482 6  27066528.492 5                      1467.485 6      1192.511 5                 140942518.31206 114527339.44405                        37.750          31.750
C37  22355054.909 8                                      1039.412 8                                 116408662.29408                                        52.500
E01  27783220.844 6  27783219.655 5  27783217.670 4  27783220.155 6  27783219.425 6     -2698.264 6     -2014.995 5     -2190.727 4     -2067.457 6     -2041.191 6 146001823.44906 109027352.63305 118507963.27104 111871545.96406 110449449.87506        38.500          33.000          28.000          40.750          41.000
E03  26889493.717 6  26889493.330 5                  26889493.946 7  26889492.751 7      2635.959 6      1968.134 5                      2019.823 7      1994.055 7 141305254.89706 105520170.42205                 108272875.20207 106896519.88207        39.250          34.750                          42.750          42.750
E05  23685566.212 8  23685565.001 7  23685560.025 6  23685565.850 8  23685564.738 8       660.312 8       493.046 7       535.948 6       505.944 8       499.498 8 124468530.42408  92947300.67807 101029609.08306  95372014.73408  94159634.78008        49.750          44.250          40.500          53.250          53.250
E09  22875175.313 8  22875174.104 6  22875170.695 6  22875174.744 8  22875173.748 8     -1936.680 8     -1446.176 6     -1572.040 6     -1483.945 8     -1465.071 8 120209901.24908  89767156.50906  97572930.03606  92108906.18008  90938030.42008        48.000          41.500          37.250          50.250          50.250
E13  27897675.013 6  27897672.809 5                  27897674.392 6  27897673.053 6      1213.566 6       906.471 5                       929.983 6       918.180 6 146603272.43206 109476469.65805                 112332377.72906 110904421.27306        37.250          30.500                          40.500          40.250
E15  26965596.964 6  26965597.015 5  26965592.807 4  26965597.794 6  26965596.729 6     -1286.906 6      -960.916 5     -1044.931 4      -986.166 6      -973.634 6 141705176.88506 105818803.49905 115020416.69604 108579298.11206 107199049.37706        39.750          32.250          28.500          41.000          41.000
E24  23478943.667 7  23478953.256 6  23478931.677 5  23478954.133 8  23478953.041 8      2458.243 7      1835.698 6      1995.436 5      1883.579 8      1859.636 8 123382688.90007  92136469.38406 100148236.41405  94540028.44508  93338250.99208        46.250          40.000          35.500          48.500          48.500
E31  24581555.675 8  24581554.855 6  24581549.636 6  24581555.619 8  24581554.617 8      -326.107 8      -243.514 6      -264.770 6      -249.868 8      -246.697 8 129176976.01308  96463329.03306 104851404.44106  98979772.30308  97721544.73908        48.500          41.500          37.750          50.500          50.500
G05  21019163.813 8  21019163.384 9  21019163.853 7  21019163.176 9                     -1251.155 8      -974.927 7      -974.924 9                 110456477.24908  86069982.32707  86069995.31609                        50.000          54.500          46.750          54.500
G07  21897061.167 8  21897060.609 8  21897060.434 7  21897060.413 8                     -1973.314 8     -1537.634 7     -1537.646 8                 115069878.27208  89664866.31907  89664853.30908                        48.500          51.000          44.000          51.000
G08  24867987.617 6  24867986.960 5  24867992.360 6  24867991.403 5  24867985.136 5      1794.891 6      1398.552 6      1398.619 5      1340.619 5 130682161.83106 101830274.27206 101830268.26905  97587320.14605        36.750          32.500          38.500          32.500          32.000
G09  24764199.606 6  24764199.048 5  24764203.629 6  24764202.378 5  24764198.602 5     -3500.442 6     -2727.614 6     -2727.618 5     -2614.157 5 130136779.75306 101405311.74506 101405313.74205  97180076.37805        36.250          31.250          36.250          31.250          34.000
G13  21541964.583 8  21541964.025 6                  21541963.737 6                      2389.774 8                      1862.161 6                 113203818.96908                  88210778.93806                        49.000          38.250                          38.250
G15  23828504.234 6  23828503.868 4  23828504.449 6  23828503.695 4                      3507.516 6      2733.385 6      2733.139 4                 125219648.82606  97573784.59106  97573770.60604                        40.000          24.250          36.750          24.250
G18  24071430.994 6  24071430.673 3  24071431.258 6  24071431.280 3  24071430.634 5       985.954 6       768.430 6       768.272 3       736.439 5 126496235.20906  98568488.96806  98568490.97303  94461474.31505        39.000          21.750          37.500          21.750          35.000
G21  26170110.352 5  26170109.051 1                  26170109.804 1                      1893.221 5                      1475.193 1                 137524860.04605                 107162228.76901                        32.500           9.250                           9.250
G27  24732562.015 6  24732561.291 4  24732564.767 5  24732563.984 4  24732559.911 5       251.103 6       195.738 5       195.670 4       187.699 5 129970498.22206 101275724.67305 101275721.66504  97055882.03905        36.500          28.000          34.500          28.000          34.000
G28  23240631.963 6  23240631.011 3                  23240631.204 3                      3139.436 6                      2446.313 3                 122130354.02806                  95166510.30703                        40.750          23.750                          23.750
G30  20621502.413 8  20621501.470 9  20621504.907 8  20621504.235 9  20621499.737 7       -94.693 8       -73.828 8       -73.786 9       -70.629 7 108366763.75308  84441667.97408  84441659.96709  80923238.74907        51.500          57.250          49.750          57.250          46.750
R01  19343639.645 7  19343639.857 7  19343648.223 7  19343649.258 7                      -704.294 7      -704.257 7      -547.694 7      -547.762 7                 103402879.33607 103402875.34007  80424498.02807  80424505.03507                        46.000          45.500          44.500          44.250
R02  21727676.690 7  21727676.866 7  21727683.020 7  21727683.616 7                      3601.064 7      3601.076 7      2800.793 7      2800.808 7                 115943076.65007 115943071.64807  90177984.47007  90177990.47507                        46.750          46.500          44.250          44.750
R08  21575980.156 6  21575980.723 6  21575988.904 7  21575988.911 7                     -3447.480 6     -3447.429 6     -2681.334 7     -2681.269 7                 115538432.70506 115538431.71106  89863269.22907  89863281.22007                        41.500          40.250          44.000          44.000
R09  23337737.521 6  23337737.543 6  23337744.317 7  23337744.008 6  23337724.042 6     -4149.850 6     -4149.925 6     -3227.676 7     -3227.690 6     -3115.951 6 124622245.13406 124622230.14106  96928441.21107  96928446.21306  93572035.54306        41.500          40.500          42.250          41.000          36.250
R10  20437852.204 8  20437851.673 8                                                     -2435.900 8     -2435.951 8                                                 108945249.49108 108945268.49208                                                        49.750          49.250
R11  20006869.126 8  20006869.400 8  20006876.494 8  20006876.350 8                      2287.739 8      2287.722 8      1779.400 8      1779.298 8                 106910646.53708 106910657.55008  83152764.90708  83152765.91308                        50.000          50.250          48.500          49.000
R12  23438510.813 6  23438511.107 6  23438518.780 6  23438518.838 6                      4477.939 6      4477.831 6      3482.783 6      3482.816 6                 125204313.44406 125204314.47306  97381151.39206  97381171.38106                        40.250          39.750          39.750          40.000
R17  23672375.575 6  23672376.118 5  23672384.662 6  23672384.607 6                     -3284.407 6     -3284.522 5     -2554.343 6     -2554.419 6                 126675661.22206 126675676.21905  98525562.77506  98525556.77606                        36.500          35.500          37.250          38.250
R18  22855085.967 6  22855086.066 6  22855093.987 7  22855093.804 7                      -380.637 6      -380.621 6      -296.019 7      -295.995 7                 122002027.11306 122002023.11506  94890485.37807  94890491.36507                        41.250          40.250          42.750          42.500
R19                                  23955944.235 5                                                                      2163.589 5                                                                  99670790.19705                                                                        33.750
S23  39369364.370 6  39369335.575 5         3.228 6         2.481 5 206887850.18006 154493658.56505        40.500          32.000
S25  40374253.015 6                      -215.075 6                 212167897.10006                        38.250
S36  39057590.039 6  39057565.160 5        -1.520 6        -1.383 5 205250298.00606 153270857.69305        41.500          34.750
> 2020 06 25 00 06 00.0000000  0 42
C05  40716068.965 5                  40716066.351 6        -1.178 5                         -.729 6 212019295.27105                 163946769.45106        34.000                          38.250
C07  39527131.770 6  39527121.862 5  39527125.931 6      -532.911 6      -432.936 5      -412.052 6 205828178.75006 167252220.70305 159159394.83806        38.000          32.000          41.500
C10  38337504.289 7  38337497.306 5  38337501.469 7       189.680 7       154.000 5       146.555 7 199633475.73507 162218524.11205 154369269.64607        42.500          35.750          45.500
C12  26265933.728 6  26265926.052 5  26265929.816 6       382.776 6       310.624 5       295.796 6 136773602.37506 111139734.17605 105762023.93606        37.000          31.750          41.750
C19  23632954.966 7  23632948.628 6                      2431.742 7      1975.994 6                 123063033.70107  99998773.64406                        47.250          41.000
C20  22173968.025 8  22173958.408 7                      -506.499 8      -411.592 7                 115465703.94808  93825311.75707                        52.750          45.500
C23  23651363.900 8                                     -2100.826 8                                 123158891.76408                                        49.000
C32  24733301.516 7  24733301.470 6                     -3098.149 7     -2517.515 6                 128792823.13607 104654733.34606                        45.250          38.500
C34  27058113.538 6  27058112.871 5                      1453.830 6      1181.333 5                 140898695.95006 114491730.16105                        36.500          31.250
C37  22349107.802 8                                      1024.973 8                                 116377693.99908                                        52.250
E01  27798641.024 6  27798639.381 5  27798636.964 4  27798640.863 6  27798639.749 6     -2704.412 6     -2019.628 5     -2194.642 4     -2072.021 6     -2045.809 6 146082857.95006 109087865.40505 118573737.91404 111933637.29106 110510751.91806        36.750          31.250          27.500          41.500          41.000
E03  26874451.874 6  26874450.776 5                  26874451.546 7  26874450.262 7      2633.875 6      1966.903 5                      2018.099 7      1992.482 7 141226206.22906 105461140.60605                 108212305.49607 106836720.12407        39.500          34.500                          43.000          43.000
E05  23681821.776 8  23681820.789 7  23681815.781 6  23681821.553 8  23681820.487 8       651.387 8       486.401 7       528.886 6       499.100 8       492.751 8 124448854.28308  92932607.46207 101013638.18906  95356938.21608  94144749.91308        49.750          44.000          40.250          53.250          53.000
E09  22886250.828 7  22886249.522 6  22886246.193 6  22886250.165 8  22886249.201 8     -1943.623 7     -1451.330 6     -1577.656 6     -1489.299 8     -1470.349 8 120268103.12307  89810618.93506  97620171.81406  92153502.41808  90982059.75408        47.500          41.000          37.000          50.000          50.000
E13  27890783.299 6  27890781.667 5                  27890782.968 6  27890781.948 6      1200.365 6       896.605 5                       919.671 6       908.060 6 146567059.04406 109449427.22605                 112304629.83906 110877026.11006        36.250          31.000                          40.250          40.250
E15  26972980.850 6  26972981.139 5  26972976.785 4  26972981.603 6  26972980.750 6     -1299.984 6      -970.766 5     -1054.870 4      -996.134 6      -983.444 6 141743979.73806 105847779.65705 115051912.48104 108609030.17106 107228403.48206        38.500          32.000          28.750          41.000          40.750
E24  23464935.837 7  23464945.461 6  23464923.601 5  23464946.425 8  23464945.250 8      2448.999 7      1828.884 6      1987.722 5      1876.509 8      1852.662 8 123309077.30307  92081499.69906 100088486.76005  94483624.75908  93282564.30208        46.000          39.500          35.500          48.750          48.500
E31  24583456.685 8  24583455.896 6  24583450.415 6  24583456.508 8  24583455.512 8      -340.058 8      -253.887 6      -276.102 6      -260.557 8      -257.235 8 129186965.38008  96470788.63006 104859512.71206  98987426.50308  97729101.64008        48.250          41.250          37.500          50.500          50.250
G05  21026358.896 8  21026358.472 9  21026358.986 7  21026358.267 9                     -1269.725 8      -989.369 7      -989.394 9                 110494288.12908  86099445.34307  86099458.33709                        50.000          54.250          47.000          54.250
G07  21908356.363 8  21908355.805 8  21908356.066 7  21908355.709 8                     -1984.049 8     -1545.966 7     -1546.012 8                 115129235.68308  89711118.83407  89711105.83508                        48.500          51.000          44.250          51.000
G08  24857783.214 6  24857782.557 5  24857786.623 6  24857785.926 5  24857780.457 5      1780.259 6      1387.265 6      1387.216 5      1329.418 5 130628532.27106 101788485.00606 101788479.01205  97547272.12605        38.750          33.250          38.000          33.250          34.250
G09  24784189.727 6  24784189.195 5  24784192.187 6  24784191.872 5  24784187.729 5     -3502.769 6     -2729.263 6     -2729.425 5     -2615.490 5 130241823.70106 101487164.14806 101487166.15405  97258518.24405        37.500          32.250          37.750          32.250          33.250
G13  21528348.651 8  21528348.093 6                  21528347.995 6                      2380.110 8                      1854.630 6                 113132267.72708                  88155024.74006                        49.250          38.250                          38.250
G15  23808491.422 6  23808491.069 4  23808492.288 6  23808491.145 4                      3503.411 6      2730.009 6      2729.928 4                 125114480.28006  97491835.11306  97491821.11104                        40.000          24.750          36.750          24.750
G18  24065854.110 6  24065853.793 3  24065854.836 6  24065854.308 3  24065854.454 5       967.425 6       753.709 6       753.829 3       722.148 5 126466931.46406  98545654.89806  98545656.89003  94439591.67505        38.750          20.750          37.000          20.750          34.750
G21  26159330.197 5  26159328.789 1                  26159329.853 1                      1882.890 5                      1467.182 1                 137468210.56405                 107118086.26701                        35.250          11.750                          11.750
G27  24731184.579 6  24731183.846 4  24731186.464 5  24731186.085 4  24731181.825 5       231.462 6       180.496 5       180.353 4       172.940 5 129963255.97906 101270081.34405 101270078.35604  97050473.88005        36.750          27.750          33.750          27.750          34.000
G28  23222731.404 6  23222730.452 3                  23222730.668 3                      3131.533 6                      2440.148 3                 122036284.66406                  95093209.51603                        40.500          23.750                          23.750
G30  20622088.198 8  20622087.255 9  20622090.475 8  20622089.915 9  20622085.232 7      -110.696 8       -86.259 8       -86.256 9       -82.616 7 108369841.62608  84444066.32208  84444058.32009  80925537.17207        51.500          57.250          50.000          57.250          46.750
R01  19347651.018 7  19347650.817 7  19347658.919 7  19347659.955 7                      -725.300 7      -725.339 7      -564.161 7      -564.225 7                 103424319.80707 103424315.81007  80441173.93807  80441180.95807                        46.250          45.500          44.750          44.000
R02  21707451.212 7  21707451.700 7  21707458.456 7  21707458.588 7                      3593.762 7      3593.695 7      2795.080 7      2795.078 7                 115835151.02607 115835146.03107  90094042.34107  90094048.34707                        47.250          46.750          44.500          44.500
R08  21595325.386 6  21595326.371 6  21595333.915 7  21595333.956 7                     -3458.935 6     -3458.994 6     -2690.263 7     -2690.393 7                 115642026.07206 115642025.07806  89943841.82507  89943853.83007                        41.500          40.500          44.000          43.250
R09  23361066.739 6  23361066.480 6  23361072.550 6  23361072.557 6  23361054.130 6     -4155.479 6     -4155.724 6     -3232.188 6     -3232.220 6     -3120.115 6 124746825.38906 124746810.40406  97025336.92406  97025341.91006  93665577.22706        38.750          38.500          40.500          39.250          37.500
R10  20451616.135 8  20451615.618 8                                                     -2455.469 8     -2455.489 8                                                 109018618.21508 109018637.21808                                                        49.750          49.250
R11  19994085.341 8  19994085.268 8  19994092.554 8  19994092.459 8                      2266.317 8      2266.336 8      1762.671 8      1762.580 8                 106842332.62608 106842343.63408  83099631.88608  83099632.89108                        50.000          50.250          48.750          49.000
R12  23413373.913 6  23413373.724 6  23413382.596 6  23413382.685 6  23413441.012 4      4473.160 6      4473.409 6      3479.416 6      3479.337 6      3359.368 4 125070040.42706 125070041.43806  97276716.86706  97276736.86406  93875584.51504        36.750          36.500          40.750          40.250          29.500
R17  23690827.880 6  23690828.394 5  23690836.342 6  23690836.834 6                     -3298.590 6     -3298.524 5     -2565.377 6     -2565.683 6                 126774400.69806 126774415.67905  98602360.15406  98602354.15306                        37.000          35.500          38.750          38.000
R18  22857297.556 6  22857299.108 6  22857306.747 7  22857306.833 7                      -407.071 6      -407.136 6      -316.616 7      -316.759 7                 122013840.43106 122013836.42106  94899673.51307  94899679.51907                        41.500          40.250          42.500          42.750
R19                                  23940397.127 5                                                                      2148.832 5                                                                  99606101.71505                                                                        34.500
S23  39369341.824 6  39369315.466 5         3.768 6         2.628 5 206887744.97006 154493579.83505        40.500          32.000
S25  40375506.541 6                      -214.641 6                 212174335.33606                        38.250
S36  39057595.561 6  39057569.686 5         -.877 6         -.718 5 205250329.08606 153270874.34005        41.250          35.000
> 2020 06 25 00 06 30.0000000  0 42
C05  40716075.551 5                  40716072.383 6        -1.225 5                        -1.143 6                                 163946795.42806        34.250                          37.750
C07  39530213.525 6  39530205.057 5  39530208.556 6      -537.372 6      -436.341 5      -415.607 6 205844229.97606 167265263.62905 159171806.67106        38.500          32.000          41.500
C10  38336427.319 7  38336420.252 5  38336424.692 7       184.329 7       149.450 5       142.507 7 199627868.13807 162213967.48805 154364933.50107        42.500          35.250          45.000
C12  26263780.093 6  26263773.899 5  26263777.461 6       364.655 6       296.386 5       282.035 6 136762393.81606 111130626.31305 105753356.78306        36.500          32.000          41.250
C19  23618973.524 7  23618967.264 6                      2421.950 7      1968.056 6                 122990229.11407  99939613.97906                        47.250          41.000
C20  22176931.836 8  22176922.002 7                      -522.320 8      -424.426 7                 115481136.12808  93837851.67207                        53.000          45.500
C23  23663501.134 8                                     -2112.735 8                                 123222094.56008                                        49.000
C32  24751172.140 7  24751171.856 6                     -3105.680 7     -2523.547 6                 128885879.77107 104730349.47906                        45.000          38.250
C34  27049780.730 6  27049779.960 5                      1438.911 6      1169.466 5                 140855304.25706 114456470.92805                        37.000          31.500
C37  22343248.089 8                                      1009.183 8                                 116347181.36508                                        52.500
E01  27814099.675 6  27814098.372 5  27814096.603 4  27814099.774 6  27814098.376 6     -2711.501 6     -2024.928 5     -2200.801 4     -2077.664 6     -2051.221 6 146164094.42106 109148528.96705 118639676.55704 111995883.38706 110572206.74306        36.500          31.500          26.500          41.000          40.750
E03  26859424.989 6  26859424.362 5                  26859425.405 7  26859424.099 7      2630.314 6      1964.105 5                      2015.453 7      1989.783 7 141147243.11406 105402174.65405                 108151801.31007 106776985.06107        39.250          34.000                          43.000          43.000
E05  23678132.852 8  23678131.625 7  23678126.575 6  23678132.477 8  23678131.412 8       641.015 8       478.715 7       520.364 6       491.202 8       484.969 8 124429468.11908  92918130.78507 100997902.68006  95342083.88408  94130084.40708        49.500          44.000          40.250          53.250          53.000
E09  22897370.484 7  22897369.166 6  22897366.025 6  22897369.856 8  22897368.884 8     -1951.958 7     -1457.583 6     -1584.387 6     -1495.691 8     -1476.665 8 120326537.30907  89854254.85806  97667602.13706  92198276.65708  91026264.83208        47.750          41.250          36.750          50.000          50.000
E13  27883973.462 6  27883971.977 5                  27883972.946 6  27883971.693 6      1185.415 6       885.431 5                       908.328 6       896.806 6 146531270.89306 109422702.31505                 112277207.76406 110849952.62106        36.000          31.500                          40.500          40.500
E15  26980443.708 6  26980443.847 5  26980439.194 4  26980444.379 6  26980443.580 6     -1314.394 6      -981.902 5     -1066.802 4     -1007.179 6      -994.380 6 141783197.69706 105877065.78005 115083745.23504 108639080.29906 107258071.61206        39.000          32.000          28.250          40.000          40.250
E24  23450985.099 7  23450994.468 6  23450973.068 5  23450995.461 8  23450994.382 8      2438.435 7      1820.805 6      1979.265 5      1868.419 8      1844.635 8 123235764.91207  92026753.45306 100028979.96005  94427450.34108  93227103.96808        46.250          39.750          35.750          48.750          48.750
E31  24585441.338 8  24585440.500 6  24585435.050 6  24585441.183 8  24585440.180 8      -355.253 8      -265.393 6      -288.318 6      -272.197 8      -268.751 8 129197394.90008  96478576.92306 104867978.23806  98995417.95808  97736991.51108        48.250          41.500          37.250          50.250          50.250
G05  21033664.096 8  21033663.667 9  21033664.270 7  21033663.441 9                     -1289.591 8     -1004.879 7     -1004.878 9                 110532677.67108  86129359.27307  86129372.26209                        50.000          54.250          47.000          54.250
G07  21919717.313 8  21919716.755 8  21919717.087 7  21919716.622 8                     -1996.132 8     -1555.399 7     -1555.429 8                 115188937.74908  89757639.92407  89757626.92408                        48.250          51.000          44.500          51.000
G08  24847666.083 6  24847665.426 5  24847670.586 6  24847668.947 5  24847663.615 5      1764.042 6      1374.570 6      1374.577 5      1317.470 5 130575367.57906 101747057.97406 101747051.97805  97507571.21605        38.750          33.750          38.250          33.750          34.750
G09  24804195.201 6  24804194.656 5  24804198.590 6  24804198.488 5  24804193.822 5     -3506.206 6     -2732.019 6     -2732.110 5     -2618.282 5 130346956.98006 101569086.17206 101569088.17505  97337026.88605        36.750          32.750          38.250          32.750          32.750
G13  21514792.743 8  21514792.185 6                  21514792.119 6                      2369.002 8                      1845.978 6                 113061030.63808                  88099515.33906                        48.750          38.500                          38.500
G15  23788506.284 6  23788505.927 4  23788506.442 6  23788506.015 4                      3497.964 6      2725.788 6      2725.682 4                 125009458.36306  97409999.88006  97409985.87404                        40.500          24.500          36.750          24.500
G18  24060389.033 6  24060388.743 3  24060389.361 6  24060389.185 3  24060388.876 5       947.164 6       738.157 6       738.050 3       707.529 5 126438211.26206  98523275.53306  98523277.51703  94418144.77505        38.750          21.500          38.250          21.500          34.000
G21  26148618.443 5  26148617.066 1                  26148617.679 1                      1870.385 5                      1457.494 1                 137411917.60405                 107074221.62201                        33.750          10.500                          10.500
G27  24729922.954 6  24729922.212 4  24729924.632 5  24729924.153 4  24729920.573 5       210.458 6       164.032 5       163.990 4       157.229 5 129956626.67606 101264915.66105 101264912.65304  97045523.38605        36.500          27.750          33.750          27.750          34.000
G28  23204879.838 6  23204878.886 3                  23204878.811 3                      3122.380 6                      2433.026 3                 121942474.98806                  95020111.08603                        40.750          23.750                          23.750
G30  20622769.583 8  20622768.640 9  20622771.885 8  20622771.315 9  20622766.732 7      -128.009 8       -99.761 8       -99.749 9       -95.597 7 108373422.36508  84446856.52008  84446848.51609  80928211.11607        51.500          57.500          50.250          57.500          46.750
R01  19351783.809 7  19351784.354 7  19351792.784 7  19351793.630 7                      -747.780 7      -747.773 7      -581.562 7      -581.594 7                 103446416.01507 103446412.01307  80458359.87407  80458366.88707                        46.250          45.750          44.500          44.000
R02  21687272.346 7  21687272.367 7  21687279.400 7  21687279.568 7                      3584.981 7      3584.980 7      2788.291 7      2788.218 7                 115727470.47907 115727465.48007  90010290.83407  90010296.83107                        47.750          47.000          44.750          44.750
R08  21614740.475 6  21614739.992 6  21614747.880 7  21614748.310 7                     -3471.818 6     -3471.820 6     -2700.331 7     -2700.261 7                 115745987.32406 115745986.32806  90024700.58507  90024712.57007                        41.000          40.500          44.000          43.500
R09  23384433.158 6  23384433.235 6  23384437.495 6  23384438.193 6  23384420.847 6     -4162.483 6     -4162.615 6     -3237.546 6     -3237.407 6     -3125.397 6 124871597.28706 124871582.30906  97122381.71106  97122386.71906  93759262.77206        39.750          39.000          38.750          37.500          39.000
R10  20465493.869 8  20465493.505 8                                                     -2476.339 8     -2476.331 8                                                 109092594.78508 109092613.78508                                                        49.500          49.250
R11  19981425.683 8  19981425.894 8  19981433.042 8  19981433.126 8                      2243.559 8      2243.549 8      1744.945 8      1744.934 8                 106774685.01308 106774696.01908  83047017.09408  83047018.08808                        50.500          50.250          49.000          49.250
R12  23388266.066 6  23388267.540 6  23388275.930 6  23388275.830 6                      4467.494 6      4467.482 6      3474.899 6      3474.776 6                 124935925.13306 124935926.13506  97172405.03706  97172425.04206                        37.750          36.750          40.000          39.750
R17  23709363.130 6  23709363.100 5  23709371.648 6  23709371.544 6                     -3313.829 6     -3313.815 5     -2577.498 6     -2577.431 6                 126873585.31306 126873600.31605  98679503.74006  98679497.75506                        36.250          35.750          37.250          36.500
R18  22859664.625 6  22859665.012 6  22859673.354 7  22859673.211 7                      -434.977 6      -434.948 6      -338.400 7      -338.289 7                 122026471.81506 122026467.80506  94909497.92707  94909503.93107                        41.250          40.250          42.500          42.750
R19                                  23924959.718 5                                                                      2132.896 5                                                                  99541870.99205                                                                        33.500
S23  39369324.841 6  39369295.902 5         3.133 6         2.307 5 206887643.02006 154493503.85805        40.750          32.000
S25  40376758.336 6                      -214.852 6                 212180777.45206                        38.500
S36  39057601.142 6  39057575.078 5        -1.182 6         -.732 5 205250360.58106 153270896.26305        41.500          34.750
> 2020 06 25 00 07 00.0000000  0 42
C05  40716081.110 5                  40716077.745 6         -.651 5                         -.572 6 212019353.58405                 163946814.58206        34.000                          37.750
C07  39533318.743 6  39533308.797 5  39533312.525 7      -540.696 6      -439.579 5      -418.136 7 205860393.40806 167278397.77405 159184305.27407        38.750          32.000          42.000
C10  38335376.576 7  38335369.615 5  38335373.843 7       179.965 7       146.200 5       139.233 7 199622396.56407 162209521.38605 154360702.53507        42.750          35.500          45.250
C12  26261725.169 6  26261719.259 5  26261723.209 6       347.928 6       283.033 5       269.195 6 136751694.63906 111121932.38605 105745083.54206        36.250          32.000          41.250
C19  23605044.159 7  23605037.798 6                      2413.189 7      1960.909 6                 122917695.26107  99880674.30406                        47.500          40.750
C20  22179981.691 8  22179971.792 7                      -536.903 8      -436.316 7                 115497016.91008  93850756.11607                        52.750          45.500
C23  23675702.001 8                                     -2123.304 8                                 123285626.83108                                        49.000
C32  24769080.171 7  24769079.962 6                     -3111.773 7     -2528.531 6                 128979131.61607 104806124.24806                        45.250          38.250
C34  27041529.385 6  27041528.920 5                      1425.170 6      1158.164 5                 140812335.80606 114421555.54205                        37.750          31.250
C37  22337474.248 8                                       994.663 8                                 116317115.87608                                        52.500
E01  27829595.646 6  27829593.379 5  27829591.692 4  27829594.572 6  27829593.461 6     -2717.581 6     -2029.077 5     -2206.200 4     -2082.216 6     -2055.755 6 146245522.25206 109209335.42105 118705770.63904 112058276.11806 110633806.34906        38.750          31.000          27.000          40.250          40.250
E03  26844413.707 6  26844412.922 5                  26844413.828 7  26844412.647 7      2628.099 6      1962.807 5                      2013.809 7      1988.246 7 141068357.47406 105343266.58305                 108091356.51007 106717308.62607        39.500          34.000                          42.750          42.750
E05  23674497.471 8  23674496.194 7  23674491.172 6  23674497.020 8  23674495.947 8       632.010 8       471.945 7       513.073 6       484.293 8       478.133 8 124410363.65208  92903864.46607 100982395.80106  95327445.40208  94115632.00808        49.250          44.000          40.500          53.250          53.000
E09  22908532.707 7  22908531.175 6  22908527.993 6  22908532.039 8  22908530.979 8     -1959.060 7     -1462.978 6     -1590.157 6     -1501.064 8     -1482.014 8 120385194.46307  89898057.26706  97715213.47106  92243221.74008  91070638.57808        47.500          41.000          37.000          50.000          50.000
E13  27877241.816 5  27877240.902 5                  27877241.943 6  27877240.945 6      1171.890 5       875.153 5                       898.075 6       886.619 6 146495900.07205 109396289.06905                 112250105.45606 110823194.83406        35.500          31.000                          40.500          40.250
E15  26987983.580 6  26987983.689 5  26987979.477 4  26987984.605 6  26987983.545 6     -1327.427 6      -991.259 5     -1077.327 4     -1017.163 6     -1004.208 6 141822820.56206 105906654.28605 115115906.68404 108669440.68206 107288046.06006        38.750          32.000          28.250          40.500          40.500
E24  23437089.677 7  23437099.088 6  23437077.858 5  23437100.166 8  23437099.021 8      2429.095 7      1814.040 6      1971.726 5      1861.257 8      1837.629 8 123162744.19407  91972224.99506  99969709.88405  94371499.41908  93171864.28208        46.250          39.250          35.750          49.000          48.750
E31  24587507.779 8  24587506.913 6  24587501.614 6  24587507.814 8  24587506.789 8      -369.258 8      -275.828 6      -299.736 6      -282.913 8      -279.340 8 129208255.06608  96486686.79806 104876793.29706  99003739.39308  97745207.16508        48.000          41.500          37.500          50.250          50.250
G05  21041077.710 8  21041077.286 9  21041077.859 7  21041077.043 9                     -1308.191 8     -1019.351 7     -1019.367 9                 110571636.45508  86159716.75807  86159729.75109                        49.750          54.000          46.750          54.000
G07  21931141.815 8  21931141.257 8  21931141.285 7  21931141.112 8                     -2006.787 8     -1563.761 7     -1563.732 8                 115248973.64008  89804421.13707  89804408.13708                        48.000          50.750          44.250          50.750
G08  24837635.935 6  24837635.274 5  24837638.945 5  24837638.878 5  24837633.872 5      1749.117 6      1363.052 5      1362.954 5      1306.274 5 130522660.82106 101705987.78005 101705981.77605  97468212.29705        38.250          31.000          35.250          31.000          35.000
G09  24824216.843 6  24824216.280 5  24824219.770 6  24824219.955 5  24824214.652 5     -3508.587 6     -2733.796 6     -2733.961 5     -2620.159 5 130452169.56106 101651069.96606 101651071.98205  97415594.69705        37.750          32.500          37.750          32.500          32.500
G13  21501295.402 8  21501294.844 6                  21501294.437 6                      2359.153 8                      1838.298 6                 112990100.45808                  88044245.08406                        48.750          38.500                          38.500
G15  23768547.283 6  23768546.930 3  23768547.629 5  23768547.326 3                      3493.878 6      2722.297 5      2722.514 3                 124904575.45006  97328272.95305  97328258.95003                        39.500          23.250          35.750          23.250
G18  24055033.453 6  24055033.176 3  24055034.617 6  24055033.335 3  24055033.535 5       928.372 6       723.514 6       723.399 3       693.447 5 126410066.61706  98501344.64806  98501346.64603  94397127.68305        39.000          21.500          38.000          21.500          35.000
G21  26137972.937 5  26137971.641 1                  26137972.034 1                      1858.879 5                      1448.500 1                 137355974.32605                 107030629.43601                        33.250          11.750                          11.750
G27  24728776.288 6  24728775.533 4  24728778.636 5  24728778.004 4  24728774.281 5       190.733 6       148.814 5       148.623 4       142.743 5 129950601.95106 101260221.01605 101260218.03504  97041024.36905        36.000          28.250          34.250          28.250          34.250
G28  23187076.382 6  23187075.403 4                  23187075.506 4                      3114.248 6                      2426.687 4                 121848918.79906                  94947210.17004                        40.750          24.250                          24.250
G30  20623544.791 8  20623543.848 9  20623547.173 8  20623546.654 9  20623542.081 7      -144.159 8      -112.336 8      -112.334 9      -107.625 7 108377496.53208  84450031.20408  84450023.20209  80931253.52307        51.250          57.250          50.000          57.250          46.750
R01  19356039.077 7  19356039.089 7  19356047.424 7  19356048.169 7                      -768.946 7      -768.961 7      -598.035 7      -598.032 7                 103469159.21207 103469155.21007  80476049.02307  80476056.02807                        46.250          45.750          44.750          44.000
R02  21667137.618 7  21667137.889 7  21667144.849 7  21667144.872 7                      3577.254 7      3577.273 7      2782.390 7      2782.427 7                 115620029.59007 115620024.59907  89926725.70607  89926731.71107                        47.000          46.750          44.750          44.500
R08  21634220.986 6  21634220.808 6  21634228.611 7  21634228.808 7                     -3483.260 6     -3483.183 6     -2709.272 7     -2709.166 7                 115850304.74906 115850303.77606  90105836.37307  90105848.35707                        40.500          40.250          44.000          43.250
R09  23407832.586 6  23407832.712 6  23407838.117 6  23407837.997 6  23407819.694 6     -4168.019 6     -4168.004 6     -3241.855 6     -3241.805 6     -3129.769 6 124996548.35506 124996533.36506  97219565.84006  97219570.85606  93853082.88406        40.250          39.250          40.000          39.250          37.750
R10  20479483.269 8  20479482.708 8                                                     -2495.675 8     -2495.689 8                                                 109167167.06908 109167186.07008                                                        49.500          49.250
R11  19968889.669 8  19968889.973 8  19968897.147 8  19968897.201 8                      2221.906 8      2221.873 8      1728.116 8      1728.191 8                 106707696.47508 106707707.48208  82994914.91308  82994915.90308                        50.250          50.000          49.000          49.250
R12  23363189.077 6  23363189.773 6  23363197.458 6  23363197.433 6                      4462.765 6      4462.913 6      3471.146 6      3471.140 6                 124801961.89806 124801962.89106  97068211.43406  97068231.45006                        40.250          39.500          39.750          39.750
R17  23727979.212 6  23727978.863 5  23727986.456 6  23727986.994 6                     -3327.779 6     -3327.661 5     -2588.260 6     -2588.129 6                 126973201.77406 126973216.77705  98756983.23606  98756977.22006                        37.000          35.750          36.250          36.000
R18  22862183.098 6  22862182.800 6  22862190.954 7  22862190.833 7                      -461.436 6      -461.530 6      -358.979 7      -358.892 7                 122039911.98706 122039907.98306  94919951.40807  94919957.39807                        41.250          40.500          42.500          42.750
R19                                  23909629.797 5                                                                      2118.151 5                                                                  99478094.16905                                                                        32.500
S23  39369302.586 6  39369275.597 5         3.845 6         2.656 5 206887534.95406 154493423.18105        40.750          31.750
S25  40378004.734 6                      -214.147 6                 212187209.09506                        38.750
S36  39057604.822 6  39057579.380 5         -.535 6         -.299 5 205250379.12706 153270910.74105        41.500          34.750
> 2020 06 25 00 07 30.0000000  0 42
C05  40716085.791 5                  40716082.493 6         0.297 5                         0.228 6                                 163946835.06306        34.250                          37.750
C07  39536446.485 6  39536436.140 5  39536440.084 6      -543.796 6      -441.607 5      -420.596 6 205876679.26806 167291631.35205 159196898.53106        39.000          32.750          41.500
C10  38334354.084 7  38334346.720 5  38334351.275 7       175.981 7       143.015 5       136.080 7 199617071.42607 162205194.26105 154356584.80707        42.250          35.750          45.250
C12  26259771.631 6  26259764.549 5  26259768.460 7       331.531 6       269.500 5       256.536 7 136741515.66006 111113661.13805 105737212.49907        36.750          32.250          42.000
C19  23591169.088 7  23591162.775 6                      2404.637 7      1954.024 6                 122845444.45407  99821964.62006                        46.750          40.750
C20  22183119.716 8  22183109.684 7                      -551.342 8      -448.003 7                 115513356.96108  93864033.74407                        52.750          45.500
C23  23687967.845 8                                     -2133.661 8                                 123349497.46708                                        48.500
C32  24787027.612 7  24787027.411 6                     -3117.479 7     -2533.328 6                 129072587.88007 104882065.11206                        44.500          38.250
C34  27033360.848 6  27033360.519 5                      1411.570 6      1146.880 5                 140769802.81006 114386993.99705                        36.500          31.000
C37  22331788.462 8                                       980.287 8                                 116287508.44208                                        52.000
E01  27845128.581 6  27845127.682 5  27845124.620 4  27845127.899 6  27845126.666 6     -2723.207 6     -2033.857 5     -2210.122 4     -2086.695 6     -2060.214 6 146327150.36206 109270291.50805 118772027.15204 112120822.32506 110695557.48806        37.750          32.000          26.500          39.750          40.000
E03  26829419.369 6  26829418.473 5                  26829419.107 7  26829418.143 7      2626.205 6      1961.116 5                      2012.192 7      1986.636 7 140989560.90606 105284425.04105                 108030979.96607 106657699.58207        39.250          34.250                          42.500          42.750
E05  23670917.728 8  23670916.438 7  23670911.351 6  23670917.284 8  23670916.257 8       623.176 8       465.438 7       505.761 6       477.472 8       471.421 8 124391552.22208  92889816.97107 100967126.79506  95313031.45708  94101401.28808        49.500          44.000          40.500          53.000          53.000
E09  22919739.084 7  22919737.869 6  22919734.166 6  22919738.597 8  22919737.456 8     -1965.848 7     -1468.133 6     -1595.656 6     -1506.320 8     -1487.176 8 120444084.84907  89942033.85406  97763014.09906  92288345.54308  91115188.77008        47.500          41.000          37.250          50.000          50.000
E13  27870593.120 6  27870592.239 5                  27870592.853 6  27870591.696 6      1158.850 6       865.439 5                       887.679 6       876.454 6 146460958.28806 109370196.18505                 112223331.91606 110796761.63006        36.250          31.500                          40.500          40.250
E15  26995602.935 6  26995603.013 5  26995597.904 4  26995603.449 6  26995602.465 6     -1340.327 6     -1000.550 5     -1087.902 4     -1027.166 6     -1013.975 6 141862857.78806 105936552.19905 115148404.44204 108700118.55806 107318333.96006        38.500          32.750          27.750          40.750          41.000
E24  23423251.997 7  23423261.608 6  23423240.129 6  23423262.507 8  23423261.540 8      2419.912 7      1807.129 6      1964.490 6      1854.192 8      1830.629 8 123090027.20407  91917923.34206  99910686.35306  94315781.20608  93116854.34808        46.250          39.500          36.000          48.750          48.750
E31  24589658.275 8  24589657.568 6  24589652.152 6  24589658.287 8  24589657.286 8      -383.032 8      -286.017 6      -310.919 6      -293.501 8      -289.763 8 129219555.98308  96495125.79206 104885966.13606  99012398.54908  97753756.24508        48.000          41.500          37.500          50.250          50.250
G05  21048601.584 8  21048601.160 9  21048601.582 7  21048600.816 9                     -1326.468 8     -1033.689 7     -1033.612 9                 110611173.89308  86190525.15107  86190538.14209                        50.000          54.000          46.750          54.000
G07  21942631.446 8  21942630.888 8  21942631.420 7  21942630.812 8                     -2017.345 8     -1571.919 7     -1571.956 8                 115309352.64008  89851469.72807  89851456.72408                        48.500          50.750          44.000          50.750
G08  24827696.322 5  24827695.665 4  24827699.097 5  24827697.907 4  24827693.497 5      1734.455 5      1351.333 5      1351.522 4      1295.021 5 130470425.48305 101665284.91505 101665278.91804  97429205.41605        35.750          28.250          34.250          28.250          34.500
G09  24844255.447 6  24844254.875 5  24844257.882 6  24844257.662 5  24844253.013 5     -3510.417 6     -2735.475 6     -2735.387 5     -2621.796 5 130557470.95906 101733123.02206 101733125.00505  97494228.88405        36.250          31.000          37.000          31.000          33.250
G13  21487858.571 8  21487858.013 6                  21487857.578 6                      2349.409 8                      1830.707 6                 112919489.37208                  87989223.47606                        49.250          38.750                          38.750
G15  23748617.927 6  23748617.583 3  23748617.864 5  23748617.282 3                      3489.521 6      2719.077 5      2719.110 3                 124799843.96406  97246664.01605  97246650.02303                        40.250          23.500          35.500          23.500
G18  24049789.721 6  24049789.417 3  24049790.076 6  24049789.410 3  24049788.799 5       909.790 6       709.057 6       708.925 3       679.609 5 126382509.13006  98479871.28406  98479873.29303  94376549.04705        39.500          21.500          38.500          21.500          34.750
G21  26127395.061 5  26127393.881 1                  26127395.215 1                      1847.729 5                      1439.816 1                 137300393.07705                 106987319.42301                        33.250          11.500                          11.500
G27  24727747.344 6  24727746.634 4  24727748.964 5  24727748.780 4  24727744.419 5       170.916 6       133.454 5       133.186 4       128.030 5 129945192.94406 101256006.17005 101256003.20304  97036985.15705        36.250          28.250          34.250          28.250          33.750
G28  23169324.554 6  23169323.602 4                  23169323.370 4                      3106.206 6                      2420.410 4                 121755629.68406                  94874517.38204                        41.750          25.000                          25.000
G30  20624416.024 8  20624415.081 9  20624418.322 8  20624417.788 9  20624413.121 7      -160.012 8      -124.695 8      -124.684 9      -119.458 7 108382074.26708  84453598.27708  84453590.27409  80934671.96807        51.750          57.500          50.000          57.500          46.500
R01  19360416.315 7  19360416.660 7  19360425.376 7  19360425.910 7                      -789.990 7      -789.948 7      -614.383 7      -614.266 7                 103492560.04307 103492556.03807  80494249.67407  80494256.66307                        46.500          45.750          44.500          44.250
R02  21647050.405 7  21647050.735 7  21647057.660 7  21647057.717 7                      3569.728 7      3569.776 7      2776.427 7      2776.516 7                 115512841.35407 115512836.35107  89843357.10407  89843363.08907                        47.000          46.500          44.500          44.500
R08  21653768.252 6  21653769.316 6  21653777.275 7  21653777.481 7                     -3494.431 6     -3494.466 6     -2717.878 7     -2717.811 7                 115954987.61906 115954986.59706  90187256.33907  90187268.32307                        41.250          40.000          43.750          43.250
R09  23431266.088 6  23431267.131 6  23431272.433 6  23431272.998 6  23431253.942 6     -4173.331 6     -4173.343 6     -3245.990 6     -3245.674 6     -3133.522 6 125121685.94206 125121670.91206  97316895.01606  97316900.00406  93947042.98706        41.250          40.250          41.000          40.250          37.000
R10  20493585.719 8  20493585.490 8                                                     -2514.817 8     -2514.792 8                                                 109242341.70308 109242360.69908                                                        49.750          49.250
R11  19956479.245 8  19956479.830 8  19956487.031 8  19956486.753 8                      2200.432 8      2200.430 8      1711.402 8      1711.479 8                 106641379.87508 106641390.87608  82943335.34308  82943336.34108                        50.500          50.250          48.750          49.250
R12  23338142.622 6  23338142.793 6  23338150.420 6  23338150.672 6  23338208.945 5      4458.142 6      4458.155 6      3467.464 6      3467.534 6      3344.010 5 124668164.47206 124668165.46106  96964146.79106  96964166.78706  93573939.58015        41.500          40.750          39.750          39.250          31.750
R17  23746675.295 6  23746676.183 6  23746684.444 6  23746684.981 5                     -3341.451 6     -3341.468 6     -2598.815 6     -2598.655 5                 127073256.53406 127073271.50906  98834803.56806  98834797.53605                        37.750          36.750          36.500          35.250
R18  22864853.858 6  22864854.089 6  22864862.537 7  22864862.310 7                      -487.935 6      -487.848 6      -379.487 7      -379.314 7                 122054170.49806 122054166.48306  94931041.35607  94931047.34607                        41.000          40.500          43.250          42.750
R19                                  23894412.691 5                                                                      2103.574 5                                                                  99414782.59005                                                                        34.250
S23  39369283.411 6  39369255.975 5         4.489 6         3.626 5 206887430.98306 154493345.40605        40.750          32.000
S25  40379254.789 6                      -213.855 6                 212193647.77006                        38.500
S36  39057611.136 6  39057584.670 5         0.438 6         0.121 5 205250400.55506 153270938.09805        41.500          35.250
> 2020 06 25 00 08 00.0000000  0 42
C05  40716090.402 5                  40716086.822 6         -.196 5                         -.316 6 212019403.30005                 163946853.02406        34.500                          38.000
C07  39539596.554 6  39539586.530 5  39539589.972 6      -548.173 6      -445.038 5      -423.841 6 205893082.29006 167304960.13005 159209582.39906        39.250          32.500          41.250
C10  38333358.287 7  38333351.443 5  38333355.796 7       171.104 7       138.931 5       132.285 7 199611887.47107 162200981.89305 154352576.25007        42.500          35.500          45.000
C12  26257915.185 6  26257908.613 5  26257912.104 7       314.187 6       255.097 5       242.857 7 136731852.37006 111105808.94205 105729740.25107        37.250          31.750          42.000
C19  23577347.790 7  23577341.429 6                      2394.976 7      1946.150 6                 122773473.45007  99763482.29406                        47.500          40.750
C20  22186344.746 8  22186334.976 7                      -566.778 8      -460.590 7                 115530151.36108  93877680.57907                        52.750          45.500
C23  23700297.020 8                                     -2145.013 8                                 123413699.70508                                        48.750
C32  24805012.874 7  24805012.556 6                     -3124.412 7     -2539.084 6                 129166242.21007 104958166.94406                        44.500          37.750
C34  27025275.716 6  27025275.620 4                      1396.868 6      1134.771 4                 140727701.91006 114352783.59304                        37.250          29.750
C37  22326189.587 8                                       964.878 8                                 116258354.40908                                        52.250
E01  27860698.927 6  27860697.975 5                  27860698.014 6  27860697.307 6     -2729.973 6     -2038.311 5                     -2091.791 6     -2065.134 6 146408972.07706 109331392.08305                 112183516.89406 110757455.06606        37.750          32.500                          39.750          40.250
E03  26814440.771 6  26814439.952 5                  26814440.687 7  26814439.795 7      2622.872 6      1958.782 5                      2009.791 7      1984.246 7 140910849.29706 105225646.92605                 107970668.49807 106598154.78707        39.250          34.000                          42.500          42.500
E05  23667392.955 8  23667391.828 7  23667386.793 6  23667392.497 8  23667391.491 8       613.249 8       457.877 7       497.748 6       469.852 8       463.870 8 124373029.46308  92875985.05007 100952092.09406  95298838.69608  94087388.94608        49.500          43.750          40.500          53.000          52.750
E09  22930988.955 7  22930987.517 6  22930983.945 6  22930988.319 8  22930987.267 8     -1973.765 7     -1473.902 6     -1602.104 6     -1512.340 8     -1493.126 8 120503203.03207  89986180.53706  97810999.62806  92333643.87308  91159911.27708        47.500          40.750          37.000          50.000          50.000
E13  27864024.461 5  27864023.812 5                  27864024.430 6  27864023.352 6      1143.963 5       854.679 5                       876.622 6       865.542 6 146426441.57505 109344420.73805                 112196884.05006 110770649.96906        35.750          31.250                          40.000          40.000
E15  27003299.541 6  27003299.187 5  27003294.393 4  27003299.778 6  27003298.928 6     -1354.319 6     -1011.413 5     -1099.358 4     -1037.607 6     -1024.497 6 141903303.12106 105966754.88405 115181233.38604 108731109.11606 107348930.57706        39.750          32.750          28.500          40.750          40.750
E24  23409471.542 7  23409481.062 6  23409459.507 6  23409482.048 8  23409481.068 8      2409.508 7      1799.482 6      1955.706 6      1846.228 8      1822.806 8 123017610.26707  91863845.76206  99851906.39206  94260292.91108  93062071.41008        46.500          39.250          36.000          48.750          48.750
E31  24591891.728 8  24591890.935 6  24591885.454 6  24591891.591 8  24591890.567 8      -397.841 8      -296.992 6      -323.104 6      -304.835 8      -300.941 8 129231292.05008  96503889.73506 104895492.16906  99021391.12608  97762634.50708        48.000          41.500          37.750          50.250          50.250
G05  21056233.979 8  21056233.555 8  21056233.950 7  21056233.460 8                     -1345.881 8     -1048.772 7     -1048.740 8                 110651283.54908  86221779.42107  86221792.41708                        49.750          53.750          46.500          53.750
G07  21954185.397 8  21954184.843 8  21954184.896 7  21954184.569 8                     -2028.814 8     -1580.844 7     -1580.896 8                 115370068.23208  89898780.57607  89898767.57508                        48.250          50.500          44.000          50.500
G08  24817843.172 5  24817842.497 4  24817848.036 5  24817846.292 4  24817842.520 5      1718.651 5      1338.737 5      1339.207 4      1283.275 5 130418658.61405 101624947.09705 101624941.06504  97390548.36505        33.250          25.000          33.250          25.000          34.500
G09  24864308.989 5  24864308.404 4  24864312.204 6  24864311.378 4  24864307.303 5     -3513.613 5     -2737.854 6     -2737.882 4     -2623.700 5 130662855.12505 101815240.53006 101815242.53604  97572924.79405        35.250          29.250          36.000          29.250          33.500
G13  21474481.564 8  21474481.010 6                  21474480.755 6                      2338.553 8                      1822.246 6                 112849193.35008                  87934447.37306                        49.000          38.750                          38.750
G15  23728715.953 6  23728715.596 3  23728716.455 5  23728715.659 3                      3484.198 6      2714.967 5      2714.968 3                 124695260.97006  97165170.77205  97165156.78303                        40.500          23.250          35.500          23.250
G18  24044656.328 6  24044655.989 3  24044656.536 6  24044655.795 3  24044656.374 5       890.123 6       693.613 6       693.596 3       664.589 5 126355534.64106  98458852.21806  98458854.20503  94356405.79105        38.750          21.250          37.250          21.250          34.500
G21  26116887.295 5  26116886.106 1                  26116886.621 1                      1835.451 5                      1430.237 1                 137245170.28105                 106944288.65701                        33.250          11.250                          11.250
G27  24726833.992 6  24726833.277 4  24726836.433 5  24726835.639 4  24726831.514 5       150.536 6       117.193 5       117.295 4       112.335 5 129940394.89706 101252267.50305 101252264.47704  97033402.23505        36.250          28.000          34.000          28.000          33.250
G28  23151622.114 6  23151621.171 4                  23151621.652 4                      3097.006 6                      2413.243 4                 121662605.12506                  94802030.71604                        41.500          26.250                          26.250
G30  20625381.785 8  20625380.842 9  20625384.107 8  20625383.659 9  20625378.984 7      -176.890 8      -137.841 8      -137.838 9      -132.045 7 108387149.96308  84457553.37308  84457545.36909  80938462.27107        51.750          57.250          50.000          57.250          46.250
R01  19364916.332 7  19364916.428 7  19364924.649 7  19364925.722 7                      -812.047 7      -812.003 7      -631.614 7      -631.647 7                 103516613.83407 103516609.84107  80512958.18607  80512965.18607                        46.250          45.750          44.750          44.500
R02  21627011.155 7  21627010.760 7  21627017.610 7  21627017.640 7                      3560.999 7      3560.980 7      2769.728 7      2769.522 7                 115405904.00307 115405899.01407  89760183.62307  89760189.63107                        47.000          46.500          44.500          44.500
R08  21673385.168 6  21673385.054 6  21673393.320 7  21673393.291 7                     -3506.670 6     -3506.661 6     -2727.483 7     -2727.601 7                 116060028.71106 116060027.72506  90268954.99107  90268967.00007                        40.500          39.750          43.500          43.000
R09  23454732.489 6  23454734.126 6  23454740.392 6  23454740.511 6  23454720.677 5     -4179.563 6     -4179.371 6     -3250.586 6     -3250.843 6     -3138.296 5 125247001.36506 125246986.33606  97414362.52406  97414367.52806  94041136.69405        40.500          38.750          41.000          40.750          35.750
R10  20507800.042 8  20507799.700 8                                                     -2534.871 8     -2534.933 8                                                 109318110.72008 109318129.71808                                                        49.750          49.250
R11  19944194.488 8  19944194.705 8  19944201.873 8  19944201.834 8                      2177.750 8      2177.760 8      1693.755 8      1693.675 8                 106575732.09808 106575743.10408  82892275.98508  82892276.99308                        50.250          50.250          49.000          49.250
R12  23313126.431 7  23313126.162 6  23313133.874 6  23313133.428 6  23313214.867 5      4452.366 7      4452.309 6      3462.841 6      3462.829 6      3340.117 5 124534530.53407 124534531.55006  96860209.31306  96860229.31806  93473725.93605        42.000          41.500          38.000          37.500          32.000
R17  23765454.472 6  23765453.913 6  23765462.144 5  23765462.424 5                     -3356.126 6     -3355.694 6     -2609.996 5     -2610.427 5                 127173739.79206 127173754.77906  98912957.22205  98912951.24605                        36.000          36.000          35.000          34.500
R18  22867677.976 6  22867677.601 6  22867684.707 7  22867685.353 7                      -515.307 6      -515.304 6      -400.879 7      -400.944 7                 122069241.72006 122069237.72406  94942763.43107  94942769.42707                        41.250          40.500          42.750          42.500
R19                                  23879307.710 5                                                                      2087.472 5                                                                  99351935.01605                                                                        33.750
S23  39369263.441 6  39369235.996 5         4.011 6         3.240 5 206887326.40406 154493266.99905        40.750          32.250
S25  40380501.750 6                      -213.563 6                 212200084.38506                        38.500
S36  39057616.806 6  39057589.486 5         -.378 6         -.208 5 205250431.60006 153270958.77005        41.500          35.000
> 2020 06 25 00 08 30.0000000  0 42
C05  40716093.465 5                  40716089.872 6         -.926 5                         -.517 6 212019419.08605                 163946865.25106        34.500                          37.500
C07  39542768.121 6  39542758.136 5  39542761.633 6      -552.610 6      -449.205 5      -427.425 6 205909597.94606 167318380.51905 159222353.36206        38.750          32.000          41.000
C10  38332389.244 7  38332382.425 5  38332386.602 7       165.793 7       134.566 5       128.164 7 199606840.66807 162196880.97505 154348673.75907        42.500          35.500          45.000
C12  26256157.296 6  26256151.207 5  26256155.609 7       296.272 6       240.956 5       228.996 7 136722700.99806 111098372.66505 105722663.81507        37.000          31.250          42.000
C19  23563580.060 7  23563573.477 6                      2384.920 7      1937.974 6                 122701779.98707  99705225.49606                        47.500          40.750
C20  22189656.359 8  22189646.574 7                      -582.540 8      -473.402 7                 115547396.09208  93891693.33107                        52.750          45.250
C23  23712688.974 8                                     -2156.580 8                                 123478227.71208                                        48.500
C32  24823035.364 7  24823034.669 6                     -3131.613 7     -2544.725 6                 129260089.10507 105034425.20406                        44.750          37.000
C34  27017273.959 6  27017272.219 4                      1381.627 6      1122.453 4                 140686030.48306 114318922.11604                        38.500          29.000
C37  22320677.332 8                                       949.076 8                                 116229649.99408                                        52.250
E01  27876304.183 6  27876303.419 5  27876301.024 4  27876304.337 6  27876303.153 6     -2736.971 6     -2043.807 5     -2221.575 4     -2097.102 6     -2070.438 6 146490981.55106 109392632.90905 118905007.01704 112246355.26306 110819494.65006        36.500          32.500          28.000          40.750          40.750
E03  26799478.150 6  26799477.053 5                  26799477.799 7  26799476.963 7      2619.479 6      1955.812 5                      2006.975 7      1981.414 7 140832219.36906 105166929.82305                 107910419.62807 106538671.79607        39.750          34.250                          42.500          42.750
E05  23663922.438 8  23663921.285 7  23663916.135 6  23663921.987 8  23663920.985 8       602.957 8       450.179 7       489.361 6       461.988 8       456.100 8 124354791.87908  92862366.08507 100937288.86406  95284864.44708  94073592.33808        49.750          44.000          40.500          53.250          53.000
E09  22942281.098 7  22942279.693 6  22942276.387 6  22942280.661 8  22942279.553 8     -1981.942 7     -1480.001 6     -1608.812 6     -1518.656 8     -1499.370 8 120562544.43507  90030493.90506  97859166.35406  92379113.25608  91204802.65808        47.750          41.000          36.750          50.000          50.000
E13  27857536.561 5  27857535.952 5                  27857535.994 6  27857535.372 6      1129.207 5       843.716 5                       865.308 6       854.421 6 146392346.75205 109318960.35405                 112170759.49606 110744857.50606        35.500          32.000                          40.000          40.250
E15  27011072.356 6  27011071.975 5  27011068.047 4  27011073.076 6  27011071.990 6     -1368.554 6     -1022.025 5     -1111.193 4     -1048.501 6     -1035.196 6 141944151.09406 105997258.24405 115214389.26504 108762408.21406 107379831.80606        39.250          32.250          28.000          40.750          40.750
E24  23395747.777 7  23395757.592 6  23395735.776 6  23395757.908 8  23395757.221 8      2398.812 7      1791.194 6      1947.078 6      1838.016 8      1814.615 8 122945490.60807  91809990.18806  99793367.71506  94205032.40308  93007513.36608        46.500          40.250          36.000          48.750          49.000
E31  24594206.810 8  24594206.067 6  24594200.792 6  24594206.738 8  24594205.772 8      -412.909 8      -308.462 6      -335.231 6      -316.409 8      -312.416 8 129243458.52108  96512975.11306 104905367.54406  99030713.49308  97771838.37508        48.000          41.750          37.750          50.250          50.250
G05  21063974.565 8  21063974.136 9  21063974.620 7  21063973.959 9                     -1365.585 8     -1064.082 7     -1064.092 9                 110691960.27208  86253475.56807  86253488.56409                        50.000          54.000          46.500          54.000
G07  21965802.028 8  21965801.478 8  21965801.782 7  21965801.339 8                     -2040.598 8     -1590.016 7     -1590.076 8                 115431114.74208  89946349.28207  89946336.28108                        48.500          51.000          44.250          51.000
G08  24808081.736 5  24808081.075 4  24808086.404 5  24808083.819 4  24808080.045 5      1702.095 5      1326.068 5      1326.310 4      1271.101 5 130367358.03305 101584972.62305 101584966.60304  97352239.55605        33.750          25.750          35.500          25.750          34.250
G09  24884378.227 6  24884377.633 4  24884380.685 6  24884379.949 4  24884376.252 5     -3516.894 6     -2740.517 6     -2740.434 4     -2626.293 5 130768316.74606 101897418.41806 101897420.41004  97651678.57505        36.250          29.750          36.500          29.750          33.750
G13  21461164.044 8  21461163.486 6                  21461163.306 6                      2327.340 8                      1813.511 6                 112779209.73208                  87879914.69906                        49.500          39.500                          39.500
G15  23708842.484 6  23708842.131 4  23708842.716 6  23708841.837 4                      3478.538 6      2710.642 6      2710.537 4                 124590823.49906  97083790.94906  97083776.95504                        40.500          24.000          36.250          24.000
G18  24039633.102 6  24039632.789 3  24039634.333 6  24039633.707 3  24039633.496 5       870.032 6       677.623 6       677.941 3       649.616 5 126329139.93006  98438284.94206  98438286.91403  94336695.49305        39.000          22.250          38.000          22.250          35.000
G21  26106446.271 5  26106445.069 1                  26106445.798 1                      1822.754 5                      1420.376 1                 137190303.59105                 106901535.44501                        34.500          11.000                          11.000
G27  24726036.734 6  24726036.010 4  24726039.014 5  24726037.987 4  24726034.116 5       129.446 6       100.418 5       100.868 4        96.682 5 129936204.23406 101249002.02705 101248999.00604  97030272.85505        36.250          28.250          33.750          28.250          33.750
G28  23133970.529 7  23133969.595 4                  23133969.873 4                      3087.360 7                      2405.734 4                 121569843.59907                  94729749.03304                        42.000          26.000                          26.000
G30  20626441.597 8  20626440.654 9  20626443.993 8  20626443.358 9  20626438.689 7      -194.079 8      -151.215 8      -151.230 9      -144.890 7 108392718.92108  84461892.82908  84461884.82509  80942620.91607        51.750          57.750          50.000          57.750          46.500
R01  19369537.461 7  19369537.456 7  19369545.996 7  19369546.889 7                      -834.486 7      -834.373 7      -649.028 7      -649.154 7                 103541316.39407 103541312.40107  80532171.28307  80532178.29407                        46.250          45.750          44.750          44.250
R02  21607017.390 7  21607017.371 7  21607024.090 7  21607024.327 7                      3551.890 7      3551.841 7      2762.502 7      2762.491 7                 115299216.24607 115299211.25307  89677204.26707  89677210.27907                        47.250          46.500          44.250          44.750
R08  21693067.113 6  21693066.650 6  21693074.479 7  21693074.633 7                     -3519.153 6     -3519.276 6     -2737.219 7     -2737.174 7                 116165422.16506 116165421.18906  90350927.66507  90350939.67107                        40.250          40.000          43.500          43.000
R09  23478232.231 6  23478233.124 6  23478240.057 6  23478239.353 6  23478220.512 6     -4185.916 6     -4185.967 6     -3255.641 6     -3255.807 6     -3142.995 6 125372487.44706 125372472.42906  97511962.75006  97511967.75606  94135358.48206        39.500          38.250          39.250          39.000          37.500
R10  20522124.072 8  20522123.940 8                                                     -2555.167 8     -2555.183 8                                                 109394466.92008 109394485.91508                                                        49.750          49.000
R11  19932033.620 8  19932034.248 8  19932041.572 8  19932041.493 8                      2154.724 8      2154.739 8      1675.835 8      1675.838 8                 106510750.69708 106510761.70108  82841734.90908  82841735.91508                        50.250          50.000          49.000          49.250
R12  23288140.148 6  23288139.898 6  23288147.822 6  23288147.307 6                      4446.093 6      4445.960 6      3458.126 6      3457.882 6                 124401058.92206 124401059.94706  96756398.04206  96756418.05106                        40.750          40.500          37.000          37.000
R17  23784310.955 6  23784310.285 6  23784318.017 5  23784318.769 5                     -3370.566 6     -3370.575 6     -2621.690 5     -2621.753 5                 127274643.29306 127274658.27606  98991437.72105  98991431.72905                        36.750          36.250          35.000          34.000
R18  22870652.015 6  22870652.098 6  22870660.132 7  22870660.301 7                      -542.951 6      -543.016 6      -422.324 7      -422.421 7                 122085120.79806 122085116.80506  94955113.84307  94955119.84607                        41.750          41.000          43.250          43.000
R19                                  23864314.130 5                                                                      2071.661 5                                                                  99289551.14705                                                                        32.250
S23  39369243.623 6  39369215.431 5         3.310 6         2.495 5 206887217.47806 154493185.44105        40.500          32.000
S25  40381747.374 6                      -214.199 6                 212206500.39906                        38.250
S36  39057617.839 6  39057594.177 5         -.929 6         -.790 5 205250454.67106 153270971.48605        41.250          35.250
> 2020 06 25 00 09 00.0000000  0 42
C05  40716096.599 5                  40716092.537 6         -.074 5                         -.346 6 212019433.06905                 163946876.07406        34.500                          38.000
C07  39545961.649 6  39545952.031 5  39545955.911 6      -556.372 6      -452.028 5      -430.191 6 205926231.55806 167331896.67905 159235215.52606        39.000          32.500          41.500
C10  38331447.914 7  38331440.575 6  38331444.644 7       161.245 7       130.950 6       124.694 7 199601936.17907 162192895.64906 154344881.29207        43.000          36.000          45.000
C12  26254500.059 6  26254493.291 5  26254497.694 7       279.384 6       226.939 5       215.961 7 136714067.49106 111091357.24705 105715987.85007        37.000          31.500          42.000
C19  23549866.817 8  23549860.033 6                      2375.697 8      1930.516 6                 122630371.34808  99647200.14206                        48.000          41.250
C20  22193055.690 8  22193045.762 7                      -597.483 8      -485.489 7                 115565096.75408  93906076.56407                        53.000          45.750
C23  23725144.282 8                                     -2167.221 8                                 123543085.26108                                        48.750
C32  24841094.907 7  24841094.884 6                     -3137.931 7     -2549.737 6                 129354132.74107 105110843.35206                        44.000          37.500
C34  27009355.386 6  27009354.236 5                      1367.348 6      1111.095 5                 140644795.67606 114285415.43705                        39.250          30.250
C37  22315252.538 8                                       934.152 8                                 116201401.06608                                        52.500
E01  27891946.902 6  27891946.152 5  27891943.160 4  27891946.463 6  27891945.573 6     -2742.979 6     -2048.262 5     -2226.177 4     -2101.864 6     -2075.108 6 146573182.64306 109454016.77305 118971728.64204 112309340.49806 110881679.20906        37.000          32.000          28.000          40.750          40.750
E03  26784531.993 6  26784531.306 5                  26784532.097 7  26784530.900 7      2616.658 6      1953.961 5                      2005.006 7      1979.516 7 140753677.66406 105108278.56705                 107850238.34407 106479255.53107        40.500          34.500                          43.250          43.250
E05  23660507.394 8  23660506.227 7  23660501.307 6  23660506.966 8  23660505.935 8       593.442 8       443.135 7       481.852 6       454.707 8       448.920 8 124336845.71508  92848964.72607 100922722.16706  95271113.49408  94060016.18408        50.000          44.250          40.500          53.250          53.250
E09  22953616.814 7  22953615.447 6  22953612.361 6  22953616.424 8  22953615.304 8     -1989.342 7     -1485.552 6     -1614.720 6     -1524.308 8     -1504.934 8 120622114.24807  90074977.85406  97907518.47306  92424757.64908  91249866.82608        47.750          40.750          37.000          50.000          50.000
E13  27851130.062 5  27851128.964 5                  27851129.918 6  27851128.784 6      1115.347 5       832.453 5                       854.570 6       843.642 6 146358680.44705 109293820.02405                 112144963.26906 110719389.21506        35.750          32.000                          40.500          40.500
E15  27018923.151 6  27018922.412 5  27018917.524 4  27018923.359 6  27018922.451 6     -1381.895 6     -1031.841 5     -1122.547 4     -1058.769 6     -1045.276 6 141985406.05906 106028065.53405 115247875.43304 108794019.16406 107411040.92306        39.250          32.500          27.000          40.250          40.500
E24  23382081.610 7  23382091.503 6  23382069.333 5  23382092.025 8  23382091.106 8      2388.876 7      1783.858 6      1939.044 5      1830.438 8      1807.149 8 122873675.20307  91756361.80506  99735075.99605  94150005.01808  92953185.48508        46.500          40.250          35.750          49.000          49.000
E31  24596604.812 8  24596603.961 6  24596598.804 6  24596604.836 8  24596603.827 8      -427.197 8      -319.007 6      -346.728 6      -327.288 8      -323.136 8 129256060.44608  96522385.63806 104915596.37806  99040369.51508  97781371.65008        48.250          41.750          37.750          50.250          50.250
G05  21071824.034 8  21071823.605 9  21071824.110 7  21071823.303 9                     -1384.342 8     -1078.745 7     -1078.708 9                 110733209.02608  86285617.45907  86285630.44909                        49.750          54.000          46.500          54.000
G07  21977482.611 8  21977482.061 8  21977482.156 7  21977481.865 8                     -2051.464 8     -1598.593 7     -1598.544 8                 115492496.15108  89994178.95707  89994165.95008                        48.500          50.750          43.750          50.750
G08  24798409.999 5  24798409.320 4  24798415.134 6  24798413.788 4  24798408.109 5      1686.551 5      1313.961 6      1314.186 4      1259.083 5 130316532.09505 101545368.00706 101545361.99504  97314285.15105        34.500          29.750          37.500          29.750          33.250
G09  24904461.861 6  24904461.276 5  24904464.771 6  24904464.545 5  24904460.342 5     -3519.289 6     -2742.201 6     -2742.304 5     -2627.746 5 130873860.31606 101979660.14806 101979662.14305  97730493.55505        37.250          32.000          36.750          32.000          33.000
G13  21447907.240 8  21447906.686 6                  21447906.640 6                      2316.942 8                      1805.408 6                 112709545.59108                  87825630.96906                        49.750          39.250                          39.250
G15  23688997.653 6  23688997.291 4  23688998.097 6  23688997.612 4                      3473.688 6      2706.701 6      2706.776 4                 124486539.11106  97002530.42706  97002516.42304                        40.250          24.250          36.250          24.250
G18  24034722.120 6  24034721.816 3  24034722.677 6  24034722.175 3  24034721.708 5       850.500 6       662.919 6       662.723 3       635.166 5 126303331.47106  98418174.43106  98418176.45203  94317422.92905        39.500          21.750          37.000          21.750          34.500
G21  26096074.267 5  26096073.145 2                  26096074.191 2                      1810.641 5                      1410.922 2                 137135800.62105                 106859065.57602                        35.000          12.250                          12.250
G27  24725355.814 6  24725355.081 4  24725357.776 5  24725357.075 4  24725353.582 5       109.117 6        84.869 5        85.022 4        81.367 5 129932626.87406 101246214.49805 101246211.48404  97027601.46605        36.750          28.000          33.250          28.000          33.500
G28  23116369.853 6  23116368.914 4                  23116369.401 4                      3078.522 6                      2398.856 4                 121477353.36406                  94657678.74704                        41.250          25.500                          25.500
G30  20627596.234 8  20627595.291 9  20627598.484 8  20627597.886 9  20627593.362 7      -210.395 8      -163.915 8      -163.946 9      -157.073 7 108398786.20708  84466620.59108  84466612.58909  80947151.68807        51.750          57.500          50.000          57.500          46.500
R01  19374281.319 7  19374281.092 7  19374289.444 7  19374290.350 7                      -855.973 7      -855.998 7      -665.869 7      -665.747 7                 103566673.32707 103566669.34407  80551893.34707  80551900.34507                        46.250          45.750          44.750          44.250
R02  21587072.706 7  21587072.356 7  21587079.661 7  21587079.535 7                      3543.444 7      3543.433 7      2755.949 7      2755.996 7                 115192785.96707 115192780.98607  89594425.19807  89594431.18707                        47.000          46.250          45.000          45.250
R08  21712813.587 6  21712814.570 6  21712822.621 7  21712822.686 7                     -3530.888 6     -3530.860 6     -2746.122 7     -2746.132 7                 116271171.17506 116271170.19606  90433176.88807  90433188.89107                        40.500          39.500          43.500          43.000
R09  23501765.500 6  23501765.244 6  23501771.451 6  23501770.395 6  23501753.039 6     -4191.275 6     -4191.213 6     -3259.745 6     -3259.901 6     -3147.044 6 125498146.39106 125498131.37306  97609697.47206  97609702.49006  94229710.09106        40.000          38.750          36.750          37.500          38.500
R10  20536558.981 8  20536558.333 8                                                     -2574.496 8     -2574.441 8                                                 109471411.81808 109471430.81208                                                        49.250          49.000
R11  19919999.387 8  19919999.918 8  19920007.207 8  19920007.257 8                      2132.456 8      2132.409 8      1658.571 8      1658.579 8                 106446443.37708 106446454.38608  82791718.11808  82791719.11508                        50.000          50.000          49.500          49.250
R12  23263185.704 6  23263185.454 6  23263191.739 5  23263193.069 5                      4440.533 6      4440.624 6      3453.708 5      3453.946 5                 124267758.33006 124267759.32206  96652719.77205  96652739.73305                        40.000          39.250          35.750          35.250
R17  23803245.137 6  23803245.804 6  23803255.082 5  23803254.038 5                     -3384.337 6     -3384.413 6     -2632.290 5     -2632.380 5                 127375968.05606 127375983.07106  99070245.86805  99070239.88105                        37.250          36.750          34.500          33.500
R18  22873779.584 6  22873779.068 6  22873786.868 7  22873787.030 7                      -569.693 6      -569.791 6      -443.026 7      -443.163 7                 122101811.95106 122101807.96006  94968095.85707  94968101.85307                        41.250          40.500          43.250          42.750
R19                                  23849432.694 5                                                                      2055.968 5                                                                  99227638.56605                                                                        34.250
S23  39369223.152 6  39369195.041 5         3.757 6         2.957 5 206887110.58406 154493105.83805        41.000          32.000
S25  40382993.155 6                      -213.707 6                 212212915.94706                        38.250
S36  39057624.023 6  39057598.858 5         -.630 6         -.270 5 205250479.64906 153270990.21405        41.750          34.500
> 2020 06 25 00 09 30.0000000  0 42
C05  40716098.692 5                  40716094.607 6         0.062 5                         -.022 6 212019444.71905                 163946885.05006        34.250                          37.750
C07  39549178.776 6  39549169.207 5  39549172.991 7      -560.054 6      -455.172 5      -433.179 7 205942982.26006 167345508.02405 159248168.24107        38.750          32.250          42.000
C10  38330532.688 7  38330525.533 5  38330530.109 7       156.561 7       127.320 5       121.153 7 199597173.42807 162189025.53705 154341198.44607        42.750          35.750          45.250
C12  26252940.395 6  26252934.747 5  26252938.549 7       262.097 6       212.889 5       202.747 7 136705951.57306 111084762.41105 105709712.08607        36.750          32.000          42.000
C19  23536208.452 8  23536201.966 6                      2366.255 8      1922.785 6                 122559248.82008  99589407.27906                        48.000          41.500
C20  22196542.513 8  22196532.462 7                      -612.586 8      -497.740 7                 115583252.82808  93920829.86407                        53.000          45.750
C23  23737662.466 8                                     -2178.063 8                                 123608270.08408                                        49.000
C32  24859192.685 7  24859192.332 6                     -3144.285 7     -2555.031 6                 129448371.16607 105187419.80406                        44.750          37.500
C34  27001520.535 6  27001519.201 5                      1352.803 6      1099.180 5                 140603998.40006 114252264.34105                        38.750          30.250
C37  22309914.881 8                                       919.089 8                                 116173607.35308                                        52.250
E01  27907625.732 6  27907623.795 5  27907622.612 4  27907624.960 6  27907624.079 6     -2749.216 6     -2053.166 5     -2231.520 4     -2106.503 6     -2079.764 6 146655573.06706 109515542.08905 119038603.99304 112372470.79606 110944007.00906        38.250          31.250          27.750          41.000          40.750
E03  26769603.042 6  26769601.642 5                  26769602.997 7  26769601.740 7      2613.970 6      1952.083 5                      2002.906 7      1977.461 7 140675224.50306 105049693.45505                 107790124.92007 106419906.26307        39.500          34.250                          43.500          43.500
E05  23657147.814 8  23657146.680 7  23657141.563 6  23657147.423 8  23657146.356 8       583.837 8       435.941 7       473.820 6       447.338 8       441.657 8 124319191.03708  92835781.04707 100908392.08106  95257585.88808  94046660.53908        49.750          44.000          40.750          53.250          53.000
E09  22964995.994 7  22964994.549 6  22964991.360 6  22964995.470 8  22964994.345 8     -1996.757 7     -1491.114 6     -1620.715 6     -1529.987 8     -1510.546 8 120681911.51407  90119631.64306  97956055.19906  92470576.32008  91295103.05608        47.750          40.750          37.000          50.000          50.000
E13  27844805.149 5  27844804.466 5                  27844804.750 6  27844803.969 6      1101.325 5       821.893 5                       843.516 6       832.786 6 146325443.10205 109268999.94705                 112119495.72606 110694245.40606        35.750          31.500                          40.000          40.250
E15  27026851.169 6  27026850.857 5  27026846.710 4  27026851.073 6  27026850.160 6     -1395.152 6     -1041.802 5     -1132.568 4     -1069.007 6     -1055.432 6 142027066.16706 106059175.33505 115281690.46604 108825940.54206 107442556.51706        39.250          33.000          27.250          40.250          40.500
E24  23368473.501 7  23368483.690 6  23368461.325 6  23368483.866 8  23368483.163 8      2378.823 7      1776.333 6      1930.613 6      1822.714 8      1799.532 8 122802164.82807  91702961.20406  99677031.85306  94095211.35808  92899088.35308        46.500          40.500          36.000          48.750          48.750
E31  24599085.575 8  24599084.776 6  24599079.402 6  24599085.489 8  24599084.518 8      -441.543 8      -329.735 6      -358.409 6      -338.288 8      -333.997 8 129269096.61608  96532120.45206 104926177.70406  99050358.27608  97791233.43408        48.250          41.500          37.500          50.250          50.250
G05  21079781.848 8  21079781.419 8  21079781.985 7  21079781.109 8                     -1403.235 8     -1093.426 7     -1093.431 8                 110775027.98708  86318203.65407  86318216.64908                        49.750          53.750          46.250          53.750
G07  21989226.417 8  21989225.867 8  21989225.918 7  21989225.656 8                     -2062.438 8     -1607.050 7     -1607.094 8                 115554210.53608  90042268.08907  90042255.08308                        48.500          50.750          43.750          50.750
G08  24788829.459 6  24788828.771 5  24788833.979 6  24788833.328 5  24788825.682 5      1670.549 6      1301.730 6      1301.724 5      1247.438 5 130266182.42206 101506134.55006 101506128.52105  97276686.38205        36.500          33.000          38.750          33.000          30.000
G09  24924561.533 6  24924560.961 5  24924564.235 6  24924564.306 5  24924560.066 5     -3521.958 6     -2744.397 6     -2744.382 5     -2629.949 5 130979484.16706 102061964.44206 102061966.44405  97809368.49505        37.500          32.500          37.000          32.500          33.000
G13  21434711.664 8  21434711.106 6                  21434710.788 6                      2306.324 8                      1797.135 6                 112640201.73808                  87771596.81206                        49.500          39.000                          39.000
G15  23669182.499 6  23669182.133 4  23669182.533 6  23669182.207 4                      3468.720 6      2702.721 6      2702.895 4                 124382408.70006  96921389.86506  96921375.86304                        40.250          24.250          36.500          24.250
G18  24029923.116 6  24029922.839 3  24029923.355 6  24029922.550 3  24029922.400 5       831.293 6       647.764 6       647.750 3       620.900 5 126278109.45206  98398520.95106  98398522.94403  94298588.33605        40.250          22.250          37.000          22.250          33.750
G21  26085772.161 5  26085770.927 1                  26085772.137 1                      1798.624 5                      1401.521 1                 137081662.30905                 106816879.83301                        34.000          11.750                          11.750
G27  24724791.938 6  24724791.192 4  24724794.484 5  24724793.646 4  24724789.245 5        88.957 6        69.503 5        69.320 4        66.562 5 129929662.51206 101243904.59205 101243901.58604  97025387.80805        36.250          29.250          35.000          29.250          33.250
G28  23098821.609 6  23098820.688 4                  23098820.894 4                      3069.581 6                      2391.880 4                 121385136.64706                  94585821.59104                        41.250          25.500                          25.500
G30  20628845.261 8  20628844.318 9  20628847.592 8  20628847.052 9  20628842.441 7      -226.877 8      -176.805 8      -176.788 9      -169.429 7 108405350.64308  84471735.74808  84471727.74309  80952053.71607        51.750          57.500          49.750          57.500          46.500
R01  19379147.492 7  19379146.978 7  19379155.247 7  19379156.267 7                      -877.715 7      -877.692 7      -682.669 7      -682.513 7                 103592684.28407 103592680.29207  80572124.06607  80572131.06707                        46.250          45.750          44.500          44.250
R02  21567176.337 7  21567176.511 7  21567183.177 7  21567183.399 7                      3534.827 7      3534.896 7      2749.334 7      2749.387 7                 115086616.37007 115086611.36807  89511848.84707  89511854.85107                        47.750          46.750          45.000          45.500
R08  21732628.849 6  21732628.370 6  21732636.521 7  21732636.562 7                     -3542.321 6     -3542.416 6     -2755.231 7     -2755.110 7                 116377273.44406 116377272.47906  90515700.89707  90515712.88007                        40.500          39.500          43.750          43.250
R09  23525330.050 6  23525329.653 6  23525335.748 6  23525335.895 6  23525317.098 6     -4196.800 6     -4196.859 6     -3264.140 6     -3264.174 6     -3151.167 6 125623974.25206 125623959.24906  97707563.59506  97707568.61406  94324188.50506        41.750          40.250          40.000          40.000          38.250
R10  20551103.317 8  20551102.871 8                                                     -2593.783 8     -2593.771 8                                                 109548941.66008 109548960.65608                                                        49.250          49.000
R11  19908091.764 8  19908092.112 8  19908099.380 8  19908099.456 8                      2110.047 8      2110.027 8      1641.166 8      1641.199 8                 106382811.37508 106382822.38408  82742226.57408  82742227.57208                        50.000          50.000          49.000          49.250
R12  23238263.019 6  23238263.541 6  23238271.482 6  23238271.871 6                      4435.016 6      4434.838 6      3449.306 6      3449.482 6                 124134631.37306 124134632.39506  96549176.54306  96549196.52206                        39.000          38.000          38.250          38.250
R17  23822259.377 6  23822258.182 6  23822267.410 5  23822266.881 5                     -3397.956 6     -3398.141 6     -2642.898 5     -2642.851 5                 127477708.90306 127477723.92206  99149377.67105  99149371.67205                        38.000          37.000          35.000          33.750
R18  22877058.097 6  22877057.742 6  22877065.139 7  22877065.244 7                      -596.639 6      -596.768 6      -464.103 7      -463.995 7                 122119313.86206 122119309.87306  94981708.45507  94981714.45107                        41.000          40.250          42.500          42.250
R19                                  23834665.713 6                                                                      2040.372 6                                                                  99166199.36206                                                                        36.750
S23  39369200.646 6  39369174.476 5         3.815 6         2.781 5 206887004.34606 154493026.88005        40.750          32.000
S25  40384235.054 6                      -213.495 6                 212219331.37906                        38.250
S36  39057629.666 6  39057603.214 5         -.395 6         -.643 5 205250504.57006 153271009.06905        41.500          34.750
> 2020 06 25 00 10 00.0000000  0 42
C05  40716099.975 5                  40716096.655 6         -.775 5                         -.178 6 212019454.17605                 163946892.35606        34.750                          37.750
C07  39552418.078 6  39552408.404 5  39552412.380 7      -564.248 6      -458.486 5      -436.359 7 205959849.82906 167359214.29905 159261211.30807        39.000          32.750          42.250
C10  38329645.028 7  38329638.194 5  38329642.771 7       151.447 7       122.951 5       117.106 7 199592552.39807 162185270.56505 154337625.17107        42.750          35.750          45.000
C12  26251480.330 6  26251476.210 5  26251479.509 6       244.360 6       198.481 5       189.067 6 136698353.69006 111078588.50505 105703836.90806        37.250          32.250          41.500
C19  23522605.053 8  23522598.716 6                      2356.101 8      1914.598 6                 122488414.28708  99531848.42206                        48.250          41.500
C20  22200116.691 8  22200106.601 7                      -628.264 8      -510.505 7                 115601864.49908  93935953.37507                        53.250          45.750
C23  23750243.129 8                                     -2189.365 8                                 123673780.57308                                        49.000
C32  24877327.398 7  24877326.862 6                     -3151.215 7     -2560.628 6                 129542803.15207 105264153.52806                        44.500          37.750
C34  26993769.324 6  26993768.828 5                      1337.511 6      1087.077 5                 140563640.23206 114219470.05305                        37.250          30.500
C37  22304664.879 8                                       903.368 8                                 116146269.27408                                        52.500
E01  27923339.698 6  27923337.573 5  27923335.434 4  27923339.681 6  27923337.884 6     -2755.910 6     -2058.361 5     -2237.052 4     -2111.743 6     -2084.969 6 146738151.31706 109577207.68605 119105631.74904 112435745.02306 111006476.92006        37.500          30.500          27.250          41.250          40.750
E03  26754690.912 6  26754690.061 5                  26754690.755 7  26754689.769 7      2610.246 6      1949.440 5                      2000.112 7      1974.728 7 140596861.00606 104991175.28405                 107730080.20007 106360624.81807        39.500          34.250                          43.000          43.000
E05  23653843.864 8  23653842.686 7  23653837.587 6  23653843.463 8  23653842.404 8       573.541 8       428.331 7       465.628 6       439.492 8       433.906 8 124301828.68008  92822815.65207 100894299.26006  95244282.26508  94033526.03108        49.750          44.000          40.500          53.000          53.000
E09  22976418.197 7  22976416.907 6  22976413.476 6  22976417.734 8  22976416.631 8     -2005.009 7     -1497.203 6     -1627.240 6     -1536.203 8     -1516.680 8 120741935.94807  90164455.07306  98004776.31106  92516569.05808  91340511.13808        47.250          40.750          37.000          49.750          49.750
E13  27838561.747 5  27838561.478 5                  27838562.082 6  27838560.900 6      1085.782 5       810.688 5                       832.155 6       821.521 6 146292635.79005 109244501.00105                 112094357.66406 110669426.90106        34.500          32.000                          40.250          40.250
E15  27034855.797 6  27034855.680 5  27034850.693 4  27034855.384 6  27034854.945 6     -1409.117 6     -1052.099 5     -1144.015 4     -1079.736 6     -1065.970 6 142069130.29906 106090586.85505 115315833.38904 108858171.50906 107474377.76106        38.750          33.250          28.250          40.000          40.500
E24  23354923.945 7  23354933.858 6  23354911.679 6  23354934.399 8  23354933.404 8      2368.043 7      1768.316 6      1921.866 6      1814.496 8      1791.415 8 122730960.98207  91649789.51306  99619236.54206  94040652.56708  92845223.11308        46.250          40.250          36.000          48.500          48.750
E31  24601648.853 8  24601648.077 6  24601642.583 6  24601648.774 8  24601647.791 8      -456.562 8      -340.913 6      -370.363 6      -349.799 8      -345.359 8 129282566.59508  96542179.20206 104937111.11006  99060679.43308  97801423.39008        48.000          41.500          37.500          50.000          50.000
G05  21087848.010 8  21087847.581 8  21087847.921 7  21087847.228 8                     -1422.651 8     -1108.596 7     -1108.561 8                 110817415.44708  86351232.83807  86351245.83408                        49.500          53.500          46.500          53.500
G07  22001033.282 8  22001032.737 8  22001032.994 7  22001032.560 8                     -2073.952 8     -1616.037 7     -1616.065 8                 115616256.23308  90090615.38207  90090602.37608                        48.250          50.500          43.750          50.500
G08  24779339.388 6  24779338.718 5  24779343.945 6  24779343.395 5  24779335.277 4      1654.134 6      1288.734 6      1288.935 5      1235.496 4 130216311.51606 101467274.12406 101467268.11805  97239445.08704        38.000          34.500          40.000          34.500          29.000
G09  24944676.006 6  24944675.425 5  24944679.701 6  24944679.032 5  24944674.395 5     -3524.939 6     -2746.683 6     -2746.709 5     -2632.387 5 131085187.31806 102144330.51606 102144332.51905  97888302.68805        36.250          31.500          37.500          31.500          32.000
G13  21421577.202 8  21421576.648 6                  21421576.336 6                      2295.078 8                      1788.373 6                 112571179.73708                  87717813.45006                        49.250          39.000                          39.000
G15  23649396.637 6  23649396.257 4  23649396.762 6  23649396.382 4                      3462.840 6      2698.355 6      2698.330 4                 124278434.43206  96840370.97506  96840356.96904                        40.500          24.500          37.000          24.500
G18  24025234.308 6  24025234.040 3  24025235.178 6  24025235.131 3  24025234.936 5       811.128 6       632.060 6       632.049 3       605.492 5 126253474.90406  98379325.20406  98379327.19503  94280192.40705        40.000          23.000          38.500          23.000          35.000
G21  26075539.886 5  26075538.576 2                  26075539.539 2                      1785.945 5                      1391.620 2                 137027890.70605                 106774979.94802                        33.500          12.250                          12.250
G27  24724344.087 6  24724343.350 5  24724346.906 5  24724346.694 5  24724341.975 5        68.002 6        52.979 5        52.981 5        50.931 5 129927311.67506 101242072.74505 101242069.74105  97023632.27905        36.750          30.000          34.750          30.000          33.250
G28  23081325.937 7  23081324.990 4                  23081325.000 4                      3059.803 7                      2384.265 4                 121293196.29807                  94514179.77904                        42.000          25.500                          25.500
G30  20630189.105 8  20630188.162 9  20630191.229 8  20630190.730 9  20630186.238 7      -243.938 8      -190.058 8      -190.082 9      -182.104 7 108412411.78708  84477237.94408  84477229.93909  80957326.65107        51.750          57.250          49.750          57.250          46.500
R01  19384135.491 7  19384134.970 7  19384143.657 7  19384144.385 7                      -900.013 7      -900.035 7      -699.981 7      -699.930 7                 103619349.06307 103619345.07607  80592863.33907  80592870.33607                        46.250          45.750          44.750          44.500
R02  21547329.129 7  21547329.545 7  21547336.376 7  21547336.617 7                      3525.486 7      3525.454 7      2741.996 7      2742.146 7                 114980710.03707 114980705.04307  89429477.28707  89429483.26907                        47.500          46.500          45.250          45.500
R08  21752507.231 6  21752507.768 6  21752515.726 7  21752516.028 7                     -3554.616 6     -3554.483 6     -2764.705 7     -2764.714 7                 116483727.60506 116483726.64706  90598498.57607  90598510.57007                        40.250          39.250          43.250          43.250
R09  23548922.100 6  23548922.734 6  23548930.418 7  23548930.518 6  23548910.607 5     -4202.914 6     -4202.903 6     -3268.812 7     -3268.810 6     -3155.867 5 125749967.90706 125749952.90506  97805558.58807  97805563.58206  94418791.46905        38.250          36.750          42.000          41.000          34.250
R10  20565756.637 8  20565756.302 8                                                     -2613.644 8     -2613.707 8                                                 109627053.27208 109627072.27308                                                        49.000          49.000
R11  19896310.533 8  19896310.916 8  19896318.132 8  19896318.313 8                      2086.937 8      2086.928 8      1623.139 8      1623.222 8                 106319856.75708 106319867.76208  82693261.88108  82693262.87408                        50.000          50.000          49.000          49.250
R12  23213373.721 6  23213374.780 6  23213383.506 6  23213383.746 6                      4428.513 6      4428.525 6      3444.343 6      3444.499 6                 124001681.15906 124001682.13206  96445770.85906  96445790.83906                        39.000          38.250          40.250          40.250
R17  23841347.039 6  23841347.731 6  23841355.492 5  23841356.090 5                     -3412.290 6     -3412.367 6     -2653.522 5     -2653.872 5                 127579861.88206 127579876.89306  99228829.95305  99228823.99405                        37.000          37.250          32.750          34.000
R18  22880487.207 6  22880487.530 6  22880495.442 7  22880495.895 7                      -624.130 6      -624.087 6      -485.446 7      -485.307 7                 122137625.50506 122137621.50906  94995950.85607  94995956.84007                        40.750          40.250          42.750          42.750
R19                                  23820014.124 6                                                                      2023.986 6                                                                  99105236.86906                                                                        37.500
S23  39369183.305 6  39369154.742 5         3.343 6         2.154 5 206886898.61106 154492948.24205        40.750          31.750
S25  40385487.314 6                      -214.022 6                 212225749.97906                        38.000
S36  39057633.118 6  39057608.088 5         -.947 6         -.911 5 205250527.11906 153271029.58005        41.750          34.750
> 2020 06 25 00 10 30.0000000  0 43
C05  40716100.785 5                  40716097.464 6         0.222 5                         0.020 6 212019456.23705                 163946894.00406        34.250                          37.750
C07  39555678.796 6  39555669.341 5  39555673.449 7      -567.623 6      -461.051 5      -438.821 7 205976828.88406 167373011.14505 159274340.58307        38.750          32.250          42.500
C10  38328784.494 7  38328777.054 5  38328781.481 7       147.499 7       119.687 5       114.029 7 199588067.87107 162181626.53705 154334157.45707        42.750          35.250          45.000
C12  26250122.272 6  26250115.084 5  26250119.038 6       227.524 6       185.359 5       176.203 6 136691268.97206 111072831.55505 105698358.54606        37.250          31.750          41.750
C19  23509057.020 8  23509050.514 6                      2347.117 8      1907.211 6                 122417864.45308  99474520.92106                        48.250          41.250
C20  22203777.295 8  22203767.404 7                      -642.679 8      -522.199 7                 115620926.67408  93951442.94907                        53.500          45.250
C23  23762884.884 8                                     -2199.360 8                                 123739609.81108                                        49.000
C32  24895497.712 7  24895497.622 6                     -3156.849 7     -2565.291 6                 129637422.17207 105341039.24006                        44.750          37.000
C34  26986102.567 6  26986101.957 5                      1323.884 6      1076.111 5                 140523717.48206 114187029.55405                        37.500          30.000
C37  22299501.516 8                                       889.014 8                                 116119381.95508                                        52.500
E01  27939088.214 6  27939086.718 5                  27939087.586 6  27939086.219 6     -2761.367 6     -2062.151 5                     -2115.767 6     -2088.949 6 146820910.53106 109639008.34505                 112499157.88706 111069083.68706        37.750          30.750                          40.000          40.000
E03  26739794.946 6  26739794.306 5                  26739794.874 7  26739793.971 7      2608.114 6      1947.787 5                      1998.432 7      1973.058 7 140518582.87106 104932720.87405                 107670100.88707 106301407.95307        40.250          34.500                          43.000          43.000
E05  23650594.601 8  23650593.575 7  23650588.538 6  23650594.238 8  23650593.207 8       564.584 8       421.559 7       458.435 6       432.626 8       427.110 8 124284754.08008  92810065.14507 100880440.00406  95231199.13508  94020609.21308        50.000          44.000          40.500          53.000          53.000
E09  22987882.637 7  22987881.259 6  22987877.713 6  22987882.128 8  22987881.053 8     -2011.659 7     -1502.141 6     -1632.868 6     -1541.405 8     -1521.783 8 120802181.93307  90209443.94306  98053677.27506  92562731.55508  91386086.82308        47.500          40.500          36.750          49.750          49.500
E13  27832400.608 5  27832399.517 5                  27832399.492 6  27832398.951 6      1072.521 5       801.108 5                       821.834 6       811.462 6 146260254.33505 109220320.00605                 112069545.93106 110644930.55406        35.250          32.250                          39.500          40.000
E15  27042935.186 6  27042935.702 5  27042930.373 4  27042935.910 6  27042935.145 6     -1421.701 6     -1061.472 5     -1154.142 4     -1089.432 6     -1075.525 6 142111591.92206 106122295.20705 115350299.00904 108890707.04606 107506499.70806        39.000          33.250          27.000          41.000          41.250
E24  23341431.975 7  23341441.811 6  23341419.592 6  23341442.191 8  23341441.365 8      2358.545 7      1761.205 6      1914.457 6      1807.198 8      1784.221 8 122660059.80407  91596843.83706  99561686.87806  93986325.70008  92791586.84008        46.750          40.250          36.500          48.750          48.750
E31  24604293.490 8  24604292.838 6  24604287.231 6  24604293.480 8  24604292.469 8      -470.196 8      -351.030 6      -381.713 6      -360.309 8      -355.686 8 129296464.55808  96552557.55406 104948391.95406  99071328.52608  97811937.11208        48.250          41.500          37.500          50.250          50.250
G05  21096020.904 8  21096020.480 8  21096021.320 7  21096020.308 8                     -1440.763 8     -1122.708 7     -1122.675 8                 110860365.37008  86384700.31407  86384713.30208                        49.500          53.750          46.500          53.750
G07  22012902.164 8  22012901.614 8  22012901.625 7  22012901.226 8                     -2084.135 8     -1624.013 7     -1624.000 8                 115678626.52508  90139215.60907  90139202.60008                        48.250          50.750          43.750          50.750
G08  24769940.027 6  24769939.361 5  24769944.401 6  24769943.772 5  24769936.760 5      1638.796 6      1276.951 6      1276.986 5      1223.875 5 130166916.29206 101428784.35506 101428778.35705  97202559.03505        38.250          35.500          40.250          35.500          30.750
G09  24964804.383 5  24964803.766 5  24964807.722 6  24964807.464 5  24964802.885 5     -3526.910 5     -2748.315 6     -2748.243 5     -2633.559 5 131190963.57205 102226753.54606 102226755.53105  97967291.41205        35.250          30.250          36.500          30.250          32.250
G13  21408503.222 8  21408502.664 6                  21408502.474 6                      2285.064 8                      1780.568 6                 112502475.77508                  87664277.90806                        49.250          39.500                          39.500
G15  23629640.530 6  23629640.195 4  23629640.070 6  23629639.926 4                      3458.312 6      2694.759 6      2694.786 4                 124174612.93606  96759471.13306  96759457.13104                        40.500          25.750          37.250          25.750
G18  24020657.961 6  24020657.653 3  24020658.358 6  24020658.126 3  24020657.733 5       792.125 6       617.403 6       617.245 3       591.812 5 126229423.42106  98360583.77606  98360585.79003  94262231.89005        39.500          22.250          37.750          22.250          34.500
G21  26065376.399 5  26065375.116 2                  26065376.471 2                      1774.275 5                      1382.556 2                 136974482.24605                 106733362.98102                        34.000          12.250                          12.250
G27  24724012.616 6  24724011.901 4  24724015.058 5  24724014.716 4  24724010.086 5        48.135 6        37.761 5        37.505 4        35.845 5 129925569.54306 101240715.23805 101240712.23104  97022331.37105        36.000          29.000          34.750          29.000          32.750
G28  23063882.218 7  23063881.279 4                  23063881.513 4                      3051.087 7                      2377.456 4                 121201529.67507                  94442751.24904                        42.250          26.000                          26.000
G30  20631626.066 8  20631625.123 9  20631628.393 8  20631627.793 9  20631623.221 7      -259.647 8      -202.337 8      -202.322 9      -193.919 7 108419963.81308  84483122.65108  84483114.64609  80962966.16907        51.750          57.750          50.000          57.750          46.500
R01  19389244.813 7  19389244.630 7  19389253.212 7  19389253.938 7                      -921.070 7      -920.968 7      -716.402 7      -716.397 7                 103646662.70707 103646658.71607  80614107.28307  80614114.28107                        46.500          46.000          45.000          44.750
R02  21527531.660 7  21527531.700 7  21527538.472 7  21527538.316 7                      3517.334 7      3517.322 7      2735.642 7      2735.640 7                 114875064.99807 114875060.00407  89347308.93507  89347314.93807                        46.750          46.250          44.750          45.250
R08  21772450.640 6  21772451.804 6  21772460.462 7  21772459.916 7                     -3565.416 6     -3565.407 6     -2773.065 7     -2773.209 7                 116590525.91506 116590524.92406  90681563.90407  90681575.90807                        40.750          39.750          43.250          43.250
R09  23572547.837 6  23572547.760 6  23572553.292 6  23572553.564 6  23572534.307 6     -4207.498 6     -4207.111 6     -3272.520 6     -3272.354 6     -3159.020 6 125876118.66006 125876103.65006  97903675.75306  97903680.74506  94513512.33306        39.500          39.000          38.500          38.250          36.500
R10  20580517.602 8  20580517.307 8                                                     -2632.059 8     -2632.093 8                                                 109705737.58208 109705756.58208                                                        49.250          49.000
R11  19884655.440 8  19884655.874 8  19884663.056 8  19884663.298 8                      2065.033 8      2065.017 8      1606.102 8      1606.080 8                 106257576.11008 106257587.11208  82644821.39408  82644822.38808                        50.250          50.250          49.250          49.250
R12  23188518.418 6  23188519.472 6  23188527.907 6  23188527.802 6                      4423.033 6      4423.146 6      3440.230 6      3440.162 6                 123868905.28806 123868906.27006  96342500.76606  96342520.77106                        41.000          40.250          40.500          40.750
R17  23860511.928 6  23860512.716 6  23860521.574 5  23860521.124 5                     -3424.810 6     -3424.967 6     -2663.903 5     -2663.991 5                 127682417.22506 127682432.23906  99308595.25805  99308589.25605                        37.250          36.500          35.000          34.500
R18  22884068.994 6  22884069.036 6  22884076.632 7  22884076.905 7                      -650.384 6      -650.368 6      -505.777 7      -505.853 7                 122156740.90506 122156736.90806  95010818.38007  95010824.38507                        41.000          40.250          42.750          42.500
R19                                  23805475.558 6                                                                      2008.439 6                                                                  99044749.66606                                                                        38.000
S23  39369160.013 6  39369133.252 5         3.946 6         3.036 5 206886788.08406 154492865.82305        41.000          31.750
S25  40386734.749 6                      -213.401 6                 212232160.60406                        38.250
S26  40933255.129 5                        75.800 5                 215105699.48805                        32.000
S36  39057636.964 6  39057611.840 5         -.418 6         -.574 5 205250549.66106 153271042.69505        41.750          34.750
> 2020 06 25 00 11 00.0000000  0 43
C05  40716101.321 5                  40716097.777 6         -.262 5                         -.191 6 212019459.86605                 163946896.77706        34.250                          37.750
C07  39558962.413 6  39558952.899 5  39558956.946 7      -572.081 6      -465.184 5      -442.439 7 205993927.73906 167386905.40305 159287562.52307        39.000          32.500          42.750
C10  38327950.929 7  38327943.759 5  38327948.113 7       142.078 7       115.566 5       109.839 7 199583728.26007 162178100.26505 154330801.81407        42.750          35.750          45.000
C12  26248862.232 6  26248854.827 5  26248858.851 6       209.932 6       170.578 5       162.348 6 136684706.55506 111067499.09305 105693284.10706        37.750          32.750          41.500
C19  23495565.263 8  23495558.861 6                      2336.685 8      1898.753 6                 122347609.91208  99417433.36306                        48.000          41.500
C20  22207526.090 8  22207516.275 7                      -658.544 8      -535.165 7                 115640448.14708  93967305.75407                        53.500          45.750
C23  23775589.256 8                                     -2210.800 8                                 123805764.90908                                        48.750
C32  24913705.775 7  24913705.745 6                     -3163.803 7     -2570.789 6                 129732235.64207 105418082.94006                        44.500          38.000
C34  26978521.257 6  26978521.150 5                      1308.269 6      1063.054 5                 140484240.49706 114154951.31505                        37.000          30.000
C37  22294426.408 8                                       873.065 8                                 116092954.48908                                        52.500
E01  27954872.363 6  27954871.123 5  27954868.810 4  27954871.797 6  27954870.613 6     -2768.201 6     -2067.484 5     -2247.021 4     -2121.126 6     -2094.205 6 146903857.89406 109700949.53005 119240133.84504 112562714.94306 111131832.81206        37.000          31.250          26.000          39.500          39.500
E03  26724917.313 6  26724916.958 5                  26724917.008 7  26724916.141 7      2604.358 6      1944.699 5                      1995.494 7      1970.110 7 140440399.91706 104874337.56305                 107610194.50007 106242263.10107        40.250          34.750                          43.250          43.250
E05  23647402.082 8  23647400.858 7  23647395.931 6  23647401.640 8  23647400.593 8       554.104 8       413.674 7       449.670 6       424.555 8       419.143 8 124267976.79008  92797536.65607 100866822.08706  95218343.81608  94007917.30908        50.000          43.750          40.750          53.250          53.000
E09  22999390.827 7  22999389.613 6  22999386.327 6  22999390.359 8  22999389.266 8     -2019.890 7     -1508.227 6     -1639.446 6     -1547.646 8     -1527.970 8 120862657.95907  90254604.59606  98102764.94206  92609070.31808  91431836.53408        47.500          40.500          36.750          49.750          49.750
E13  27826320.885 5  27826320.127 5                  27826320.638 6  27826319.851 6      1057.252 5       789.726 5                       810.262 6       799.993 6 146228308.60805 109196464.48205                 112045068.04006 110620763.83806        34.750          32.250                          39.500          40.000
E15  27051092.412 6  27051092.732 5  27051087.741 4  27051093.481 6  27051092.404 6     -1435.826 6     -1071.976 5     -1165.199 4     -1100.201 6     -1086.159 6 142154458.62706 106154306.06905 115385093.39104 108923552.96406 107538928.09206        38.750          33.500          27.250          41.750          41.750
E24  23327999.429 7  23328009.110 6  23327987.179 6  23328009.926 8  23328008.790 8      2347.525 7      1753.065 6      1905.521 6      1798.781 8      1775.913 8 122589471.53607  91544131.81606  99504391.19806  93932238.58608  92738187.27608        46.750          40.000          36.000          49.000          49.000
E31  24607021.198 8  24607020.534 6  24607014.976 6  24607021.204 8  24607020.177 8      -485.283 8      -362.389 6      -393.969 6      -371.858 8      -367.111 8 129310798.76308  96563261.67706 104960026.86406  99082311.88608  97822780.85408        48.000          41.250          37.250          50.250          50.250
G05  21104302.689 8  21104302.260 8  21104302.896 7  21104302.093 8                     -1460.355 8     -1137.935 7     -1137.942 8                 110903885.83708  86418612.35507  86418625.34908                        49.250          53.750          46.500          53.750
G07  22024833.979 8  22024833.434 8  22024833.511 7  22024833.098 8                     -2095.786 8     -1633.158 7     -1633.079 8                 115741328.82808  90188074.54107  90188061.53608                        48.000          50.500          43.750          50.500
G08  24760633.063 6  24760632.393 5  24760636.964 6  24760636.358 5  24760630.629 5      1622.114 6      1263.697 6      1263.981 5      1211.077 5 130118007.87506 101390673.92306 101390667.92105  97166036.53205        38.250          35.250          38.500          35.250          32.500
G09  24984948.940 6  24984948.314 4  24984951.527 5  24984950.858 4  24984946.801 5     -3530.012 6     -2750.712 5     -2750.662 4     -2636.202 5 131296820.67906 102309239.56505 102309241.56204  98046340.55005        36.500          29.500          35.500          29.500          32.750
G13  21395491.656 8  21395491.098 6                  21395490.920 6                      2273.538 8                      1771.589 6                 112434100.08308                  87610998.16306                        49.250          39.500                          39.500
G15  23609914.884 6  23609914.558 4  23609915.334 6  23609914.410 4                      3452.410 6      2690.026 6      2690.187 4                 124070954.52206  96678698.38106  96678684.36704                        40.250          26.500          38.000          26.500
G18  24016193.810 6  24016193.489 3  24016194.424 6  24016194.405 3  24016193.524 5       771.958 6       601.496 6       601.518 3       576.458 5 126205964.62206  98342304.23506  98342306.22503  94244713.98905        39.250          23.250          38.750          23.250          34.000
G21  26055285.239 5  26055283.992 1                  26055284.073 1                      1761.320 5                      1372.458 1                 136921447.60705                 106692037.30801                        32.500          10.250                          10.250
G27  24723798.786 5  24723798.040 4  24723801.148 5  24723800.253 4  24723796.637 5        26.935 5        20.917 5        20.985 4        20.179 5 129924445.22605 101239839.14705 101239836.13904  97021491.77605        35.750          28.250          34.500          28.250          33.000
G28  23046493.391 6  23046492.452 4                  23046492.330 4                      3041.149 6                      2369.723 4                 121110148.32506                  94371545.01604                        41.750          25.750                          25.750
G30  20633158.192 8  20633157.253 9  20633160.334 8  20633159.910 9  20633155.367 7      -276.855 8      -215.739 8      -215.729 9      -206.731 7 108428015.03208  84489396.33708  84489388.33109  80968978.45207        51.500          57.500          50.000          57.500          46.500
R01  19394477.338 7  19394477.274 7  19394485.541 7  19394486.461 7                      -943.499 7      -943.572 7      -733.902 7      -733.768 7                 103674634.30107 103674630.31407  80635862.96007  80635869.95507                        46.250          46.000          44.750          44.500
R02  21507784.477 7  21507785.140 7  21507792.050 7  21507792.006 7                      3507.626 7      3507.611 7      2728.123 7      2728.226 7                 114769693.27307 114769688.27407  89265353.17807  89265359.17207                        47.250          46.500          45.250          45.500
R08  21792462.226 6  21792461.385 6  21792469.528 7  21792469.023 7                     -3577.727 6     -3577.631 6     -2782.646 7     -2782.434 7                 116697675.26806 116697674.29506  90764902.29007  90764914.28107                        40.500          39.500          42.750          43.000
R09  23596201.742 6  23596202.424 6  23596207.885 6  23596207.325 6  23596189.670 6     -4213.154 6     -4213.364 6     -3277.034 6     -3276.809 6     -3163.639 6 126002432.27106 126002417.26706  98001919.69306  98001924.69106  94608355.49606        41.500          40.500          36.750          36.750          39.500
R10  20595387.686 8  20595387.062 8                                                     -2651.851 8     -2651.881 8                                                 109785000.45308 109785019.45308                                                        49.250          49.000
R11  19873128.667 8  19873129.269 8  19873136.406 8  19873136.371 8                      2041.598 8      2041.633 8      1587.925 8      1587.950 8                 106195980.27908 106195991.27408  82596913.53308  82596914.52308                        50.500          50.250          49.250          49.500
R12  23163697.721 6  23163698.412 6  23163706.422 6  23163706.215 6  23163787.801 5      4416.359 6      4416.452 6      3434.938 6      3435.049 6      3316.778 5 123736315.86806 123736316.86506  96239375.70106  96239395.69506  92874590.50005        40.750          40.250          40.000          39.750          32.500
R17  23879752.604 6  23879753.657 6  23879762.330 5  23879762.199 5                     -3438.798 6     -3438.965 6     -2674.800 5     -2674.690 5                 127785379.36606 127785394.35906  99388676.89105  99388670.88805                        37.250          36.500          35.500          34.750
R18  22887802.000 6  22887802.005 6  22887809.815 7  22887809.811 7                      -678.029 6      -678.063 6      -527.306 7      -527.199 7                 122176667.77906 122176663.78906  95026317.08907  95026323.07207                        40.750          40.250          42.500          43.000
R19                                  23791054.154 6                                                                      1991.782 6                                                                  98984747.30106                                                                        36.250
S23  39369140.664 6  39369113.326 5         3.354 6         2.241 5 206886681.25706 154492785.81105        40.750          32.250
S25  40387976.559 6                      -214.246 6                 212240175.70406                        38.250
S26  40932823.711 5                        75.579 5                 215103429.07505                        32.250
S36  39057642.446 6  39057616.884 5        -1.142 6         -.992 5 205250575.94106 153271060.89105        41.500          35.000
> 2020 06 25 00 11 30.0000000  0 43
C05  40716100.503 5                  40716097.558 6         0.803 5                         0.565 6 212019458.17505                 163946895.48806        34.750                          37.750
C07  39562267.957 6  39562258.302 5  39562262.475 7      -574.661 6      -467.081 5      -444.438 7 206011139.37906 167400891.28405 159300871.65207        39.250          33.000          43.000
C10  38327143.678 7  38327136.783 5  38327141.335 7       138.512 7       112.464 5       107.165 7 199579526.80807 162174686.26505 154327552.99307        42.750          35.750          45.000
C12  26247698.438 6  26247693.663 5  26247697.382 6       193.772 6       157.311 5       149.818 6 136678659.89506 111062585.67805 105688608.42306        36.250          32.000          41.000
C19  23482129.108 8  23482122.899 6                      2328.115 8      1891.758 6                 122277645.58108  99360581.64206                        48.250          41.500
C20  22211361.721 8  22211352.047 7                      -672.523 8      -546.481 7                 115660422.11708  93983536.23507                        53.500          45.500
C23  23788354.412 8                                     -2220.170 8                                 123872237.26808                                        48.750
C32  24931949.368 7  24931949.570 6                     -3168.910 7     -2574.792 6                 129827235.31407 105495277.95906                        44.750          38.000
C34  26971025.008 6  26971024.246 4                      1294.579 6      1052.207 4                 140445203.88806 114123230.86404                        36.750          29.250
C37  22289438.322 8                                       859.020 8                                 116066980.27608                                        52.750
E01  27970691.332 6  27970689.814 5  27970687.465 4  27970690.137 6  27970689.425 6     -2772.813 6     -2070.728 5     -2250.550 4     -2124.706 6     -2097.740 6 146986984.78006 109763024.75805 119307606.93704 112626409.55206 111194717.73706        36.500          31.750          26.250          39.000          39.500
E03  26710056.479 6  26710055.473 5                  26710056.296 7  26710055.258 7      2602.355 6      1943.229 5                      1994.063 7      1968.696 7 140362306.24106 104816020.86205                 107550356.51407 106183185.76707        40.500          34.500                          43.000          43.250
E05  23644264.793 8  23644263.539 7  23644258.659 6  23644264.418 8  23644263.357 8       545.501 8       407.396 7       442.792 6       417.995 8       412.678 8 124251490.56508  92785225.51507 100853440.41506  95205711.51808  93995445.59108        49.750          43.750          40.250          53.000          53.000
E09  23010941.483 7  23010940.300 6  23010936.649 6  23010940.904 8  23010939.883 8     -2026.187 7     -1513.023 6     -1644.630 6     -1552.510 8     -1532.777 8 120923356.69307  90299931.56306  98152033.39106  92655579.73008  91477754.72408        47.250          40.500          36.750          49.500          49.500
E13  27820323.163 5  27820322.674 5                  27820323.351 6  27820322.440 6      1044.180 5       779.763 5                       800.066 6       789.932 6 146196792.62505 109172929.83005                 112020919.44906 110596922.22006        35.000          31.750                          39.500          39.750
E15  27059325.415 6  27059325.736 5  27059320.718 4  27059326.144 6  27059325.113 6     -1447.905 6     -1080.925 5     -1175.296 4     -1109.405 6     -1095.215 6 142197722.24806 106186613.28605 115420210.00304 108956702.99606 107571656.72106        38.000          33.250          26.500          41.250          41.500
E24  23314625.442 7  23314635.117 6  23314613.367 6  23314635.946 8  23314634.802 8      2338.386 7      1746.189 6      1897.835 6      1791.752 8      1768.967 8 122519190.63907  91491649.34106  99447345.04906  93878386.99308  92685020.24008        46.750          40.000          36.250          49.000          49.000
E31  24609830.488 8  24609829.771 6  24609824.120 6  24609830.465 8  24609829.456 8      -498.414 8      -372.167 6      -404.703 6      -381.907 8      -377.062 8 129325561.66008  96574285.91906 104972009.74506  99093623.71808  97833948.89308        48.000          41.000          37.250          50.250          50.250
G05  21112691.291 8  21112690.862 8  21112691.510 7  21112690.839 8                     -1477.918 8     -1151.694 7     -1151.629 8                 110947968.45808  86452962.45207  86452975.43908                        49.250          53.500          46.500          53.500
G07  22036827.250 8  22036826.700 8  22036826.892 7  22036826.557 8                     -2105.435 8     -1640.656 7     -1640.604 8                 115804354.67408  90237185.58707  90237172.58108                        48.000          50.250          43.750          50.250
G08  24751416.581 5  24751415.911 5  24751422.160 6  24751421.100 5  24751414.784 5      1607.097 5      1252.150 6      1252.281 5      1200.182 5 130069581.70405 101352939.24806 101352933.25305  97129874.12205        35.750          31.750          37.500          31.750          32.500
G09  25005105.865 5  25005105.217 4  25005109.525 5  25005108.504 4  25005104.748 5     -3531.325 5     -2751.673 5     -2751.683 4     -2636.761 5 131402750.58305 102391782.36505 102391784.35104  98125444.01405        35.250          29.000          35.750          29.000          33.000
G13  21382541.974 8  21382541.416 6                  21382540.962 6                      2263.846 8                      1764.031 6                 112366047.22308                  87557969.97906                        49.500          39.500                          39.500
G15  23590219.174 6  23590218.817 4  23590219.767 6  23590219.345 4                      3448.117 6      2686.768 6      2686.847 4                 123967454.17706  96598048.78206  96598034.78804                        41.000          26.500          37.750          26.500
G18  24011841.453 6  24011841.109 3  24011841.753 6  24011841.911 3  24011841.551 5       753.496 6       587.242 6       587.141 3       562.827 5 126183092.43906  98324481.75506  98324483.74703  94227634.10705        40.250          23.250          38.000          23.250          34.250
G21  26045261.425 5  26045260.124 2                  26045262.027 2                      1750.311 5                      1363.907 2                 136868781.56105                 106650998.81002                        33.250          12.500                          12.500
G27  24723701.234 5  24723700.483 4  24723703.648 5  24723703.053 4  24723698.894 5         7.786 5         6.016 5         6.053 4         5.559 5 129923932.06305 101239439.29305 101239436.29104  97021108.58605        35.250          28.250          34.500          28.250          33.250
G28  23029157.323 7  23029156.402 4                  23029156.310 4                      3032.733 7                      2363.160 4                 121019048.22807                  94300557.92804                        42.750          26.250                          26.250
G30  20634783.732 8  20634782.789 9  20634786.157 8  20634785.568 9  20634780.958 7      -292.166 8      -227.633 8      -227.662 9      -218.145 7 108436557.92108  84496053.13708  84496045.13709  80975357.88607        51.250          57.250          49.750          57.250          46.250
R01  19399832.006 7  19399831.707 7  19399840.126 7  19399840.988 7                      -964.102 7      -964.075 7      -749.836 7      -749.899 7                 103703256.51207 103703252.52007  80658124.67307  80658131.67607                        46.250          46.000          44.500          44.250
R02  21488088.163 7  21488088.716 7  21488095.571 7  21488095.819 7                      3499.670 7      3499.632 7      2721.977 7      2721.913 7                 114664590.74807 114664585.75107  89183606.79907  89183612.79307                        47.250          46.750          45.250          45.500
R08  21812533.905 6  21812534.441 6  21812542.692 7  21812542.776 7                     -3587.995 6     -3587.979 6     -2790.688 7     -2790.712 7                 116805166.90906 116805165.90506  90848506.88507  90848518.88107                        40.250          39.500          43.000          43.000
R09  23619883.565 6  23619884.321 5  23619892.105 6  23619891.927 6  23619873.683 6     -4216.972 6     -4217.310 5     -3280.088 6     -3280.065 6     -3166.552 6 126128898.66006 126128883.68105  98100282.46206  98100287.48206  94703313.36306        36.750          35.500          40.250          39.250          39.000
R10  20610363.629 8  20610362.956 8                                                     -2669.654 8     -2669.661 8                                                 109864831.35908 109864850.36308                                                        49.000          48.750
R11  19861729.215 8  19861729.471 8  19861736.662 8  19861736.743 8                      2020.052 8      2020.036 8      1571.161 8      1571.114 8                 106135063.93108 106135074.93908  82549534.18608  82549535.18308                        50.500          50.250          49.250          49.500
R12  23138911.141 7  23138911.922 7  23138920.037 6  23138919.550 6  23139000.658 5      4411.345 7      4411.384 7      3430.876 6      3430.979 6      3309.214 5 123603908.89207 123603909.89307  96136392.50906  96136412.51006  92775209.50605        42.500          42.000          40.250          40.000          31.500
R17  23899067.691 6  23899068.844 6  23899076.152 5  23899076.367 5                     -3450.978 6     -3451.116 6     -2684.080 5     -2684.234 5                 127888737.00306 127888751.99206  99469066.13405  99469060.15305                        37.500          36.500          34.250          34.250
R18  22891684.905 6  22891685.699 6  22891693.549 7  22891693.540 7                      -703.552 6      -703.535 6      -547.232 7      -547.245 7                 122197397.75506 122197393.74606  95042440.39007  95042446.38607                        41.000          40.750          43.000          43.000
R19                                  23776748.291 5                                                                      1976.596 5                                                                  98925227.75505                                                                        34.750
S23  39369119.558 6  39369092.108 5         4.456 6         3.253 5 206886571.91806 154492703.94405        40.750          32.000
S25  40389222.975 6                      -212.850 6                 212246585.20806                        38.250
S26  40932390.098 5                        76.829 5                 215101149.03805                        32.250
S36  39057645.075 6  39057621.440 5         0.003 6         0.107 5 205250596.12306 153271081.93605        41.500          34.750
> 2020 06 25 00 12 00.0000000  0 43
C05  40716099.779 5                  40716096.637 6         0.070 5                         0.047 6 212019453.70205                 163946891.99906        34.250                          37.500
C07  39565594.742 6  39565585.652 5  39565589.865 7      -579.614 6      -471.071 5      -448.088 7 206028465.90106 167414970.47105 159314269.60907        39.000          32.750          42.750
C10  38326363.369 7  38326356.686 5  38326361.266 7       132.882 7       108.081 5       102.799 7 199575465.67707 162171386.23305 154324412.67007        42.500          35.750          45.000
C12  26246637.752 5  26246632.454 5  26246636.658 7       175.617 5       142.740 5       135.779 7 136673131.66305 111058093.54105 105684333.62707        35.500          32.250          42.000
C19  23468750.194 8  23468743.476 6                      2317.293 8      1882.988 6                 122207975.77608  99303969.22506                        48.250          41.250
C20  22215284.925 8  22215275.284 7                      -688.649 8      -559.612 7                 115680851.01008  94000136.39107                        53.250          45.500
C23  23801180.842 8                                     -2231.702 8                                 123939027.60508                                        48.500
C32  24950229.165 7  24950228.905 6                     -3176.150 7     -2580.765 6                 129922422.32007 105572625.18506                        44.250          37.750
C34  26963613.835 6  26963613.079 5                      1278.992 6      1039.076 5                 140406611.63106 114091871.52105                        37.000          30.000
C37  22284537.849 8                                       842.874 8                                 116041462.04108                                        52.500
E01  27986544.088 6  27986542.490 5  27986541.029 4  27986543.258 6  27986542.409 6     -2779.884 6     -2076.237 5     -2256.506 4     -2130.177 6     -2103.108 6 147070292.05806 109825234.71905 119375226.41704 112690242.38206 111257739.12106        37.000          32.000          27.250          39.750          40.000
E03  26695213.127 6  26695212.323 5                  26695213.122 7  26695212.190 7      2598.445 6      1940.251 5                      1990.999 7      1965.652 7 140284305.22906 104757773.41205                 107490589.53407 106124178.54607        40.500          34.000                          43.000          42.750
E05  23641183.562 8  23641182.303 7  23641177.377 6  23641183.170 8  23641182.132 8       534.701 8       399.372 7       434.052 6       409.678 8       404.500 8 124235298.53508  92773134.07107 100840297.53506  95193304.64308  93983196.43008        49.750          43.500          40.250          53.000          53.000
E09  23022534.909 7  23022533.570 6  23022530.477 6  23022534.189 8  23022533.293 8     -2034.683 7     -1519.323 6     -1651.472 6     -1559.048 8     -1539.207 8 120984280.22107  90345426.39006  98201484.29506  92702261.39008  91523842.96808        47.250          40.250          36.500          49.500          49.250
E13  27814409.590 5  27814408.099 5                  27814408.390 6  27814407.659 6      1028.938 5       768.388 5                       788.225 6       778.252 6 146165709.84705 109149718.68105                 111997102.76906 110573408.29806        35.500          31.750                          40.000          40.000
E15  27067633.946 6  27067634.042 5  27067628.686 4  27067634.535 6  27067633.728 6     -1462.199 6     -1091.706 5     -1187.264 4     -1120.327 6     -1106.068 6 142241383.87806 106219217.77305 115455649.64604 108990158.01506 107604686.47106        38.500          33.750          26.250          41.250          41.500
E24  23301310.712 7  23301320.263 6  23301298.483 6  23301321.157 8  23301319.955 8      2326.988 7      1737.680 6      1888.725 6      1783.081 8      1760.407 8 122449220.90907  91439399.23406  99390551.45006  93824773.83508  92632088.60508        47.000          40.000          36.000          49.250          49.000
E31  24612721.733 8  24612720.904 6  24612715.375 6  24612721.675 8  24612720.678 8      -513.748 8      -383.709 6      -416.899 6      -393.713 8      -388.711 8 129340755.13108  96585631.70406 104984342.09506  99105265.47608  97845442.66408        48.000          41.000          37.250          50.250          50.000
G05  21121187.226 8  21121186.797 8  21121187.517 7  21121186.743 8                     -1497.726 8     -1167.025 7     -1167.061 8                 110992614.53008  86487751.59107  86487764.58208                        49.500          53.750          46.750          53.750
G07  22048882.439 8  22048881.885 8  22048882.127 7  22048881.797 8                     -2117.212 8     -1649.728 7     -1649.774 8                 115867705.20308  90286549.62707  90286536.62808                        48.250          50.250          43.750          50.250
G08  24742294.694 5  24742294.001 4  24742298.683 6  24742297.675 4  24742292.531 5      1589.980 5      1238.835 6      1238.950 4      1186.785 5 130021642.30205 101315583.89806 101315577.91604  97094075.30705        33.000          28.250          36.500          28.250          33.750
G09  25025278.649 6  25025278.064 5  25025281.473 5  25025280.530 5  25025276.999 5     -3534.682 6     -2754.389 5     -2754.294 5     -2639.493 5 131508754.78806 102474383.05005 102474385.03805  98204602.98005        36.750          30.500          35.750          30.500          33.000
G13  21369653.851 8  21369653.293 6                  21369653.053 6                      2251.956 8                      1754.771 6                 112298321.01808                  87505196.32706                        49.250          39.750                          39.750
G15  23570554.863 6  23570554.506 4  23570555.225 6  23570554.956 4                      3441.763 6      2682.001 6      2681.880 4                 123864116.15206  96517525.67406  96517511.68104                        40.750          26.750          38.500          26.750
G18  24007601.186 6  24007600.838 4  24007602.143 6  24007601.668 4  24007601.237 5       732.768 6       570.883 6       570.998 4       547.033 5 126160810.02306  98307118.84706  98307120.83704  94210994.66405        40.500          24.000          38.500          24.000          33.750
G21  26035312.135 5  26035310.901 1                  26035310.976 1                      1736.648 5                      1353.229 1                 136816488.41905                 106610250.92701                        32.750          10.750                          10.750
G27  24723720.328 6  24723719.568 4  24723723.353 5  24723722.286 4  24723717.891 5       -13.770 6       -10.731 5       -10.730 4       -10.272 5 129924032.84406 101239517.81505 101239514.83104  97021183.81205        36.000          29.000          35.500          29.000          32.500
G28  23011875.922 7  23011875.001 4                  23011875.099 4                      3022.173 7                      2354.943 4                 120928234.46807                  94229793.96104                        42.250          26.500                          26.500
G30  20636503.398 8  20636502.455 9  20636505.727 8  20636505.144 9  20636500.475 7      -309.592 8      -241.239 8      -241.239 9      -231.221 7 108445594.31408  84503094.49408  84503086.49009  80982105.85607        51.250          57.500          50.000          57.500          46.500
R01  19405308.393 7  19405308.206 7  19405316.332 7  19405317.549 7                      -986.775 7      -986.823 7      -767.504 7      -767.451 7                 103732531.83607 103732527.83907  80680894.36407  80680901.35807                        46.500          45.750          44.750          44.250
R02  21468443.935 7  21468444.199 7  21468450.781 7  21468450.859 7                      3489.497 7      3489.452 7      2713.978 7      2714.202 7                 114559762.78907 114559757.78707  89102073.96507  89102079.94907                        47.750          47.250          44.750          45.250
R08  21832670.595 6  21832671.861 6  21832679.886 7  21832679.718 7                     -3600.220 6     -3600.302 6     -2800.250 7     -2800.164 7                 116913001.08006 116913000.07106  90932377.89607  90932389.90107                        40.500          39.500          42.250          42.750
R09  23643597.920 6  23643597.282 6  23643604.175 7  23643604.512 7  23643584.779 5     -4223.256 6     -4223.130 6     -3284.798 7     -3284.552 7     -3171.082 5 126255516.93106 126255501.96306  98198763.21207  98198768.18507  94798385.21305        39.250          38.750          43.000          42.250          33.500
R10  20625446.014 8  20625445.448 8                                                     -2689.490 8     -2689.466 8                                                 109945229.19708 109945248.19808                                                        49.250          48.750
R11  19850457.132 8  19850457.660 8  19850464.829 8  19850464.955 8                      1996.227 8      1996.218 8      1552.590 8      1552.692 8                 106074831.50308 106074842.50808  82502686.76208  82502687.75008                        50.250          50.000          49.250          49.500
R12  23114159.415 6  23114160.172 6  23114167.774 6  23114168.118 6  23114226.440 5      4404.176 6      4404.084 6      3425.313 6      3425.529 6      3302.188 5 123471689.90706 123471690.92306  96033555.55306  96033575.53406  92675876.50105        41.750          41.000          40.000          40.250          32.000
R17  23918457.156 6  23918456.695 5  23918465.519 5  23918465.733 5                     -3465.064 6     -3464.927 5     -2695.133 5     -2695.094 5                 127992488.08306 127992503.08805  99549761.43205  99549755.43005                        36.000          34.500          34.250          35.250
R18  22895718.455 6  22895719.617 6  22895727.275 7  22895727.351 7                      -731.211 6      -731.398 6      -568.870 7      -568.824 7                 122218932.52406 122218928.52106  95059189.66507  95059195.65507                        41.250          40.500          42.750          43.000
R19                                  23762559.935 5                                                                      1959.563 5                                                                  98866195.52405                                                                        33.750
S23  39369098.698 6  39369071.566 5         3.438 6         2.256 5 206886463.24506 154492622.84605        40.500          32.000
S25  40390464.507 6                      -213.509 6                 212252993.13006                        38.000
S26  40931956.932 5                        76.081 5                 215098862.42505                        32.000
S36  39057650.826 6  39057626.176 5         -.888 6         -.793 5 205250622.18506 153271094.70105        41.500          34.500
> 2020 06 25 00 12 30.0000000  0 43
C05  40716098.558 5                  40716095.676 6         0.460 5                         0.530 6 212019448.35005                 163946887.86306        34.000                          38.000
C07  39568945.287 6  39568935.553 5  39568939.618 7      -582.822 6      -473.503 5      -450.558 7 206045908.89106 167429144.32205 159327757.63507        39.000          32.750          43.000
C10  38325611.289 7  38325604.255 6  38325608.703 7       128.929 7       104.964 6        99.659 7 199571546.74707 162168201.77906 154321382.32007        42.750          36.000          45.250
C12  26245675.683 6  26245671.071 5  26245674.173 7       158.809 6       128.926 5       122.821 7 136668124.00106 111054024.39005 105680461.38907        36.250          32.000          42.500
C19  23455427.636 8  23455421.373 6                      2308.083 8      1875.431 6                 122138604.21508  99247599.17106                        48.250          41.500
C20  22219295.840 8  22219286.141 7                      -703.208 8      -571.378 7                 115701736.77508  94017107.77407                        53.250          45.750
C23  23814068.210 8                                     -2241.685 8                                 124006136.11508                                        48.500
C32  24968544.763 7  24968544.614 6                     -3181.678 7     -2585.329 6                 130017797.16807 105650125.07606                        44.000          37.500
C34  26956288.271 6  26956287.992 5                      1264.579 6      1027.306 5                 140368467.03906 114060875.91305                        37.250          30.250
C37  22279725.193 8                                       828.331 8                                 116016401.92908                                        52.500
E01  28002431.507 6  28002430.393 5  28002426.868 4  28002430.725 6  28002429.990 6     -2785.345 6     -2079.645 5     -2261.237 4     -2134.249 6     -2107.051 6 147153779.97206 109887579.51905 119442992.62404 112754213.61706 111320897.14606        37.750          32.500          27.500          40.750          40.750
E03  26680388.442 6  26680387.819 5                  26680388.241 7  26680387.187 7      2595.796 6      1938.404 5                      1988.960 7      1963.669 7 140206399.83606 104699597.32905                 107430895.81407 106065243.64307        40.750          34.250                          43.500          43.250
E05  23638158.791 8  23638157.488 7  23638152.703 6  23638158.377 8  23638157.347 8       525.560 8       392.404 7       426.512 6       402.694 8       397.560 8 124219403.31408  92761264.27107 100827395.57606  95181125.19308  93971171.80408        49.750          43.500          40.750          53.500          53.000
E09  23034171.337 7  23034170.050 6  23034166.405 6  23034170.678 8  23034169.734 8     -2041.464 7     -1524.556 6     -1657.249 6     -1564.244 8     -1544.388 8 121045430.05607  90391090.23006  98251118.90406  92749116.44908  91570102.41408        47.250          40.250          36.750          50.000          49.500
E13  27808576.738 6  27808575.849 5                  27808576.480 6  27808575.778 6      1014.886 6       757.957 5                       777.787 6       767.907 6 146135063.17806 109126833.16905                 111973620.24606 110550224.28206        36.500          31.750                          40.000          40.000
E15  27076018.463 6  27076018.158 5  27076013.144 4  27076018.957 6  27076018.127 6     -1474.486 6     -1100.904 5     -1196.996 4     -1129.948 6     -1115.510 6 142285444.16406 106252119.93605 115491412.88004 109023918.50106 107638017.79506        38.500          33.000          26.750          41.750          41.750
E24  23288055.771 7  23288065.218 6  23288043.807 6  23288066.233 8  23288065.047 8      2317.260 7      1730.349 6      1880.728 6      1775.567 8      1752.971 8 122379565.63307  91387383.94106  99334013.08206  93771401.62308  92579394.85308        46.750          39.750          36.500          49.750          49.250
E31  24615695.035 8  24615694.249 6  24615689.130 6  24615695.036 8  24615694.047 8      -527.375 8      -393.862 6      -427.989 6      -404.119 8      -398.998 8 129356380.44608  96597299.96706 104997024.98606  99117238.12308  97857263.11908        48.000          41.000          37.500          50.500          50.250
G05  21129790.409 8  21129789.976 8  21129790.643 7  21129789.970 8                     -1515.766 8     -1181.077 7     -1181.117 8                 111037824.68908  86522980.27807  86522993.27308                        49.500          53.750          46.500          53.750
G07  22060999.564 8  22060999.010 8  22060998.769 7  22060998.812 8                     -2127.307 8     -1657.668 7     -1657.641 8                 115931380.56608  90336166.80607  90336153.79408                        48.000          50.250          43.750          50.250
G08  24733264.948 5  24733264.220 4  24733269.332 5  24733268.092 4  24733263.507 5      1573.980 5      1226.444 5      1226.468 4      1175.235 5 129974194.05405 101278611.29005 101278605.27904  97058643.18205        34.250          27.250          35.500          27.250          34.250
G09  25045464.695 6  25045464.078 5  25045467.717 6  25045467.075 5  25045462.999 5     -3536.672 6     -2755.731 6     -2755.850 5     -2640.827 5 131614834.14106 102557042.25006 102557044.25405  98283818.06905        37.250          31.500          37.250          31.500          33.000
G13  21356828.962 8  21356828.404 6                  21356828.015 6                      2241.636 8                      1746.728 6                 112230924.97708                  87452679.94406                        49.500          39.750                          39.750
G15  23550921.844 6  23550921.518 4  23550921.427 6  23550921.657 4                      3436.916 6      2678.118 6      2678.115 4                 123760944.11206  96437131.89106  96437117.91504                        41.500          26.750          38.000          26.750
G18  24003473.939 6  24003473.595 4  24003474.381 6  24003473.775 4  24003473.652 5       713.835 6       556.091 6       556.237 4       532.927 5 126139120.06406  98290217.59606  98290219.57604  94194797.63005        40.500          24.000          38.250          24.000          34.000
G21  26025432.320 5  26025431.006 2                  26025431.347 2                      1724.850 5                      1344.071 2                 136764571.44205                 106569796.14102                        34.750          12.250                          12.250
G27  24723856.753 6  24723856.016 4  24723859.797 5  24723859.162 4  24723854.134 5       -33.573 6       -26.181 5       -26.162 4       -24.991 5 129924749.62106 101240076.32805 101240073.33704  97021719.04505        36.500          29.750          35.750          29.750          32.250
G28  22994649.948 7  22994649.036 4                  22994649.094 4                      3013.278 7                      2348.011 4                 120837711.72707                  94159256.77004                        42.250          26.750                          26.750
G30  20638317.159 8  20638316.220 9  20638319.400 8  20638318.874 9  20638314.226 7      -325.246 8      -253.412 8      -253.440 9      -242.945 7 108455125.54608  84510521.43408  84510513.43409  80989223.34607        51.250          57.250          50.000          57.250          46.250
R01  19410907.610 7  19410907.339 7  19410915.875 7  19410916.687 7                     -1007.969 7     -1007.986 7      -783.948 7      -784.081 7                 103762462.31707 103762458.33107  80704173.63607  80704180.64507                        46.250          45.750          44.750          44.250
R02  21448851.624 8  21448851.865 7  21448858.764 7  21448858.557 7                      3480.920 8      3480.881 7      2707.321 7      2707.312 7                 114455214.70308 114455209.69407  89020758.80107  89020764.79607                        48.250          47.500          45.000          45.250
R08  21852872.625 6  21852873.288 6  21852881.194 7  21852881.333 7                     -3610.917 6     -3610.866 6     -2808.497 7     -2808.626 7                 117021177.88206 117021176.88606  91016515.42307  91016527.42907                        40.000          39.250          43.250          43.000
R09  23667337.587 7  23667337.940 7  23667343.021 6  23667343.489 6  23667323.118 5     -4227.494 7     -4227.470 7     -3288.110 6     -3288.078 6     -3174.196 5 126382285.80407 126382270.79207  98297361.14006  98297366.12006  94893570.31205        43.250          42.000          40.000          39.000          35.250
R10  20640634.505 8  20640634.088 8                                                     -2707.553 8     -2707.559 8                                                 110026192.74908 110026211.74608                                                        49.250          48.500
R11  19839314.414 8  19839314.659 8  19839321.887 8  19839321.886 8                      1974.029 8      1974.067 8      1535.364 8      1535.267 8                 106015286.50308 106015297.50308  82456373.99808  82456375.00008                        50.250          50.000          49.250          49.250
R12  23089444.468 6  23089444.481 6  23089452.325 6  23089452.078 6                      4398.297 6      4398.244 6      3420.976 6      3420.997 6                 123339663.80706 123339664.82106  95930868.61706  95930888.62406                        41.000          40.500          38.250          37.750
R17  23937920.191 5  23937918.336 5  23937927.289 5  23937926.910 5                     -3477.474 5     -3477.554 5     -2704.356 5     -2704.651 5                 128096630.25105 128096645.25405  99630760.88205  99630754.89605                        34.500          34.000          35.000          35.250
R18  22899904.623 6  22899904.246 6  22899912.700 7  22899912.723 7                      -757.527 6      -757.541 6      -589.107 7      -589.162 7                 122241272.81106 122241268.82506  95076565.45507  95076571.45307                        40.250          39.750          43.250          43.250
R19                                  23748490.476 5                                                                      1943.715 5                                                                  98807655.13905                                                                        34.000
S23  39369078.258 6  39369051.269 5         4.197 6         2.994 5 206886357.20206 154492543.93205        40.500          32.250
S25  40391706.907 6                      -212.818 6                 212259396.35006                        38.250
S26  40931524.745 5                        76.850 5                 215096574.37505                        32.000
S36  39057656.679 6  39057630.956 5         -.128 6         -.457 5 205250648.15506 153271115.85005        41.500          34.750
