     3.04           OBSERVATION DATA    M: MIXED            RINEX VERSION / TYPE
Spider V7.11.1.104                      20260501 000545 UTC PGM / RUN BY / DATE
SNR is mapped to RINEX snr flag value [1-9]                 COMMENT
LX:     < 12dBHz -> 1; 12-17dBHz -> 2; 18-23dBHz -> 3       COMMENT
       24-29dBHz -> 4; 30-35dBHz -> 5; 36-41dBHz -> 6       COMMENT
       42-47dBHz -> 7; 48-53dBHz -> 8; >= 54dBHz -> 9       COMMENT
Product                                                     COMMENT
PASA00ESP                                                   MARKER NAME
19351S001                                                   MARKER NUMBER
GEODETIC                                                    MARKER TYPE
JZurutuza           ARA-Geolab Pasaia                       OBSERVER / AGENCY
1700316             LEICA GR30          4.83/7.900          REC # / TYPE / VERS
16073034            LEIAR20         LEIM                    ANT # / TYPE
  4644909.4225  -156645.6161  4353622.6592                  APPROX POSITION XYZ
        0.0000        0.0000        0.0000                  ANTENNA: DELTA H/E/N
G   20 C1C L1C D1C S1C C1L L1L D1L S1L C2S L2S D2S S2S C2W  SYS / # / OBS TYPES
       L2W D2W S2W C5Q L5Q D5Q S5Q                          SYS / # / OBS TYPES
R   12 C1C L1C D1C S1C C2P L2P D2P S2P C2C L2C D2C S2C      SYS / # / OBS TYPES
E   20 C1C L1C D1C S1C C5Q L5Q D5Q S5Q C6C L6C D6C S6C C7Q  SYS / # / OBS TYPES
       L7Q D7Q S7Q C8Q L8Q D8Q S8Q                          SYS / # / OBS TYPES
C   24 C1P L1P D1P S1P C2I L2I D2I S2I C5P L5P D5P S5P C6I  SYS / # / OBS TYPES
       L6I D6I S6I C7D L7D D7D S7D C7I L7I D7I S7I          SYS / # / OBS TYPES
S    4 C1C L1C D1C S1C                                      SYS / # / OBS TYPES
DBHZ                                                        SIGNAL STRENGTH UNIT
    30.000                                                  INTERVAL
  2026    04    30    10    00    0.0000000     GPS         TIME OF FIRST OBS
  2026    04    30    11    59   30.0000000     GPS         TIME OF LAST OBS
     0                                                      RCV CLOCK OFFS APPL
G L1C                                                       SYS / PHASE SHIFT
G L1L  0.25000                                              SYS / PHASE SHIFT
G L2S -0.25000                                              SYS / PHASE SHIFT
G L2W                                                       SYS / PHASE SHIFT
G L5Q -0.25000                                              SYS / PHASE SHIFT
R L1C                                                       SYS / PHASE SHIFT
R L2P  0.25000                                              SYS / PHASE SHIFT
R L2C                                                       SYS / PHASE SHIFT
E L1C  0.50000                                              SYS / PHASE SHIFT
E L5Q -0.25000                                              SYS / PHASE SHIFT
E L6C -0.50000                                              SYS / PHASE SHIFT
E L7Q -0.25000                                              SYS / PHASE SHIFT
E L8Q -0.25000                                              SYS / PHASE SHIFT
C L1P  0.25000                                              SYS / PHASE SHIFT
C L2I                                                       SYS / PHASE SHIFT
C L5P  0.25000                                              SYS / PHASE SHIFT
C L6I                                                       SYS / PHASE SHIFT
C L7D                                                       SYS / PHASE SHIFT
C L7I                                                       SYS / PHASE SHIFT
S L1C                                                       SYS / PHASE SHIFT
 24 R01  1 R02 -4 R03  5 R04  6 R05  1 R06 -4 R07  5 R08  6 GLONASS SLOT / FRQ #
    R09 -2 R10 -7 R11  0 R12 -1 R13 -2 R14 -7 R15  0 R16 -1 GLONASS SLOT / FRQ #
    R17  4 R18 -3 R19  3 R20  2 R21  4 R22 -3 R23  3 R24  2 GLONASS SLOT / FRQ #
 C1C  -71.940 C1P  -71.940 C2C  -71.940 C2P  -71.940        GLONASS COD/PHS/BIS
    18    18  1929     7                                    LEAP SECONDS
                                                            END OF HEADER
> 2026 04 30 10 00  0.0000000  0 36
G02  24507086.760   128785605.83306      3437.766          37.600                                                                                                                                    24507089.520   100352441.30405      2678.783          34.550
G07  25189543.480   132371946.89706      1911.861          38.750                                                                    25189545.340   103146978.09806      1489.759          37.300    25189545.020   103146976.08806      1489.760          39.000
G08  22723947.220   119415166.67807      2763.558          43.950                                                                    22723951.520    93050811.60507      2153.422          43.550    22723950.880    93050808.60007      2153.423          44.350    22723951.020    89173704.20208      2063.692          49.850
G10  23174018.140   121780347.83707      2885.354          46.000                                                                    23174023.460    94893826.89807      2248.331          45.550    23174023.680    94893818.89507      2248.331          46.400    23174023.180    90939920.62208      2154.706          50.400
G16  20043288.260   105328213.58608      -411.023          51.700                                                                                                                                    20043287.440    82073942.96108      -320.278          51.850
G18  22271284.440   117036415.64407     -2617.833          47.900    22271284.180   117036404.64807     -2617.873          47.900    22271285.940    91197226.31808     -2039.872          49.950    22271285.740    91197221.31707     -2039.872          47.250    22271290.900    87397361.25008     -1954.826          53.150
G23  21942922.260   115310912.36708      1166.645          48.550    21942922.120   115310916.35808      1166.703          48.600    21942924.120    89852696.96808       909.074          49.850    21942923.960    89852688.96907       909.075          46.100    21942929.200    86108884.66708       871.233          52.950
G26  21436181.840   112647890.42508     -2487.457          51.200                                                                    21436185.780    87777590.79508     -1938.280          50.800    21436185.680    87777589.79008     -1938.281          51.350    21436185.360    84120205.81709     -1857.527          55.800
G27  20634300.480   108434023.15808      1444.838          52.700                                                                    20634302.740    84494077.26308      1125.850          52.250    20634302.380    84494075.26108      1125.849          52.600    20634302.940    80973513.43309      1078.950          56.850
R07  23490515.100   125746607.33506      1007.643          39.750    23490519.200    97802926.16206       783.723          39.350    23490519.440    97802917.17006       783.724          39.050
R08  24147525.200   129308920.95505      3271.237          35.800    24147533.020   100573639.09806      2544.296          36.350    24147532.920   100573639.08405      2544.294          35.900
R13  20589147.500   109945023.95307     -3309.109          44.950
R14  19687503.060   104945503.66908      1228.868          52.900    19687507.040    81624301.55308       955.786          50.600    19687507.120    81624313.55708       955.786          51.450
R15  23206707.820   124009606.23906      4072.305          41.150    23206712.080    96451935.13506      3167.349          41.750    23206712.360    96451939.13106      3167.348          41.550
R17  23606599.640   126323728.54906      3469.022          41.550    23606604.780    98251770.35006      2698.133          41.300    23606604.980    98251777.36506      2698.135          41.950
R23  20918475.320   111899750.22308     -2908.600          48.550
R24  19876585.000   106289092.79708      1280.253          53.400    19876587.220    82669334.68108       995.753          49.800    19876587.180    82669326.68908       995.753          50.250
E02  25392049.740   133436134.65048      2235.216          48.550    25392055.240    99643901.18708      1669.071          50.700    25392052.060   108308570.81808      1814.197          49.100    25392052.340   102243293.94308      1712.609          49.900    25392053.080   100943585.86508      1690.815          53.750
E10  24381799.620   128127261.78548     -1470.463          53.900    24381804.640    95679493.53509     -1098.028          54.650    24381802.520   103999423.42009     -1193.544          55.300    24381802.040    98175467.11609     -1126.712          54.550    24381802.520    96927475.12709     -1112.377          58.100
E11  21829631.000   114715529.45648        62.792          51.500    21829632.700    85664228.07008        46.816          53.000    21829628.880    93113266.01608        50.895          53.600    21829629.780    87898930.71408        48.067          52.400    21829630.660    86781573.69009        47.457          56.250
E12  25839552.980   135787775.93247     -2426.947          42.800    25839556.740   101399985.98207     -1812.268          45.750    25839552.620   110217357.69607     -1969.850          45.750    25839553.760   104045190.84607     -1859.601          44.500    25839554.700   102722585.21408     -1835.959          48.700
E16  25455536.020   133769738.50648     -2328.004          48.700    25455542.740    99893015.77508     -1738.467          50.050    25455537.920   108579344.13408     -1889.629          49.450    25455540.380   102498908.80308     -1783.809          50.150    25455540.660   101195949.09008     -1761.152          53.600
E25  23241346.360   122134114.90249      -211.097          55.000    23241351.680    91204091.00009      -157.672          55.600    23241346.720    99134853.12009      -171.361          57.100    23241348.960    93583313.49009      -161.800          55.850    23241349.780    92393686.04309      -159.726          59.200
E36  25335185.860   133137349.33848      2465.008          49.050    25335194.640    99420803.19808      1840.757          50.850    25335188.800   108066061.34508      2000.812          50.700    25335191.360   102014374.06808      1888.788          50.000    25335192.340   100717589.43109      1864.779          54.000
C06  39894236.780   209645634.87006      -615.109          37.900    39894236.380   207739775.06906      -609.462          39.750    39894242.140   156553588.70407      -459.178          43.650    39894238.820   168805592.08506      -494.949          40.600    39894238.500   160637576.46806      -471.008          39.700
C09                                                                  38866464.720   202387926.77407       178.596          44.100                                                                    38866468.300   164456821.25806       145.121          41.550                                                                    38866470.320   156499246.91607       138.184          44.200
C19  26122997.260   137277303.15706       808.908          36.650    26122999.120   136029338.46306       801.117          38.700    26123004.840   102512328.42407       603.857          43.300    26122999.760   110535009.41006       651.157          39.950    26123001.980   105186515.45106       619.731          40.350
C22  25906234.120   136138192.86806      2671.537          37.500    25906234.220   134900582.62906      2647.661          40.200    25906240.920   101661694.70807      1995.281          42.200    25906235.300   109617790.74006      2151.521          37.600    25906238.300   104313706.42606      2047.284          40.700
C24  22617852.620   118857615.00108     -1818.361          51.350    22617852.520   117777085.74208     -1801.850          52.600    22617853.800    88757309.38409     -1357.874          55.100    22617852.700    95703531.09908     -1464.161          51.150    22617850.860    91072707.15408     -1393.296          50.750
C25  23383535.140   122881319.33807      1578.677          45.550    23383535.480   121764220.11107      1564.411          47.550    23383538.060    91762047.34208      1179.014          49.750    23383536.560    98943411.99407      1271.210          45.900    23383535.280    94155827.89307      1209.769          46.200
C26  25426959.340   133619501.14106     -3436.675          40.600    25426959.860   132404796.24307     -3405.069          42.350    25426968.180    99780825.12807     -2566.031          44.700    25426965.260   107589756.07507     -2766.847          42.050    25426965.560   102383773.34506     -2633.091          41.600
C31  21500802.280   112987415.62108      -824.541          52.350    21500803.480   111960362.24409      -817.129          54.250    21500806.700    84373828.50809      -615.791          56.000    21500804.520    90976977.92608      -663.947          52.900    21500804.280    86574867.33108      -631.818          52.750
C34  22678376.100   119175726.05808      1852.932          48.550    22678376.200   118092317.42208      1835.948          49.800    22678380.900    88994921.12708      1383.597          51.650    22678378.380    95959715.53907      1491.831          47.000    22678378.360    91316509.13808      1419.675          48.850
C35  24713758.300   129871709.44606     -2622.987          41.900    24713758.800   128691007.38007     -2599.020          44.800    24713764.980    96982086.74607     -1958.634          45.800    24713761.900   104571987.94007     -2111.819          43.350    24713762.260    99512051.65307     -2009.789          42.650
S21  37764088.100                           5.695          46.300
S36  37791811.560   198597298.89207         1.321          47.850
> 2026 04 30 10 00 30.0000000  0 36
G02  24487475.900   128682551.58106      3432.136          36.000                                                                                                                                    24487478.940   100272139.35305      2674.398          33.800
G07  25178666.080   132314786.89106      1898.685          39.050                                                                    25178668.100   103102437.78506      1479.494          39.550    25178667.880   103102435.78606      1479.495          39.800
G08  22708182.700   119332323.44507      2759.134          43.300                                                                    22708186.900    92986258.47607      2149.979          44.250    22708186.240    92986255.46207      2149.976          43.250    22708186.460    89111840.80008      2060.312          50.250
G10  23157570.120   121693912.89007      2876.562          46.000                                                                    23157575.380    94826475.08407      2241.480          45.800    23157575.620    94826467.07607      2241.480          46.100    23157575.140    90875375.13908      2148.110          50.900
G16  20045685.060   105340808.84208      -428.942          51.450                                                                                                                                    20045684.260    82083757.42908      -334.241          51.550
G18  22286253.540   117115078.11508     -2626.604          48.100    22286253.240   117115067.11907     -2626.667          47.850    22286254.920    91258521.68908     -2046.707          50.150    22286254.720    91258516.69107     -2046.707          46.000    22286259.860    87456102.63708     -1961.388          53.100
G23  21936312.800   115276179.87708      1148.514          48.200    21936312.680   115276183.87408      1148.619          48.100    21936314.740    89825632.70708       894.946          49.750    21936314.560    89825624.71207       894.947          46.600    21936319.980    86082948.09508       857.715          53.250
G26  21450418.540   112722704.54708     -2500.271          51.100                                                                    21450422.540    87835887.44008     -1948.265          50.850    21450422.420    87835886.43908     -1948.266          51.000    21450422.120    84176073.42709     -1867.166          55.950
G27  20626080.620   108390827.79108      1434.514          52.600                                                                    20626082.920    84460418.54108      1117.804          52.350    20626082.560    84460416.54108      1117.804          52.600    20626083.140    80941257.15809      1071.296          57.000
R07  23484933.720   125716730.20706       984.282          38.900    23484937.600    97779688.42006       765.555          40.300    23484937.760    97779679.44206       765.558          40.750
R08  24129221.580   129210905.37305      3263.490          35.550    24129229.260   100497405.01505      2538.277          31.300    24129229.060   100497404.98204      2538.273          28.850
R13  20607785.960   110044552.27407     -3326.392          44.750
R14  19680655.840   104909004.12308      1204.251          52.950    19680659.860    81595913.00508       936.640          50.750    19680659.900    81595925.00808       936.639          51.550
R15  23183863.960   123887535.98406      4065.258          41.350    23183868.080    96356991.64706      3161.868          41.550    23183868.220    96356995.64806      3161.869          41.250
R17  23587166.900   126219740.45707      3463.332          42.150    23587172.240    98170890.75706      2693.704          41.200    23587172.360    98170897.75907      2693.704          42.100
R23  20934807.200   111987114.28907     -2915.811          47.950
R24  19869446.100   106250917.93608      1264.420          53.050    19869448.280    82639643.14708       983.438          49.900    19869448.260    82639635.15108       983.439          50.450
E02  25379302.480   133369147.47648      2230.538          48.300    25379307.980    99593878.31608      1665.621          50.800    25379305.020   108254198.12208      1810.501          49.200    25379305.000   102191966.12408      1709.063          49.900    25379305.800   100892910.51408      1687.381          53.600
E10  24390221.640   128171519.31348     -1480.259          53.750    24390226.460    95712542.96609     -1105.380          54.750    24390224.520   104035346.71609     -1201.521          55.150    24390223.900    98209378.70609     -1134.266          54.400    24390224.480    96960955.63809     -1119.812          57.800
E11  21829308.720   114713835.80848        50.118          51.450    21829310.360    85662963.32708        37.391          53.200    21829306.640    93111891.29508        40.628          53.400    21829307.520    87897632.98408        38.330          52.350    21829308.380    86780292.45409        37.868          56.000
E12  25853423.000   135860663.40847     -2432.545          42.050    25853426.740   101454414.87307     -1816.384          45.600    25853422.580   110276519.56807     -1974.450          45.300    25853423.840   104101039.64507     -1863.877          44.800    25853424.860   102777724.06008     -1840.186          48.550
E16  25468845.080   133839677.80848     -2334.852          48.900    25468851.800    99945243.04408     -1743.570          50.200    25468846.880   108636112.95308     -1895.134          49.200    25468849.540   102552498.53308     -1789.019          50.150    25468849.740   101248857.58608     -1766.301          53.350
E25  23242581.200   122140603.99349      -221.684          54.900    23242586.520    91208936.72309      -165.553          55.800    23242581.600    99140120.21809      -179.958          56.950    23242583.780    93588285.62709      -169.862          55.850    23242584.620    92398594.97309      -167.715          59.000
E36  25321135.740   133063515.75648      2456.979          48.900    25321144.560    99365667.81008      1834.733          50.950    25321138.780   108006131.53608      1994.297          50.850    25321141.180   101957800.34508      1882.646          50.100    25321142.140   100661734.87408      1858.700          53.750
C06  39897761.160   209664155.57806      -619.562          38.050    39897760.940   207758127.43606      -614.585          39.400    39897766.300   156567419.10507      -463.152          43.900    39897763.420   168820504.85706      -499.335          40.150    39897762.640   160651767.66806      -475.230          39.600
C09                                                                  38865453.260   202382659.91707       172.368          44.250                                                                    38865457.000   164452541.51606       139.989          41.700                                                                    38865458.760   156495174.26207       133.216          44.050
C19  26118423.160   137253266.46406       793.565          37.000    26118425.020   136005520.26206       786.313          40.000    26118430.920   102494378.97707       592.492          43.850    26118425.480   110515655.20906       639.016          39.450    26118427.980   105168097.75206       607.988          40.700
C22  25890992.100   136058097.16306      2667.616          37.450    25890991.940   134821215.07906      2643.154          40.150    25890999.200   101601883.27207      1991.999          42.150    25890993.320   109553298.32606      2147.712          37.000    25890996.860   104252334.67606      2043.845          40.400
C24  22628272.500   118912371.59008     -1832.269          51.050    22628272.440   117831344.54208     -1815.702          52.950    22628273.640    88798198.98009     -1368.282          55.150    22628272.640    95747620.76308     -1475.356          51.100    22628270.760    91114663.43908     -1403.939          50.650
C25  23374562.280   122834166.71607      1564.561          46.150    23374562.680   121717496.14707      1550.282          47.650    23374565.240    91726835.97108      1168.357          49.900    23374563.680    98905444.93407      1259.798          45.900    23374562.460    94119697.96907      1198.787          46.100
C26  25446583.020   133722623.57106     -3438.704          39.350    25446583.380   132506981.22806     -3407.631          41.900    25446592.000    99857831.86507     -2567.954          43.750    25446589.300   107672789.51706     -2768.864          41.400    25446589.360   102462788.98206     -2634.924          41.350
C31  21505532.940   113012275.57808      -833.004          52.400    21505534.140   111984996.18909      -825.357          54.600    21505537.420    84392392.73009      -621.997          56.250    21505535.160    90996995.00708      -670.696          52.900    21505534.900    86593915.84308      -638.268          52.700
C34  22667819.100   119120248.52008      1845.445          48.700    22667819.160   118037344.21808      1828.658          50.000    22667823.840    88953493.11308      1378.133          51.800    22667821.300    95915045.32207      1485.980          47.100    22667821.400    91274000.39908      1414.071          48.950
C35  24728736.480   129950419.64807     -2624.736          42.450    24728737.100   128769002.00907     -2600.807          44.700    24728742.920    97040863.71807     -1960.009          45.950    24728739.980   104635364.89507     -2113.338          42.850    24728740.300    99572361.94707     -2011.095          42.400
S21  37764054.700                           5.768          46.150
S36  37791800.500   198597239.92507         1.837          47.800
> 2026 04 30 10 01  0.0000000  0 36
G02  24467896.260   128579660.13406      3427.584          37.550                                                                                                                                    24467899.380   100191964.22206      2670.846          36.750
G07  25167864.820   132258027.18406      1885.246          37.000                                                                    25167867.160   103058209.48306      1469.026          40.600    25167866.960   103058207.47206      1469.024          37.750
G08  22692445.060   119249622.07507      2754.266          43.050                                                                    22692449.200    92921815.88407      2146.184          44.250    22692448.600    92921812.87907      2146.183          43.200    22692449.120    89050083.33408      2056.903          50.650
G10  23141173.300   121607747.47907      2867.741          45.900                                                                    23141178.620    94759333.28707      2234.606          46.150    23141178.800    94759325.28607      2234.607          45.750    23141178.280    90811030.95008      2141.523          50.600
G16  20048185.280   105353947.58108      -446.872          51.600                                                                                                                                    20048184.480    82093995.39008      -348.213          51.550
G18  22301273.320   117194007.26507     -2635.421          47.550    22301273.040   117193996.25107     -2635.180          47.600    22301274.620    91320024.87208     -2053.576          49.600    22301274.440    91320019.87007     -2053.577          46.550    22301279.460    87515043.17208     -1967.883          53.200
G23  21929807.640   115241995.30908      1130.641          48.100    21929807.460   115241999.31408      1130.510          48.000    21929809.700    89798995.41208       881.020          49.750    21929809.500    89798987.41107       881.020          46.500    21929814.960    86057420.69208       844.166          53.400
G26  21464729.440   112797908.55008     -2513.173          50.850                                                                    21464733.420    87894487.89808     -1958.317          50.850    21464733.320    87894486.89308     -1958.318          50.850    21464733.040    84232232.17209     -1876.697          56.000
G27  20617920.060   108347943.96108      1424.291          52.650                                                                    20617922.420    84427002.57408      1109.837          52.550    20617922.040    84427000.57408      1109.837          52.550    20617922.640    80909233.52109      1063.654          57.100
R07  23479482.120   125687547.61506       961.307          39.200    23479486.660    97756990.89206       747.683          40.350    23479486.680    97756981.89706       747.685          41.500
R08  24110964.040   129113137.89505      3255.078          35.900    24110971.740   100421363.73305      2531.729          35.850    24110971.660   100421363.72706      2531.725          36.350
R13  20626523.040   110144606.70107     -3343.790          44.700
R14  19673948.600   104873250.32708      1179.498          52.950    19673952.540    81568104.48508       917.388          50.150    19673952.580    81568116.49008       917.388          50.800
R15  23161061.140   123765684.95606      4057.926          41.600    23161065.220    96262218.68306      3156.167          40.800    23161065.320    96262222.68506      3156.167          40.950
R17  23567769.460   126115942.35406      3456.776          40.600    23567775.200    98090158.95706      2688.608          40.850    23567775.240    98090165.96206      2688.608          41.350
R23  20951180.780   112074701.14207     -2923.123          47.400
R24  19862396.820   106213222.23308      1248.639          53.200    19862398.920    82610324.27008       971.164          49.300    19862398.920    82610316.27308       971.164          50.000
E02  25366582.380   133302303.08648      2225.874          48.400    25366587.840    99543962.05908      1662.186          50.850    25366585.060   108199941.31808      1806.735          49.800    25366584.960   102140747.69908      1705.567          50.000    25366585.720   100842343.17708      1683.897          53.700
E10  24398700.560   128216076.05748     -1490.072          53.750    24398705.240    95745815.83209     -1112.726          54.700    24398703.420   104071512.88809     -1209.486          55.250    24398702.740    98243519.56409     -1141.741          54.650    24398703.380    96994662.49709     -1127.226          57.950
E11  21829058.840   114712522.61948        37.532          51.450    21829060.440    85661982.70108        27.979          53.300    21829056.780    93110825.40008        30.426          53.650    21829057.620    87896626.77608        28.732          52.600    21829058.500    86779299.03709        28.347          56.200
E12  25867325.360   135933721.09747     -2437.850          42.400    25867329.080   101508970.88107     -1820.620          45.700    25867325.080   110335819.59107     -1978.855          45.450    25867326.400   104157018.84707     -1868.039          44.950    25867327.360   102832991.66408     -1844.323          48.650
E16  25482193.860   133909825.72648     -2341.641          48.700    25482200.680    99997626.09208     -1748.581          50.200    25482195.600   108693051.10908     -1900.668          49.550    25482198.340   102606248.12008     -1794.238          50.150    25482198.560   101301923.90508     -1771.407          53.400
E25  23243877.300   122147414.98149      -232.288          54.900    23243882.680    91214022.83109      -173.479          55.800    23243877.740    99145648.60509      -188.519          57.150    23243879.880    93593504.41409      -177.968          56.000    23243880.720    92403747.42109      -175.721          59.100
E36  25307132.300   132989927.02448      2448.938          48.800    25307140.940    99310715.24708      1828.798          50.900    25307135.280   107946400.46608      1987.795          51.000    25307137.700   101901414.23308      1876.481          50.300    25307138.560   100606065.53808      1852.615          53.850
C06  39901316.340   209682838.18506      -625.182          38.100    39901316.020   207776640.18306      -619.705          39.450    39901321.520   156581370.33407      -466.865          44.000    39901318.400   168835547.95306      -503.545          40.000    39901317.700   160666082.84206      -479.053          39.600
C09                                                                  38864478.660   202377584.17107       166.186          44.550                                                                    38864482.420   164448417.05807       134.943          42.000                                                                    38864483.860   156491249.35207       128.544          43.950
C19  26113936.800   137229690.35706       777.899          37.750    26113938.660   135982158.45706       771.317          39.600    26113944.540   102476773.43707       581.277          44.100    26113938.780   110496671.84206       626.703          39.950    26113941.860   105150032.95206       596.303          40.500
C22  25875776.560   135978140.82906      2662.545          36.100    25875776.420   134741985.61306      2638.847          40.150    25875783.940   101542175.89107      1988.643          44.200    25875777.780   109488918.05206      2144.250          37.950    25875781.600   104191069.68106      2040.518          40.050
C24  22638772.700   118967550.34008     -1846.197          50.900    22638772.720   117886021.66108     -1829.492          52.950    22638773.740    88839403.82609     -1378.671          55.200    22638772.880    95792050.36008     -1486.557          51.550    22638770.960    91156943.20008     -1414.617          50.700
C25  23365672.380   122787449.88207      1550.033          45.800    23365672.920   121671204.00608      1535.773          48.200    23365675.320    91691950.02908      1157.436          50.000    23365673.740    98867828.78407      1248.006          46.450    23365672.560    94083901.94707      1187.730          46.250
C26  25466221.620   133825824.95006     -3441.515          38.650    25466222.060   132609244.39706     -3410.159          41.750    25466230.500    99934897.52807     -2569.656          43.100    25466228.300   107755886.49906     -2770.863          41.150    25466228.200   102541865.05906     -2636.769          41.300
C31  21510312.180   113037390.58008      -841.318          52.300    21510313.460   112009882.87809      -833.687          54.750    21510316.740    84411147.42409      -628.220          56.350    21510314.420    91017217.46908      -677.407          53.400    21510314.100    86613159.79008      -644.605          52.850
C34  22657305.040   119064996.52808      1837.997          48.600    22657305.060   117982594.51608      1821.359          50.300    22657309.660    88912233.53408      1372.615          51.850    22657307.160    95870556.71307      1480.013          47.700    22657307.360    91231664.47708      1408.431          49.150
C35  24743725.460   130029185.73507     -2626.359          42.700    24743725.920   128847052.05607     -2602.426          45.100    24743731.500    97099682.42907     -1961.276          45.650    24743728.520   104698786.85907     -2114.658          43.100    24743728.980    99632715.07407     -2012.443          42.700
S21  37764020.840                           6.242          46.150
S36  37791789.160   198597180.64807         1.839          47.800
> 2026 04 30 10 01 30.0000000  0 36
G02  24448348.520   128476936.41305      3421.614          35.850                                                                                                                                    24448352.060   100111919.78105      2666.193          35.000
G07  25157140.820   132201672.75706      1871.606          38.700                                                                    25157143.440   103014296.97306      1458.391          39.000    25157143.080   103014294.97906      1458.394          39.050
G08  22676735.080   119167066.52207      2749.835          42.550                                                                    22676739.460    92857486.92507      2142.730          44.750    22676738.860    92857483.92107      2142.730          42.550    22676739.440    88988434.77408      2053.344          50.750
G10  23124828.980   121521857.82107      2858.511          46.500                                                                    23124834.280    94692406.36407      2227.414          46.000    23124834.460    94692398.36307      2227.414          46.550    23124833.980    90746892.66808      2134.641          50.900
G16  20050789.420   105367632.24508      -465.108          51.700                                                                                                                                    20050788.620    82104658.74408      -362.423          51.650
G18  22316343.960   117273204.18707     -2644.106          47.650    22316343.740   117273193.18607     -2644.101          47.300    22316345.260    91381736.69708     -2060.344          49.550    22316345.100    91381731.69407     -2060.345          46.050    22316350.220    87574183.66108     -1974.490          53.400
G23  21923407.660   115208363.50808      1112.002          48.400    21923407.480   115208367.50708      1111.916          48.350    21923409.740    89772788.83408       866.495          50.100    21923409.560    89772780.83507       866.495          46.700    21923415.120    86032306.05008       830.457          53.600
G26  21479114.800   112873503.98508     -2526.130          51.000                                                                    21479118.780    87953393.35808     -1968.416          51.150    21479118.680    87953392.35508     -1968.416          51.000    21479118.400    84288683.22909     -1886.382          56.100
G27  20609819.540   108305375.53308      1413.804          52.700                                                                    20609821.940    84393832.37308      1101.666          52.650    20609821.580    84393830.37308      1101.666          52.750    20609822.160    80877445.41309      1055.824          57.250
R07  23474161.320   125659065.21506       938.020          40.200    23474166.120    97734837.96506       729.571          39.600    23474165.980    97734828.96706       729.571          40.350
R08  24092754.160   129015626.63806      3246.312          38.650    24092762.000   100345521.77106      2524.915          40.000    24092761.940   100345521.77706      2524.915          39.950
R13  20645358.740   110245187.03907     -3361.215          45.350
R14  19667382.220   104838247.55208      1154.418          53.350    19667386.040    81540880.09408       897.880          50.250    19667386.100    81540892.09708       897.880          50.950
R15  23138300.700   123644060.57007      4050.711          42.950    23138304.720    96167621.96406      3150.555          41.850    23138304.840    96167625.95707      3150.555          42.050
R17  23548408.640   126012339.01407      3450.425          42.300    23548414.420    98009578.60306      2683.665          40.350    23548414.500    98009585.59506      2683.663          41.100
R23  20967596.260   112162512.07508     -2930.491          48.450
R24  19855437.720   106176008.57008      1232.609          53.850    19855439.800    82581380.32708       958.697          49.650    19855439.780    82581372.33408       958.697          50.250
E02  25353890.340   133235606.07048      2221.050          48.350    25353895.720    99494155.86208      1658.498          50.900    25353893.160   108145804.14108      1802.762          49.850    25353892.860   102089642.20808      1701.846          50.050    25353893.700   100791887.33408      1680.158          53.350
E10  24407236.720   128260933.80748     -1500.009          53.700    24407241.320    95779313.48109     -1120.165          54.800    24407239.480   104107923.38009     -1217.567          55.200    24407238.860    98277891.06609     -1149.367          54.850    24407239.560    97028597.07209     -1134.764          57.750
E11  21828881.860   114711592.52048        24.688          51.400    21828883.460    85661288.14108        18.458          53.500    21828879.780    93110070.44308        20.064          53.800    21828880.580    87895914.09308        18.962          52.800    21828881.500    86778595.41309        18.728          56.050
E12  25881260.360   136006950.70247     -2443.553          42.450    25881264.180   101563655.23407     -1824.707          45.750    25881260.160   110395259.13607     -1983.358          45.750    25881261.820   104213129.75407     -1872.277          45.450    25881262.520   102888389.28608     -1848.415          48.450
E16  25495582.860   133980184.97548     -2348.649          48.550    25495589.740   100050166.95508     -1753.750          50.100    25495584.580   108750160.78908     -1906.301          49.500    25495587.360   102660159.62108     -1799.530          50.500    25495587.580   101355150.09008     -1776.676          53.200
E25  23245235.360   122154551.70349      -243.075          55.000    23245240.840    91219352.17909      -181.529          56.000    23245235.860    99151441.38609      -197.343          57.300    23245237.980    93598972.79509      -186.266          56.200    23245238.800    92409146.28309      -183.895          58.950
E36  25293176.260   132916587.30348      2440.671          48.850    25293184.640    99255948.64008      1822.605          50.900    25293179.140   107886871.52008      1981.108          50.900    25293181.620   101845218.92008      1870.199          50.700    25293182.380   100550584.57608      1846.411          53.700
C06  39904902.920   209701685.42506      -630.887          38.300    39904902.560   207795316.06906      -625.268          40.000    39904908.020   156595444.51907      -470.895          44.000    39904904.620   168850723.60206      -507.870          39.900    39904904.140   160680524.19006      -483.288          39.700
C09                                                                  38863541.440   202372702.70407       159.655          44.650                                                                    38863545.100   164444450.45506       129.708          41.700                                                                    38863546.300   156487474.68207       123.545          44.200
C19  26109539.200   137206579.18706       762.946          37.250    26109540.520   135959257.41406       755.739          39.550    26109546.600   102459515.16807       569.662          44.550    26109540.960   110478062.90106       614.150          40.150    26109544.000   105132324.45206       584.652          41.050
C22  25860588.340   135898329.59906      2657.884          36.950    25860588.520   134662900.00506      2633.862          37.700    25860596.440   101482576.99407      1984.986          42.800    25860589.800   109424654.75006      2140.203          38.350    25860593.700   104129915.91806      2036.811          40.350
C24  22649353.580   119023153.04808     -1860.276          51.150    22649353.620   117941118.88508     -1843.431          52.750    22649354.580    88880925.26009     -1389.157          55.550    22649353.780    95836821.31808     -1497.872          51.300    22649351.800    91199547.81208     -1425.405          50.800
C25  23356866.300   122741173.53007      1535.292          45.700    23356867.000   121625348.34208      1521.398          48.350    23356869.280    91657393.01708      1146.569          50.250    23356867.660    98830567.30907      1236.238          46.250    23356866.540    94048443.45307      1176.478          46.650
C26  25485875.620   133929106.35606     -3443.900          38.800    25485876.100   132711586.85207     -3412.386          42.100    25485884.460   100012022.97807     -2571.741          44.300    25485882.400   107839047.93906     -2772.968          41.600    25485882.300   102621002.50006     -2638.779          41.300
C31  21515140.340   113062763.04508      -849.767          52.200    21515141.660   112035024.68109      -842.082          54.300    21515145.100    84430094.37509      -634.573          56.600    21515142.740    91037647.22708      -684.232          53.150    21515142.380    86632601.01108      -651.109          53.150
C34  22646834.520   119009973.45308      1830.469          48.750    22646834.460   117928071.65708      1813.778          50.300    22646839.040    88871144.89808      1366.914          52.150    22646836.660    95826252.43807      1473.845          47.700    22646836.820    91189503.96308      1402.668          49.400
C35  24758725.440   130108010.19807     -2628.305          42.700    24758725.860   128925159.92307     -2604.341          44.650    24758730.980    97158544.73107     -1962.577          45.650    24758728.520   104762255.80507     -2116.048          43.300    24758728.960    99693112.93407     -2013.886          42.650
S21  37763987.160                           5.935          46.100
S36  37791778.320   198597121.74207         2.207          47.800
> 2026 04 30 10 02  0.0000000  0 36
G02  24428832.120   128374378.39505      3415.713          35.450                                                                                                                                    24428835.920   100032004.54405      2661.599          35.650
G07  25146493.860   132145722.14206      1858.505          39.250                                                                    25146496.200   102970699.02506      1448.185          38.200    25146495.920   102970697.02306      1448.185          39.750
G08  22661052.420   119084654.43607      2745.052          42.950                                                                    22661057.000    92793269.75807      2139.001          45.350    22661056.400    92793266.76307      2139.002          42.850    22661056.940    88926893.33608      2049.835          50.700
G10  23108537.100   121436243.48707      2849.616          46.650                                                                    23108542.320    94625693.97907      2220.481          45.700    23108542.480    94625685.98007      2220.482          47.000    23108541.960    90682959.99408      2127.877          50.900
G16  20053496.940   105381860.25108      -483.032          51.650                                                                                                                                    20053496.140    82115745.47708      -376.390          51.650
G18  22331464.500   117352663.49707     -2652.632          47.350    22331464.380   117352652.50607     -2652.680          47.300    22331465.820    91443652.98608     -2066.987          49.000    22331465.620    91443647.98607     -2066.987          46.100    22331470.960    87633520.09008     -1980.900          53.300
G23  21917112.680   115175282.78608      1093.780          48.800    21917112.460   115175286.78808      1093.738          48.600    21917114.700    89747011.66908       852.297          49.900    21917114.500    89747003.66807       852.297          46.250    21917119.980    86007602.94208       816.780          53.350
G26  21493573.780   112949486.01508     -2538.891          51.150                                                                    21493577.840    88012600.05508     -1978.358          50.900    21493577.700    88012599.05608     -1978.358          50.900    21493577.380    84345422.97009     -1895.950          56.000
G27  20601778.560   108263119.96608      1403.657          52.650                                                                    20601780.980    84360905.96308      1093.760          52.450    20601780.640    84360903.96508      1093.760          52.550    20601781.160    80845890.93509      1048.160          57.150
R07  23468971.100   125631281.65506       914.796          40.650    23468975.780    97713228.59806       711.511          40.350    23468975.720    97713219.60006       711.513          41.300
R08  24074592.360   128918372.44306      3237.730          38.800    24074600.160   100269879.75506      2518.240          39.550    24074600.060   100269879.76506      2518.240          40.250
R13  20664291.620   110346286.74807     -3378.347          44.900
R14  19660956.420   104803994.63808      1129.471          53.050    19660960.320    81514238.92208       878.477          50.300    19660960.380    81514250.93208       878.478          51.150
R15  23115582.740   123522663.21707      4042.972          42.950    23115586.760    96073201.84806      3144.534          41.150    23115586.920    96073205.84107      3144.533          42.250
R17  23529083.800   125908928.06306      3444.216          40.300    23529089.800    97929147.91506      2678.838          41.200    23529089.900    97929154.91107      2678.837          42.000
R23  20984052.280   112250540.65107     -2937.531          47.450
R24  19848568.080   106139273.40308      1216.849          53.600    19848570.220    82552808.54408       946.438          49.750    19848570.160    82552800.55008       946.439          50.350
E02  25341226.020   133169054.58548      2216.266          48.250    25341231.260    99444458.33208      1654.987          50.700    25341228.820   108091785.08908      1798.905          49.750    25341228.400   102038648.22508      1698.158          49.750    25341229.400   100741541.57708      1676.538          53.550
E10  24415829.260   128306087.92048     -1509.706          53.600    24415833.820    95813032.42609     -1127.393          54.700    24415831.820   104144574.41809     -1225.401          54.800    24415831.420    98312489.64209     -1156.813          54.600    24415832.120    97062755.83409     -1142.100          57.950
E11  21828777.020   114711041.69048        12.203          51.350    21828778.720    85660876.80608         9.154          53.450    21828774.940    93109623.34408         9.944          53.600    21828775.780    87895492.03408         9.351          52.700    21828776.700    86778178.71609         9.278          56.400
E12  25895227.400   136080347.23647     -2448.926          42.850    25895230.920   101618464.27107     -1828.773          45.600    25895227.280   110454834.19507     -1987.831          45.300    25895228.860   104269368.59507     -1876.486          45.000    25895229.440   102943913.23108     -1852.633          48.700
E16  25509011.340   134050751.72848     -2355.381          48.100    25509018.300   100102862.78108     -1758.876          50.150    25509013.000   108807438.90608     -1911.841          48.950    25509016.000   102714230.12708     -1804.744          50.350    25509016.060   101408533.25408     -1781.826          53.550
E25  23246654.940   122162011.54449      -253.737          54.950    23246660.460    91224922.81409      -189.498          55.950    23246655.420    99157496.43509      -205.961          57.100    23246657.600    93604688.75109      -194.394          56.000    23246658.380    92414789.58209      -191.959          59.300
E36  25279267.180   132843494.31348      2432.615          49.250    25279275.260    99201366.28308      1816.542          50.600    25279270.060   107827542.84508      1974.534          50.900    25279272.380   101789212.66308      1863.936          50.550    25279273.200   100495290.26908      1840.242          53.900
C06  39908520.040   209720693.66906      -636.116          38.550    39908519.760   207814151.49706      -630.266          39.800    39908525.180   156609638.95307      -474.886          43.850    39908521.560   168866028.92206      -512.158          40.000    39908521.420   160695088.92206      -487.451          39.700
C09                                                                  38862640.800   202368012.09807       153.543          44.750                                                                    38862644.500   164440638.95106       124.656          41.800                                                                    38862645.480   156483847.61407       118.675          44.100
C19  26105229.540   137183931.13206       747.623          37.100    26105230.760   135936815.20206       741.316          39.300    26105237.080   102442602.70407       558.183          45.000    26105231.220   110459826.82806       602.091          40.300    26105234.200   105114970.76806       572.857          40.750
C22  25845427.920   135818663.18006      2653.619          36.900    25845428.100   134583957.79706      2629.218          38.150    25845435.880   101423086.11406      1981.442          41.150    25845429.860   109360507.98306      2136.658          39.300    25845433.700   104068873.10706      2033.244          39.850
C24  22660014.300   119079175.05808     -1874.183          51.300    22660014.280   117996631.60408     -1857.026          52.650    22660015.240    88922759.80909     -1399.475          55.400    22660014.440    95881929.90108     -1509.009          51.300    22660012.380    91242473.71108     -1435.972          50.650
C25  23348143.740   122695336.01807      1520.975          45.650    23348144.480   121579927.53008      1507.097          48.650    23348146.640    91623163.70608      1135.746          50.100    23348145.060    98793659.17207      1224.734          46.400    23348144.100    94013321.20007      1165.350          46.550
C26  25505544.000   134032462.57506     -3446.109          40.150    25505544.420   132814003.45907     -3414.740          42.600    25505552.940   100089204.25307     -2573.415          45.000    25505550.680   107922269.59007     -2774.753          42.050    25505550.660   102700197.23906     -2640.413          41.650
C31  21520016.820   113088388.90508      -858.060          52.550    21520018.080   112060417.58409      -850.276          54.450    21520021.660    84449230.55509      -640.789          56.450    21520019.240    91058281.02808      -690.961          53.200    21520018.940    86652236.39608      -657.536          53.050
C34  22636407.000   118955176.23208      1823.145          49.000    22636406.880   117873772.59208      1806.594          50.350    22636411.460    88830224.91508      1361.415          52.300    22636409.220    95782130.01308      1467.986          48.050    22636409.240    91147516.51008      1396.932          49.100
C35  24773735.740   130186889.05607     -2629.950          42.550    24773735.980   129003321.70507     -2605.939          43.900    24773741.300    97217447.65407     -1963.900          45.950    24773739.020   104825768.56507     -2117.570          43.150    24773739.200    99753552.45307     -2015.075          42.750
S21  37763953.960                           6.035          46.250
S36  37791768.320   198597069.59607         2.158          47.900
> 2026 04 30 10 02 30.0000000  0 36
G02  24409347.940   128271987.44206      3410.604          36.600                                                                                                                                    24409351.560    99952219.40005      2657.612          34.850
G07  25135923.820   132090176.43606      1844.479          37.400                                                                    25135926.180   102927416.68506      1437.257          39.100    25135925.920   102927414.68706      1437.259          36.750
G08  22645397.160   119002386.24907      2739.976          42.300                                                                    22645401.960    92729164.71607      2135.045          45.500    22645401.380    92729161.72306      2135.046          41.950    22645401.800    88865459.35308      2045.980          50.550
G10  23092298.060   121350907.15007      2839.814          46.700                                                                    23092303.260    94559198.23207      2212.845          46.100    23092303.440    94559190.22707      2212.846          46.900    23092302.920    90619234.90308      2120.614          50.950
G16  20056307.820   105396631.45408      -501.337          51.550                                                                                                                                    20056307.040    82127255.49308      -390.653          51.450
G18  22346634.600   117432382.75007     -2661.580          47.200    22346634.480   117432371.76207     -2661.684          47.200    22346635.900    91505771.83308     -2073.960          49.300    22346635.640    91505766.82307     -2073.961          46.450    22346641.160    87693050.62908     -1987.627          53.300
G23  21910922.760   115142754.37708      1075.098          48.400    21910922.540   115142758.38708      1075.046          48.450    21910924.820    89721664.87908       837.739          50.300    21910924.580    89721656.87607       837.739          46.850    21910929.840    85983312.27008       802.810          53.100
G26  21508105.940   113025852.64008     -2551.896          51.000                                                                    21508109.940    88072106.44008     -1988.494          50.550    21508109.860    88072105.44108     -1988.494          50.950    21508109.640    84402449.91209     -1905.707          56.000
G27  20593797.220   108221177.63108      1392.740          52.900                                                                    20593799.660    84328223.62008      1085.252          52.400    20593799.300    84328221.62408      1085.253          52.850    20593799.800    80814570.36009      1040.038          57.050
R07  23463911.900   125604198.14306       891.067          40.650    23463916.440    97692163.72506       693.055          39.750    23463916.340    97692154.73406       693.056          40.200
R08  24056479.300   128821379.21806      3228.538          37.900    24056486.880   100194440.74306      2511.087          37.750    24056486.720   100194440.75306      2511.089          37.150
R13  20683320.960   110447902.41007     -3395.659          44.600
R14  19654671.780   104770494.02908      1104.155          52.750    19654675.700    81488182.88908       858.788          50.250    19654675.720    81488194.89208       858.788          50.950
R15  23092908.120   123401496.46306      4035.017          41.750    23092912.220    95978961.09706      3138.349          41.600    23092912.340    95978965.08907      3138.349          42.050
R17  23509794.940   125805710.34406      3437.241          38.100    23509801.020    97848867.53306      2673.410          39.050    23509801.040    97848874.54806      2673.412          39.700
R23  21000548.520   112338784.41207     -2944.980          47.150
R24  19841787.780   106103015.98008      1200.628          53.300    19841789.900    82524608.33408       933.821          49.650    19841789.820    82524600.33808       933.822          50.300
E02  25328589.580   133102649.67748      2210.962          48.350    25328594.740    99394870.26608      1651.036          50.650    25328592.420   108037885.01108      1794.633          50.100    25328591.800   101987766.55408      1694.133          49.400    25328592.980   100691306.70908      1672.588          53.250
E10  24424477.840   128351536.62748     -1519.863          53.300    24424482.420    95846971.37009     -1135.020          54.550    24424480.200   104181464.58309     -1233.690          54.650    24424480.020    98347313.95509     -1164.621          54.400    24424480.760    97097137.46409     -1149.832          57.700
E11  21828744.140   114710869.12748         -.578          51.150    21828745.940    85660747.94708         -.451          53.300    21828742.040    93109483.28008         -.533          53.550    21828743.000    87895359.81308         -.476          52.450    21828743.860    86778048.18009         -.455          56.100
E12  25909225.880   136153908.93347     -2454.820          42.550    25909229.340   101673396.63207     -1833.153          45.450    25909225.580   110514543.32207     -1992.554          45.400    25909227.220   104325733.98807     -1880.961          44.750    25909227.800   102999562.10808     -1857.052          48.450
E16  25522479.060   134121525.11347     -2362.460          47.900    25522486.280   100155712.91108     -1764.298          50.350    25522480.820   108864884.74808     -1917.644          49.000    25522483.820   102768458.97608     -1810.288          49.850    25522483.840   101462072.74208     -1787.308          53.250
E25  23248136.040   122169794.75649      -264.865          54.900    23248141.580    91230734.93109      -197.801          55.800    23248136.500    99163813.95809      -214.996          57.100    23248138.740    93610652.49309      -202.969          55.850    23248139.480    92420677.51009      -200.377          59.000
E36  25265405.120   132770648.64648      2424.031          49.050    25265412.880    99146968.60008      1810.118          50.200    25265407.980   107768414.90708      1967.612          50.950    25265410.140   101733395.90608      1857.350          50.300    25265411.100   100440183.05108      1833.734          53.550
C06  39912167.780   209739862.15406      -641.481          38.600    39912167.220   207833145.76506      -636.003          39.800    39912172.880   156623953.05007      -479.087          43.650    39912169.140   168881463.25506      -516.534          39.650    39912169.080   160709776.44206      -491.682          39.100
C09                                                                  38861776.660   202363511.96107       146.787          44.600                                                                    38861780.460   164436982.20706       119.379          41.700                                                                    38861781.380   156480367.80607       113.555          44.050
C19  26101008.060   137161747.02606       731.851          37.400    26101009.340   135914832.80606       725.227          38.900    26101016.120   102426036.72607       546.422          44.800    26101009.600   110441964.35006       589.225          40.500    26101012.700   105097972.63306       560.596          41.300
C22  25830295.440   135739143.86206      2648.247          38.350    25830295.760   134505161.41906      2623.659          38.050    25830303.340   101363705.10706      1977.395          41.100    25830297.520   109296479.71006      2132.191          39.700    25830301.240   104007942.99906      2029.135          38.950
C24  22670754.460   119135614.57808     -1888.284          51.100    22670754.360   118052558.03908     -1871.065          52.450    22670755.380    88964906.14309     -1410.093          55.200    22670754.600    95927374.66508     -1520.459          51.350    22670752.440    91285719.52708     -1446.883          50.550
C25  23339504.840   122649938.49707      1505.911          45.550    23339505.540   121534942.72407      1492.298          47.900    23339507.740    91589262.97108      1124.548          49.900    23339506.240    98757105.33707      1212.546          46.400    23339505.360    93978536.10007      1153.845          46.450
C26  25525226.200   134135891.25306     -3448.899          40.400    25525226.480   132916491.86307     -3417.326          42.100    25525235.280   100166439.64907     -2575.481          45.250    25525232.680   108005549.60907     -2777.084          42.300    25525232.840   102779447.51706     -2642.769          41.850
C31  21524941.280   113114267.00408      -866.783          52.250    21524942.540   112086060.42209      -858.929          54.150    21524946.140    84468555.09209      -647.331          56.300    21524943.740    91079117.92608      -698.007          53.250    21524943.420    86672065.05308      -664.217          52.900
C34  22626022.420   118900604.66708      1815.225          48.950    22626022.200   117819697.13008      1798.811          50.300    22626026.880    88789473.45108      1355.534          52.400    22626024.800    95738189.28708      1461.722          48.600    22626024.560    91105701.96108      1390.953          48.900
C35  24788756.100   130265821.18606     -2632.000          41.900    24788756.100   129081536.26507     -2608.101          43.100    24788761.900    97276390.35207     -1965.481          45.800    24788759.420   104889324.21307     -2119.307          43.000    24788759.720    99814032.79407     -2016.719          42.300
S21  37763921.480                           5.741          46.300
S36  37791757.240   198597012.43507         1.680          47.650
> 2026 04 30 10 03  0.0000000  0 36
G02  24389895.800   128169764.99706      3404.792          38.300                                                                                                                                    24389899.160    99872565.56506      2653.086          36.900
G07  25125431.060   132035036.98806      1831.443          38.700                                                                    25125433.260   102884450.84106      1427.097          36.550    25125433.000   102884448.84706      1427.097          39.600
G08  22629769.540   118920262.54607      2735.428          43.500                                                                    22629774.300    92665172.29407      2131.503          45.100    22629773.800    92665169.29507      2131.504          43.800    22629774.160    88804133.27408      2042.446          50.550
G10  23076112.340   121265851.38707      2830.578          46.650                                                                    23076117.580    94492921.10007      2205.647          46.100    23076117.720    94492913.10307      2205.648          46.600    23076117.340    90555719.35608      2113.851          51.150
G16  20059222.040   105411945.70008      -519.311          51.700                                                                                                                                    20059221.240    82139188.65108      -404.658          51.900
G18  22361853.800   117512359.54807     -2669.971          47.300    22361853.620   117512348.54107     -2669.819          47.400    22361855.060    91568091.36008     -2080.497          49.050    22361854.780    91568086.35607     -2080.498          46.400    22361860.440    87752773.48908     -1993.825          53.300
G23  21904838.180   115110779.56208      1056.837          48.300    21904837.980   115110783.56908      1056.796          48.400    21904840.260    89696749.45308       823.510          50.300    21904840.040    89696741.45607       823.510          47.100    21904845.080    85959434.99008       789.173          53.100
G26  21522710.900   113102601.96308     -2564.400          50.700                                                                    21522714.780    88131911.04108     -1998.236          50.300    21522714.720    88131910.04008     -1998.236          50.800    21522714.760    84459762.62409     -1914.979          56.050
G27  20585875.540   108179548.90108      1382.675          52.600                                                                    20585877.980    84295785.65408      1077.409          52.150    20585877.620    84295783.65608      1077.409          52.550    20585878.100    80783483.97509      1032.457          57.000
R07  23458983.600   125577816.40406       868.046          40.000    23458987.620    97671644.62206       675.149          39.550    23458987.760    97671635.63506       675.149          39.700
R08  24038415.880   128724651.43706      3219.821          37.600    24038423.460   100119208.23806      2504.313          38.250    24038423.460   100119208.23606      2504.311          38.450
R13  20702446.380   110550030.53807     -3412.658          44.550
R14  19648528.560   104737747.41808      1079.255          52.900    19648532.460    81462713.29808       839.420          50.500    19648532.460    81462725.30108       839.420          51.200
R15  23070277.300   123280563.83007      4027.306          42.800    23070281.160    95884902.41806      3132.349          41.650    23070281.360    95884906.42406      3132.349          41.950
R17  23490542.400   125702686.60306      3431.125          38.700    23490548.520    97768737.97306      2668.652          40.100    23490548.460    97768744.98406      2668.651          40.900
R23  21017084.360   112427240.31307     -2951.757          47.350
R24  19835096.660   106067235.54108      1184.950          53.650    19835098.680    82496779.10608       921.628          50.000    19835098.660    82496771.11208       921.629          50.300
E02  25315981.280   133036392.48148      2206.332          48.100    25315986.380    99345392.49908      1647.580          50.600    25315984.160   107984104.83308      1790.846          50.000    25315983.300   101936998.06008      1690.552          49.350    25315984.600   100641183.58308      1669.031          53.250
E10  24433182.120   128397278.25948     -1529.360          53.050    24433186.800    95881129.05209     -1142.100          54.450    24433184.500   104218592.51209     -1241.422          54.800    24433184.360    98382362.70909     -1171.889          54.550    24433185.140    97131740.67909     -1156.990          57.750
E11  21828783.120   114711074.08748       -12.829          51.300    21828784.940    85660900.99708        -9.576          53.150    21828781.000    93109649.63908       -10.348          53.600    21828782.020    87895516.85408        -9.803          52.650    21828782.880    86778203.22609        -9.709          56.150
E12  25923255.320   136227633.97247     -2459.937          42.600    25923258.800   101728450.99007     -1837.080          45.350    25923255.220   110574385.03207     -1996.713          45.700    25923256.720   104382224.54607     -1884.879          45.050    25923257.280   103055334.56808     -1861.013          48.600
E16  25535986.000   134192504.35247     -2369.244          47.800    25535993.320   100208716.74008     -1769.209          50.200    25535987.880   108922497.66408     -1923.018          49.350    25535990.720   102822845.52908     -1815.382          49.800    25535990.880   101515767.94008     -1792.353          53.150
E25  23249678.760   122177901.66549      -275.399          54.900    23249684.300    91236788.77209      -205.670          55.850    23249679.200    99170394.22809      -223.542          57.250    23249681.460    93616864.26009      -211.027          56.050    23249682.200    92426810.31409      -208.341          59.150
E36  25251590.220   132698050.96448      2416.082          49.150    25251597.740    99092756.10008      1804.173          50.250    25251592.980   107709488.26308      1961.094          51.300    25251595.040   101677769.16708      1851.230          50.550    25251596.200   100385263.43208      1827.694          53.700
C06  39915845.820   209759190.25906      -646.407          38.350    39915845.340   207852298.13106      -640.690          39.650    39915850.840   156638386.34207      -482.915          43.150    39915846.960   168897026.13806      -520.786          39.800    39915846.940   160724586.25406      -495.619          38.750
C09                                                                  38860949.000   202359201.80607       140.739          44.650                                                                    38860952.860   164433479.85506       114.411          41.900                                                                    38860953.720   156477034.92507       108.763          44.350
C19  26096874.960   137140027.83906       716.562          36.000    26096876.040   135893311.09906       709.707          38.750    26096882.980   102409817.87907       534.965          44.300    26096876.680   110424476.21506       576.848          40.350    26096879.920   105081330.70806       548.895          41.500
C22  25815191.680   135659774.22106      2643.211          39.650    25815191.720   134426513.27306      2619.188          39.800    25815199.540   101304435.88206      1973.928          41.200    25815194.040   109232571.92006      2128.386          40.550    25815197.320   103947127.54506      2025.545          40.250
C24  22681573.720   119192469.96008     -1901.905          50.850    22681573.620   118108896.55208     -1884.638          52.650    22681574.620    89007363.01309     -1420.249          55.150    22681573.920    95973154.26608     -1531.374          51.550    22681571.740    91329283.97808     -1457.308          50.700
C25  23330949.920   122604982.27507      1491.385          45.350    23330950.500   121490395.19608      1477.794          48.000    23330952.740    91555691.75708      1113.751          49.900    23330951.440    98720906.80807      1200.873          46.700    23330950.620    93944089.11307      1142.727          46.550
C26  25544921.740   134239390.10106     -3450.893          40.000    25544921.700   133019049.81807     -3419.247          42.200    25544930.940   100243727.44607     -2576.938          44.950    25544927.960   108088886.12007     -2778.567          42.350    25544928.380   102858751.55106     -2644.187          41.950
C31  21529913.540   113140396.25708      -874.824          52.200    21529914.720   112111952.14209      -866.903          54.300    21529918.400    84488067.18209      -653.357          56.300    21529916.040    91100157.04808      -704.443          53.450    21529915.700    86692086.14908      -670.361          52.950
C34  22615680.760   118846258.67708      1807.898          48.700    22615680.520   117765845.18908      1791.549          50.600    22615685.220    88748890.42808      1350.106          52.600    22615683.320    95694430.20208      1455.802          49.050    22615682.720    91064060.24608      1385.342          49.050
C35  24803786.480   130344805.57206     -2633.378          41.800    24803786.120   129159802.63307     -2609.538          43.750    24803792.320    97335372.08507     -1966.565          45.950    24803789.660   104952921.95307     -2120.354          43.350    24803789.740    99874553.20907     -2017.878          42.200
S21  37763888.740                           6.077          46.150
S36  37791747.440   198596960.70207         2.107          47.650
> 2026 04 30 10 03 30.0000000  0 36
G02  24370476.080   128067712.63406      3398.631          38.700                                                                                                                                    24370479.180    99793044.24606      2648.283          38.750
G07  25115016.020   131980305.79406      1817.269          37.500                                                                    25115018.280   102841803.19806      1416.057          38.150    25115017.880   102841801.19406      1416.054          37.500
G08  22614169.600   118838284.49207      2729.813          43.550                                                                    22614174.400    92601293.33007      2127.126          45.350    22614173.900    92601290.32807      2127.127          43.750    22614174.080    88742915.91608      2038.590          50.700
G10  23059980.600   121181079.46207      2820.726          46.600                                                                    23059985.960    94426865.16307      2197.971          46.500    23059986.120    94426857.16607      2197.971          46.350    23059985.860    90492415.76708      2106.412          51.200
G16  20062239.760   105427803.77008      -537.940          51.550                                                                                                                                    20062238.940    82151545.57508      -419.175          51.500
G18  22377121.600   117592592.06307     -2679.102          47.300    22377121.460   117592581.05907     -2678.969          47.050    22377122.920    91630610.13608     -2087.614          49.450    22377122.620    91630605.13607     -2087.614          46.000    22377128.280    87812687.30208     -2000.463          52.950
G23  21898859.240   115079360.15108      1037.806          48.650    21898859.040   115079364.15608      1037.697          48.350    21898861.300    89672266.81408       808.682          50.300    21898861.060    89672258.81107       808.681          47.100    21898865.960    85935972.45208       775.024          52.950
G26  21537388.420   113179732.58508     -2577.699          50.700                                                                    21537392.240    88192012.75208     -2008.599          50.300    21537392.160    88192011.74908     -2008.599          50.400    21537392.420    84517360.07309     -1924.840          55.750
G27  20578013.720   108138234.79708      1371.591          52.700                                                                    20578016.160    84263592.85108      1068.772          52.800    20578015.800    84263590.85208      1068.772          52.850    20578016.200    80752632.53609      1024.295          57.000
R07  23454186.240   125552139.01306       843.918          39.500    23454190.720    97651673.37106       656.382          40.050    23454190.820    97651664.37806       656.384          40.750
R08  24020402.900   128628194.10106      3210.205          37.900    24020410.380   100044186.02006      2496.825          37.500    24020410.280   100044186.02006      2496.827          38.000
R13  20721667.240   110652668.44207     -3429.933          44.150
R14  19642527.240   104705757.34308      1053.333          52.750    19642531.200    81437832.12308       819.259          50.300    19642531.220    81437844.13008       819.258          51.050
R15  23047691.060   123159869.54907      4018.759          42.400    23047694.920    95791029.15706      3125.705          41.000    23047695.100    95791033.16306      3125.704          41.750
R17  23471326.220   125599858.31706      3424.156          36.700    23471332.180    97688760.47406      2663.230          38.350    23471332.380    97688767.48506      2663.230          37.950
R23  21033659.540   112515906.10107     -2959.331          47.000
R24  19828494.840   106031932.52508      1168.524          53.300    19828496.820    82469321.22108       908.853          49.800    19828496.820    82469313.22308       908.853          50.400
E02  25303401.380   132970284.71348      2200.850          48.400    25303406.500    99296026.33408      1643.481          50.650    25303404.300   107930445.95208      1786.368          50.300    25303403.280   101886344.06708      1686.404          49.350    25303404.640   100591173.50208      1664.941          53.050
E10  24441941.920   128443311.69748     -1539.572          52.800    24441946.680    95915504.63409     -1149.627          54.250    24441944.460   104255957.28509     -1249.606          54.950    24441944.240    98417635.05109     -1179.600          54.550    24441945.060    97166564.64209     -1164.611          57.450
E11  21828893.920   114711656.21648       -25.829          51.400    21828895.660    85661335.69808       -19.250          53.100    21828891.760    93110122.14608       -20.940          53.950    21828892.760    87895962.90308       -19.731          52.650    21828893.660    86778643.59909       -19.479          55.950
E12  25937315.640   136301521.05346     -2465.929          41.950    25937319.240   101783626.33907     -1841.322          45.600    25937315.820   110634358.25707     -2001.489          46.050    25937317.180   104438839.26807     -1889.453          45.200    25937317.560   103111229.61108     -1865.504          48.400
E16  25549532.080   134263689.12547     -2376.444          47.800    25549539.500   100261874.06808     -1774.604          50.050    25549534.080   108980277.41908     -1928.917          49.350    25549536.780   102877389.57908     -1820.916          49.650    25549537.000   101569618.62508     -1797.805          52.750
E25  23251283.220   122186333.19149      -286.722          54.850    23251288.740    91243085.02009      -214.076          55.800    23251283.720    99177237.98609      -232.694          57.350    23251285.920    93623324.76409      -219.701          56.000    23251286.700    92433188.68909      -216.884          58.900
E36  25237822.700   132625702.50848      2407.174          48.950    25237830.260    99038729.70808      1797.617          50.550    25237825.560   107650763.90908      1953.933          51.700    25237827.520   101622333.38308      1844.491          50.800    25237828.700   100330532.34608      1821.054          53.700
C06  39919554.140   209778677.84106      -652.295          37.950    39919553.800   207871608.58906      -646.717          40.250    39919558.940   156652938.73307      -487.213          42.900    39919554.860   168912717.40606      -525.429          38.700    39919555.280   160739518.26106      -499.933          38.900
C09                                                                  38860157.740   202355081.76807       133.792          44.800                                                                    38860161.620   164430131.97106       108.813          41.650                                                                    38860162.620   156473849.02607       103.557          44.150
C19  26092830.480   137118775.07506       700.426          36.950    26092831.180   135872251.55506       693.732          37.650    26092838.460   102393947.36807       523.015          44.550    26092832.160   110407363.64806       563.789          39.650    26092835.280   105065046.16506       536.599          40.500
C22  25800117.060   135580557.20506      2637.519          39.200    25800117.160   134348016.45106      2613.771          40.500    25800124.260   101245280.58106      1969.785          41.150    25800119.440   109168787.03106      2123.897          39.550    25800122.580   103886429.09906      2021.105          41.300
C24  22692471.880   119249739.98308     -1916.104          51.100    22692471.780   118165645.94108     -1898.781          52.700    22692472.780    89050129.51809     -1430.847          55.000    22692472.120    96019267.74208     -1542.854          51.000    22692469.900    91373166.14708     -1468.221          50.800
C25  23322479.280   122560469.09807      1476.120          45.600    23322479.780   121446286.69408      1462.667          48.050    23322482.160    91522451.41308      1102.374          49.850    23322480.860    98685065.04607      1188.630          46.600    23322480.080    93909981.62607      1131.097          46.350
C26  25564630.300   134342957.47806     -3453.652          39.950    25564629.920   133121675.65206     -3422.077          41.350    25564639.580   100321066.38807     -2578.964          44.350    25564636.380   108172277.77906     -2780.821          41.750    25564636.920   102938108.07006     -2646.294          41.350
C31  21534933.500   113166776.17008      -883.869          52.250    21534934.680   112138092.22909      -875.775          54.450    21534938.320    84507766.44109      -659.915          56.250    21534936.000    91121397.99608      -711.535          53.050    21534935.700    86712299.30708      -677.116          53.000
C34  22605382.120   118792138.69408      1799.912          48.750    22605381.900   117712217.21008      1783.560          50.600    22605386.500    88708476.18008      1344.144          52.550    22605384.760    95650853.09708      1449.342          48.900    22605383.880    91022591.70608      1379.253          48.900
C35  24818826.520   130423841.81606     -2635.649          41.650    24818826.180   129238120.35707     -2611.799          43.900    24818832.720    97394392.52307     -1968.157          45.850    24818829.840   105016561.43807     -2122.308          43.200    24818829.880    99935113.33507     -2019.528          42.200
S21  37763856.280                           5.545          46.150
S36  37791736.420   198596900.39007         1.589          47.700
> 2026 04 30 10 04  0.0000000  0 36
G02  24351089.300   127965834.18606      3392.723          39.400                                                                                                                                    24351092.180    99713658.43006      2643.678          36.750
G07  25104679.660   131925987.27706      1802.773          38.000                                                                    25104681.880   102799477.08506      1404.761          38.700    25104681.660   102799475.08706      1404.759          37.850
G08  22598598.100   118756455.64107      2724.988          44.300                                                                    22598602.840    92537530.62407      2123.368          45.100    22598602.320    92537527.62507      2123.368          44.250    22598602.500    88681810.00908      2034.875          50.900
G10  23043904.040   121096597.02407      2811.013          47.050                                                                    23043909.420    94361034.79407      2190.402          45.850    23043909.600    94361026.79307      2190.402          46.900    23043909.480    90429328.35208      2099.177          51.400
G16  20065361.480   105444208.49108      -556.131          51.850                                                                                                                                    20065360.660    82164328.45308      -433.349          51.800
G18  22392438.100   117673080.90307     -2687.238          47.050    22392437.920   117673069.91507     -2687.445          46.900    22392439.460    91693328.65908     -2093.955          49.300    22392439.220    91693323.65107     -2093.955          45.750    22392444.820    87872792.54408     -2006.786          52.950
G23  21892986.840   115048500.40508      1019.121          49.050    21892986.620   115048504.40408      1019.152          48.700    21892988.880    89648220.27308       794.121          49.700    21892988.620    89648212.27207       794.121          46.400    21892993.340    85912927.85308       761.075          53.150
G26  21552138.700   113257245.64908     -2590.451          50.750                                                                    21552142.620    88252412.46608     -2018.535          50.250    21552142.520    88252411.46508     -2018.535          50.800    21552142.720    84575243.11409     -1934.269          55.600
G27  20570212.460   108097238.72808      1361.067          53.200                                                                    20570214.900    84231647.86608      1060.572          52.400    20570214.520    84231645.87008      1060.572          53.250    20570214.840    80722018.59809      1016.401          57.050
R07  23449521.860   125527170.54006       820.349          39.950    23449526.820    97632253.52106       638.049          39.900    23449526.780    97632244.51306       638.049          41.200
R08  24002442.040   128532014.40705      3200.991          34.250    24002449.640    99969379.82506      2489.670          36.200    24002449.420    99969379.82005      2489.670          35.700
R13  20740983.360   110755815.24207     -3446.887          44.250
R14  19636668.780   104674528.42008      1028.024          52.800    19636672.760    81413542.95608       799.574          50.300    19636672.760    81413554.96208       799.575          51.100
R15  23025150.740   123039420.39807      4010.611          43.550    23025154.460    95697346.50906      3119.363          41.550    23025154.660    95697350.51906      3119.363          41.350
R17  23452147.580   125497229.51706      3417.178          37.250    23452153.220    97608938.10906      2657.807          38.000    23452153.680    97608945.12006      2657.808          37.900
R23  21050274.060   112604782.25307     -2966.223          46.900
R24  19821982.620   105997108.79508      1152.565          53.550    19821984.720    82442236.10908       896.440          49.900    19821984.700    82442228.11508       896.440          50.700
E02  25290850.740   132904330.54548      2195.754          48.550    25290855.860    99246774.86608      1639.636          50.700    25290853.600   107876911.73008      1782.309          49.900    25290852.660   101835807.77508      1682.421          49.350    25290853.900   100541279.61708      1661.076          53.300
E10  24450757.500   128489638.27448     -1549.210          53.200    24450762.340    95950099.12709     -1156.842          54.300    24450760.280   104293560.01009     -1257.478          54.750    24450759.960    98453132.01109     -1187.064          54.500    24450760.720    97201610.36709     -1171.949          57.650
E11  21829076.920   114712617.62748       -38.349          51.650    21829078.540    85662053.63308       -28.640          53.200    21829074.840    93110902.50808       -31.150          53.850    21829075.640    87896699.56508       -29.371          52.450    21829076.620    86779370.90109       -29.041          56.100
E12  25951407.040   136375571.46347     -2471.114          42.300    25951410.800   101838923.65207     -1845.340          45.900    25951407.280   110694464.05607     -2005.772          45.300    25951408.600   104495579.12407     -1893.433          44.800    25951408.920   103167248.18608     -1869.366          48.650
E16  25563117.740   134335081.70747     -2383.293          47.800    25563125.360   100315186.56208     -1779.731          50.200    25563119.960   109038225.84508     -1934.537          49.600    25563122.160   102932092.87108     -1826.188          49.400    25563122.720   101623626.51808     -1802.996          52.950
E25  23252950.120   122195092.67049      -297.608          55.050    23252955.540    91249626.16809      -222.240          55.900    23252950.600    99184347.93809      -241.544          57.150    23252952.800    93630036.55209      -228.011          55.850    23252953.600    92439815.15609      -225.118          59.050
E36  25224103.300   132553606.93448      2398.881          49.250    25224111.060    98984892.16708      1791.397          50.800    25224106.260   107592244.82508      1947.119          51.550    25224108.200   101567091.38308      1838.048          50.900    25224109.320   100275992.57209      1814.708          54.050
C06  39923293.320   209798327.31706      -657.651          39.500    39923293.120   207891079.39206      -651.670          40.150    39923298.020   156667611.97707      -491.144          43.050    39923293.680   168928539.01706      -529.680          39.250    39923294.700   160754574.28906      -504.094          38.750
C09                                                                  38859403.500   202351154.48707       127.551          44.250                                                                    38859407.280   164426940.74006       103.686          41.650                                                                    38859408.500   156470812.20907        98.671          44.050
C19  26088875.700   137097992.75506       684.180          37.500    26088876.120   135851658.12606       678.218          37.800    26088884.040   102378428.14807       511.297          45.100    26088877.180   110390629.84306       551.463          40.550    26088880.380   105049122.08006       524.714          40.950
C22  25785072.660   135501498.28106      2632.626          40.250    25785072.580   134269676.25506      2608.622          41.300    25785079.720   101186243.42006      1965.809          41.950    25785074.560   109105129.41206      2119.711          38.350    25785077.700   103825851.77306      2017.099          41.300
C24  22703449.200   119307425.98108     -1929.891          51.250    22703449.100   118222807.51808     -1912.403          52.600    22703450.100    89093206.66009     -1441.159          54.900    22703449.420    96065716.15808     -1553.919          50.850    22703447.260    91417367.05008     -1478.793          50.800
C25  23314093.840   122516403.24007      1461.259          46.250    23314094.240   121402621.43207      1447.984          47.650    23314096.640    91489545.10408      1091.178          50.000    23314095.500    98649583.46107      1176.547          46.750    23314094.540    93876216.89007      1119.646          46.200
C26  25584351.980   134446594.10806     -3455.764          39.600    25584351.280   133224370.15706     -3424.355          40.900    25584361.300   100398457.07207     -2580.595          43.900    25584358.020   108255725.23606     -2782.511          41.300    25584358.640   103017517.68006     -2647.887          40.800
C31  21540001.480   113193408.63908      -892.028          52.250    21540002.740   112164482.59109      -883.943          54.250    21540006.300    84527654.31409      -666.164          56.350    21540003.980    91142842.32008      -718.298          53.050    21540003.720    86732705.99608      -683.514          52.850
C34  22595127.020   118738247.65308      1792.449          48.800    22595126.800   117658816.09608      1776.037          50.600    22595131.320    88668232.89808      1338.520          52.700    22595129.740    95607460.33308      1443.216          49.050    22595128.700    90981298.59708      1373.407          48.850
C35  24833876.940   130502931.92006     -2637.226          41.700    24833876.440   129316491.46607     -2613.604          43.200    24833883.160    97453453.19907     -1969.449          45.900    24833880.220   105080244.28007     -2123.572          42.900    24833880.500    99995714.72907     -2020.782          42.200
S21  37763824.200                           5.495          46.350
S36  37791727.040   198596850.06207         1.405          47.750
> 2026 04 30 10 04 30.0000000  0 36
G02  24331734.860   127864125.56006      3387.389          39.000                                                                                                                                    24331737.600    99634404.94106      2639.521          38.150
G07  25094421.100   131872077.06406      1789.752          39.700                                                                    25094423.120   102757469.11506      1394.611          39.250    25094422.940   102757467.11206      1394.609          39.600
G08  22583054.080   118674770.83907      2720.114          44.500                                                                    22583058.700    92473880.16207      2119.570          45.400    22583058.140    92473877.16407      2119.570          44.150    22583058.420    88620811.65708      2031.408          50.800
G10  23027881.920   121012400.97107      2801.286          47.000                                                                    23027887.460    94295427.59307      2182.825          46.300    23027887.600    94295419.58607      2182.825          47.050    23027887.440    90366454.78208      2092.065          51.100
G16  20068586.060   105461153.67808      -574.035          51.800                                                                                                                                    20068585.240    82177532.47908      -447.301          52.000
G18  22407801.700   117753817.97207     -2695.511          46.800    22407801.560   117753806.97107     -2695.410          46.650    22407803.360    91756240.58808     -2100.401          49.850    22407803.100    91756235.59007     -2100.400          46.400    22407808.580    87933083.13808     -2012.841          52.650
G23  21887220.080   115018195.77408      1000.684          48.900    21887219.880   115018199.77908      1000.689          48.750    21887222.120    89624606.28908       779.754          50.600    21887221.900    89624598.28807       779.754          46.800    21887226.520    85890297.79008       747.363          53.000
G26  21566960.260   113335133.43008     -2602.567          50.600                                                                    21566964.240    88313104.16108     -2027.978          50.550    21566964.160    88313103.16008     -2027.978          50.900    21566964.200    84633405.98909     -1943.483          55.150
G27  20562470.720   108056555.38408      1350.773          53.300                                                                    20562473.100    84199946.56508      1052.551          52.600    20562472.720    84199944.56508      1052.551          53.400    20562473.020    80691638.18309      1008.678          56.900
R07  23444988.860   125502906.04206       796.833          40.400    23444993.940    97613381.25106       619.762          40.000    23444993.840    97613372.25106       619.760          40.350
R08  23984532.060   128436110.68906      3192.087          37.600    23984539.940    99894788.19306      2482.737          36.000    23984539.660    99894788.18905      2482.737          35.950
R13  20760393.160   110859461.75907     -3463.276          44.500
R14  19630952.480   104644057.04208      1002.841          52.750    19630956.420    81389842.98708       779.987          50.350    19630956.460    81389854.99108       779.987          51.050
R15  23002655.720   122919213.99207      4002.655          43.050    23002659.360    95603852.66206      3113.176          41.550    23002659.620    95603856.68107      3113.178          42.000
R17  23433005.260   125394795.07706      3411.205          39.100    23433010.900    97529266.87806      2653.158          39.000    23433011.180    97529273.88506      2653.158          39.750
R23  21066926.240   112693859.88307     -2972.761          46.600
R24  19815559.000   105962758.31008      1136.910          53.750    19815561.040    82415519.07108       884.264          49.850    19815561.000    82415511.07008       884.264          50.650
E02  25278328.480   132838525.36148      2190.888          48.750    25278333.540    99197634.64708      1636.083          50.250    25278331.160   107823498.44308      1778.387          49.950    25278330.480   101785385.63508      1678.752          49.700    25278331.520   100491498.44108      1657.410          53.200
E10  24459627.520   128536250.54948     -1558.642          53.000    24459632.380    95984906.96708     -1163.865          53.950    24459630.400   104331394.62309     -1265.068          54.700    24459630.080    98488847.88109     -1194.258          54.600    24459630.760    97236872.22509     -1179.051          57.500
E11  21829330.820   114713951.72648       -50.689          51.600    21829332.420    85663049.87208       -37.845          53.000    21829328.800    93111985.37609       -41.124          54.000    21829329.500    87897721.79208       -38.840          52.600    21829330.500    86780380.13009       -38.350          56.000
E12  25965527.840   136449777.56946     -2476.021          41.500    25965532.120   101894337.21707     -1849.106          45.650    25965528.300   110754696.23607     -2009.905          45.200    25965529.720   104552438.27607     -1897.364          44.850    25965529.940   103223384.54608     -1873.218          48.550
E16  25576741.620   134406675.45647     -2389.983          47.850    25576749.320   100368649.28408     -1784.690          49.950    25576744.060   109096337.55008     -1939.845          49.150    25576745.980   102986950.28608     -1831.256          49.200    25576746.720   101677786.58208     -1807.945          52.750
E25  23254678.400   122204174.63549      -308.218          55.050    23254683.720    91256408.13509      -230.147          55.650    23254678.800    99191719.64809      -250.178          57.150    23254681.020    93636995.44509      -236.185          55.850    23254681.860    92446685.58809      -233.162          58.950
E36  25210431.100   132481759.15948      2390.715          49.200    25210439.060    98931239.66708      1785.213          50.750    25210434.120   107533926.86208      1940.506          51.700    25210436.020   101512039.23808      1831.834          51.000    25210437.100   100221640.24909      1808.501          54.050
C06  39927062.120   209818132.19206      -662.850          38.950    39927061.920   207910704.24206      -656.838          40.700    39927066.600   156682401.27707      -494.814          42.600    39927062.660   168944485.75606      -533.707          39.350    39927063.240   160769749.41706      -507.891          38.250
C09                                                                  38858685.040   202347413.75607       121.263          44.300                                                                    38858688.760   164423901.06306        98.760          41.900                                                                    38858690.200   156467919.61107        93.917          44.750
C19  26085009.500   137077675.99706       669.068          36.400    26085010.180   135831526.04306       663.200          38.850    26085017.980   102363256.58207       499.855          44.800    26085011.280   110374270.91406       538.994          40.750    26085014.680   105033554.72206       512.970          41.450
C22  25770057.680   135422594.21806      2627.832          38.600    25770057.620   134191489.50406      2603.745          41.250    25770064.560   101127321.83707      1962.061          43.400    25770059.360   109041596.51206      2115.575          38.100    25770062.320   103765393.10606      2013.235          41.350
C24  22714504.240   119365520.44008     -1943.458          51.150    22714504.220   118280373.83608     -1925.705          52.950    22714505.100    89136588.81309     -1451.210          54.450    22714504.400    96112493.46808     -1564.840          51.000    22714502.440    91461880.91608     -1489.085          51.050
C25  23305792.700   122472780.21607      1446.538          46.550    23305793.080   121359394.95508      1433.412          48.100    23305795.440    91456969.46008      1080.288          49.800    23305794.340    98614458.41407      1164.838          46.950    23305793.200    93842791.44307      1108.442          46.100
C26  25604085.200   134550291.96706     -3457.510          39.300    25604084.340   133327125.29306     -3426.261          40.950    25604094.700   100475893.46907     -2581.939          42.900    25604091.320   108339221.98506     -2784.096          40.950    25604091.940   103096974.18706     -2649.422          40.200
C31  21545116.240   113220286.89808      -900.154          52.300    21545117.520   112191116.49409      -892.012          54.350    21545121.060    84547725.71709      -672.152          56.100    21545118.740    91164484.53508      -724.778          53.250    21545118.460    86753301.00508      -689.690          52.900
C34  22584914.340   118684579.70008      1785.058          48.600    22584914.120   117605636.02308      1768.857          50.800    22584918.640    88628156.20108      1333.046          52.600    22584917.100    95564247.18208      1437.403          49.400    22584916.020    90940176.41508      1367.777          48.850
C35  24848936.320   130582069.14406     -2638.983          41.900    24848935.940   129394909.24707     -2614.937          44.000    24848942.720    97512549.04707     -1970.499          45.600    24848939.460   105143965.07107     -2124.698          43.200    24848940.140   100056352.23307     -2021.907          42.400
S21  37763791.820                           5.886          46.350
S36  37791715.880   198596793.76007         2.006          47.650
> 2026 04 30 10 05  0.0000000  0 36
G02  24312414.100   127762594.13406      3381.563          39.500                                                                                                                                    24312416.600    99555289.55006      2634.983          38.400
G07  25084241.540   131818582.62606      1776.394          37.500                                                                    25084243.300   102715785.17606      1384.202          38.350    25084243.120   102715783.17806      1384.204          37.100
G08  22567538.760   118593236.88307      2715.597          43.800                                                                    22567543.100    92410347.25007      2116.053          44.900    22567542.600    92410344.24207      2116.051          44.200    22567542.940    88559925.97708      2027.722          50.950
G10  23011916.060   120928500.17107      2791.974          46.800                                                                    23011921.480    94230050.43207      2175.568          46.700    23011921.680    94230042.43307      2175.568          46.650    23011921.520    90303801.72208      2084.783          51.500
G16  20071914.640   105478645.52108      -592.040          51.550                                                                                                                                    20071913.860    82191162.46608      -461.330          51.350
G18  22423213.300   117834807.17607     -2703.856          46.250    22423213.140   117834796.18307     -2703.857          46.350    22423215.180    91819348.98008     -2106.904          49.650    22423214.980    91819343.99507     -2106.902          45.800    22423220.360    87993562.01108     -2019.046          52.800
G23  21881560.360   114988453.69708       982.057          48.950    21881560.220   114988457.70208       982.102          48.800    21881562.380    89601430.65708       765.239          50.250    21881562.140    89601422.65607       765.240          46.900    21881566.840    85868087.82308       733.345          53.200
G26  21581853.960   113413400.25708     -2615.050          50.200                                                                    21581858.000    88374091.22208     -2037.704          49.850    21581857.920    88374090.22508     -2037.704          50.150    21581857.940    84691851.91409     -1952.873          55.350
G27  20554789.780   108016191.46208      1340.156          52.950                                                                    20554792.060    84168494.15808      1044.278          52.350    20554791.700    84168492.16008      1044.277          53.050    20554792.060    80661496.29709      1000.754          57.250
R07  23440589.060   125479353.66506       773.314          41.100    23440593.980    97595062.81006       601.469          39.600    23440593.960    97595053.82306       601.470          40.800
R08  23966676.260   128340493.61506      3182.465          37.750    23966683.780    99820419.52506      2475.252          36.800    23966683.720    99820419.52706      2475.254          37.850
R13  20779897.080   110963610.91007     -3479.916          44.300
R14  19625379.800   104614351.30608       977.461          52.800    19625383.660    81366738.51308       760.247          50.350    19625383.780    81366750.51508       760.247          51.050
R15  22980207.880   122799260.48707      3994.202          43.000    22980211.760    95510555.56607      3106.604          42.050    22980212.000    95510559.56007      3106.602          42.400
R17  23413900.580   125292562.21206      3404.569          39.850    23413906.700    97449752.49806      2648.001          39.450    23413906.720    97449759.49606      2648.002          39.350
R23  21083616.820   112783142.83007     -2979.364          47.100
R24  19809224.760   105928886.34808      1121.146          53.800    19809226.720    82389174.22308       872.003          49.900    19809226.720    82389166.22408       872.003          50.550
E02  25265835.960   132772876.55848      2185.742          48.950    25265840.940    99148611.21508      1632.222          50.350    25265838.360   107770212.10008      1774.121          50.000    25265838.100   101735083.32908      1674.786          49.700    25265838.960   100441835.57308      1653.475          53.100
E10  24468552.780   128583153.09648     -1568.170          52.750    24468557.680    96019931.57509     -1171.036          54.100    24468555.680   104369464.86409     -1272.864          54.550    24468555.480    98524786.17909     -1201.600          54.650    24468556.020    97272353.67709     -1186.340          57.600
E11  21829656.660   114715663.87748       -63.364          51.350    21829658.260    85664328.42808       -47.313          53.200    21829654.640    93113375.11109       -51.436          54.000    21829655.360    87899033.70008       -48.563          52.650    21829656.300    86781675.36309       -47.941          56.050
E12  25979679.180   136524143.88346     -2481.632          41.450    25979683.580   101949870.42107     -1853.030          45.950    25979679.700   110815058.45207     -2014.152          45.600    25979681.140   104609420.18507     -1901.447          44.800    25979681.480   103279642.10208     -1877.210          48.500
E16  25590404.900   134478475.82348     -2396.707          48.050    25590412.500   100422266.30008     -1789.769          49.950    25590407.400   109154616.97408     -1945.435          49.100    25590409.260   103041966.02208     -1836.478          49.300    25590410.040   101732102.96008     -1813.128          52.800
E25  23256469.300   122213585.70549      -319.094          54.800    23256474.620    91263435.86809      -238.321          55.900    23256469.560    99199358.49309      -259.019          57.200    23256471.860    93644206.51009      -244.554          55.850    23256472.740    92453804.98709      -241.432          59.000
E36  25196807.360   132410166.09348      2382.233          49.300    25196815.520    98877777.36508      1778.900          50.950    25196810.380   107475815.65008      1933.598          51.600    25196812.400   101457182.26708      1825.364          51.200    25196813.340   100167480.61709      1802.112          54.150
C06  39930861.580   209838098.06606      -668.130          38.750    39930861.400   207930488.60806      -661.942          40.850    39930866.140   156697310.83607      -498.993          43.100    39930862.020   168960562.14406      -538.093          39.250    39930862.460   160785047.92206      -512.086          38.400
C09                                                                  38858003.540   202343865.36907       115.104          44.500                                                                    38858007.240   164421017.71807        93.574          42.300                                                                    38858008.820   156465175.78907        88.902          44.400
C19  26081233.140   137057831.95505       653.172          35.900    26081234.240   135811862.44606       647.614          39.000    26081241.240   102348438.03907       488.188          44.600    26081235.180   110358292.66706       526.287          41.150    26081238.620   105018349.61606       500.879          41.000
C22  25755073.820   135343853.69905      2621.965          35.850    25755073.660   134113464.85706      2598.106          40.050    25755080.740   101068522.44107      1957.896          43.650    25755075.040   108978195.25806      2111.392          37.550    25755078.040   103705059.77006      2009.001          41.100
C24  22725637.880   119424027.88208     -1956.992          50.750    22725637.940   118338349.39208     -1939.202          52.900    22725638.820    89180279.37509     -1461.452          54.700    22725638.000    96159603.30708     -1575.830          51.050    22725636.260    91506711.23508     -1499.560          51.200
C25  23297577.240   122429607.44007      1431.604          46.300    23297577.660   121316614.65908      1418.673          48.300    23297579.980    91424730.05908      1069.056          50.000    23297578.780    98579695.93407      1152.662          47.250    23297577.520    93809711.00307      1096.976          46.050
C26  25623830.800   134654055.09206     -3460.046          37.950    25623830.040   133429945.07706     -3428.006          40.050    25623840.520   100553378.58707     -2583.539          42.750    25623836.980   108422771.24906     -2785.793          40.050    25623837.680   103176480.68506     -2651.000          39.050
C31  21550278.820   113247416.09508      -908.342          52.100    21550280.020   112217999.05909      -900.065          54.400    21550283.560    84567984.51909      -678.353          56.350    21550281.240    91186328.81708      -731.460          53.500    21550280.960    86774088.30208      -696.060          52.850
C34  22574745.200   118631140.94708      1777.513          48.250    22574745.040   117552683.08208      1761.402          50.650    22574749.640    88588250.66908      1327.359          52.800    22574748.080    95521218.60308      1431.227          49.800    22574746.920    90899229.86208      1361.979          48.700
C35  24864005.600   130661258.78506     -2640.415          41.350    24864005.480   129473378.95607     -2616.363          44.500    24864012.180    97571684.04607     -1971.855          45.700    24864008.700   105207728.06307     -2126.161          43.250    24864009.560   100117029.88107     -2023.104          42.450
S21  37763759.220                           5.733          46.050
S36  37791705.580   198596737.28607         2.054          47.600
> 2026 04 30 10 05 30.0000000  0 36
G02  24293126.720   127661238.08406      3375.786          40.300                                                                                                                                    24293129.360    99476310.79105      2630.484          35.750
G07  25074140.540   131765502.05706      1762.098          37.750                                                                    25074142.200   102674423.68706      1373.065          38.800    25074142.040   102674421.68506      1373.065          38.150
G08  22552051.560   118511851.16307      2710.425          44.500                                                                    22552055.820    92346929.83407      2112.021          45.200    22552055.260    92346926.83507      2112.021          44.300    22552055.740    88499150.97808      2023.910          50.650
G10  22996006.300   120844894.02307      2781.863          47.650                                                                    22996011.660    94164902.87407      2167.687          47.050    22996011.840    94164894.87507      2167.688          47.400    22996011.380    90241368.65608      2077.347          51.250
G16  20075346.660   105496680.80008      -610.344          51.850                                                                                                                                    20075345.860    82205215.91208      -475.593          51.850
G18  22438672.040   117916042.82507     -2711.999          47.100    22438671.800   117916031.82107     -2711.858          47.000    22438674.000    91882649.43108     -2113.247          49.750    22438673.760    91882644.42907     -2113.249          46.250    22438679.060    88054224.92308     -2025.263          52.600
G23  21876007.380   114959272.12808       963.262          48.900    21876007.200   114959276.13008       963.208          48.800    21876009.260    89578691.78608       750.595          50.200    21876009.000    89578683.78907       750.595          47.100    21876013.840    85846296.41108       719.310          53.100
G26  21596818.840   113492040.91208     -2627.744          50.600                                                                    21596822.760    88435369.58608     -2047.595          49.900    21596822.700    88435368.58708     -2047.595          50.600    21596822.860    84750576.98809     -1962.254          55.150
G27  20547169.060   107976144.06908      1329.506          53.500                                                                    20547171.320    84137288.40508      1035.979          52.650    20547170.960    84137286.40708      1035.979          53.650    20547171.300    80631590.78409       992.810          57.000
R07  23436322.260   125456512.12506       749.453          39.750    23436326.820    97577297.25306       582.912          39.900    23436326.880    97577288.24706       582.911          40.050
R08  23948874.240   128245163.56506      3172.839          37.750    23948881.760    99746274.14906      2467.773          37.500    23948881.480    99746274.14906      2467.773          38.200
R13  20799493.920   111068255.92707     -3496.391          44.300
R14  19619950.480   104585409.53508       951.828          53.000    19619954.280    81344228.24108       740.312          50.050    19619954.340    81344240.24408       740.312          50.600
R15  22957807.440   122679559.96607      3985.508          42.000    22957811.440    95417455.20706      3099.844          41.850    22957811.640    95417459.20507      3099.844          42.100
R17  23394833.380   125190528.74806      3397.623          40.850    23394839.520    97370393.18306      2642.597          38.600    23394839.380    97370400.20906      2642.601          39.700
R23  21100344.620   112872625.34207     -2986.166          47.200
R24  19802979.400   105895489.30808      1105.197          53.900    19802981.340    82363198.75708       859.598          49.700    19802981.340    82363190.76308       859.599          50.400
E02  25253372.800   132707382.05748      2180.396          49.150    25253377.620    99099702.99608      1628.264          50.000    25253375.040   107717050.98608      1769.833          50.200    25253375.020   101684899.24808      1670.698          49.650    25253375.760   100392289.42108      1649.464          53.300
E10  24477532.360   128630340.97348     -1577.838          53.100    24477537.300    96055169.24408     -1178.215          53.900    24477535.160   104407766.68409     -1280.643          54.400    24477535.180    98560943.09209     -1208.947          54.600    24477535.560    97308050.96609     -1193.571          57.750
E11  21830053.600   114717749.81348       -75.993          51.750    21830055.240    85665886.10608       -56.738          52.950    21830051.540    93115068.23708       -61.699          53.950    21830052.380    87900632.01308       -58.231          52.600    21830053.240    86783253.35809       -57.496          56.250
E12  25993860.060   136598665.27346     -2487.006          41.400    25993864.700   102005519.42407     -1857.000          45.650    25993860.440   110875546.52107     -2018.412          45.300    25993862.140   104666520.89707     -1905.361          44.650    25993862.480   103336016.95408     -1881.101          48.600
E16  25604106.740   134550478.69847     -2403.571          47.850    25604114.240   100476034.53708     -1794.877          49.700    25604109.260   109213060.75308     -1950.936          49.250    25604110.980   103097136.92808     -1841.729          49.050    25604111.880   101786572.53608     -1818.367          52.800
E25  23258322.240   122223322.91349      -330.095          55.050    23258327.620    91270707.14009      -246.522          55.700    23258322.480    99207262.06009      -267.951          57.200    23258324.760    93651667.47109      -252.949          55.750    23258325.700    92461171.10509      -249.730          59.150
E36  25183231.640   132338825.11148      2373.664          49.550    25183239.840    98824503.30408      1772.583          50.900    25183234.580   107417909.04708      1926.667          51.850    25183236.680   101402518.45008      1818.790          51.000    25183237.580   100113511.67509      1795.675          54.450
C06  39934690.840   209858221.05806      -673.333          39.350    39934690.780   207950428.64006      -667.276          40.750    39934695.400   156712337.67507      -502.990          42.650    39934691.100   168976765.02806      -542.256          38.650    39934691.700   160800466.77306      -516.148          38.050
C09                                                                  38857358.280   202340505.83107       108.839          44.250                                                                    38857362.040   164418287.81107        88.433          42.100                                                                    38857363.580   156462577.96607        84.048          44.150
C19  26077546.200   137038458.28706       637.764          36.650    26077547.700   135792664.90706       632.017          38.600    26077554.060   102333970.74807       476.263          44.850    26077548.480   110342693.15106       513.640          41.000    26077551.840   105003504.92806       488.630          40.200
C22  25740120.680   135265275.97906      2616.258          36.500    25740120.340   134035601.45106      2592.794          38.800    25740127.940   101009844.58907      1953.821          44.550    25740121.960   108914925.08706      2106.807          38.100    25740124.840   103644851.16506      2004.720          39.950
C24  22736849.120   119482943.28308     -1970.846          51.050    22736849.220   118396729.19308     -1952.804          52.750    22736850.120    89224274.56509     -1471.643          54.250    22736849.200    96207041.61808     -1586.824          50.950    22736847.700    91551854.13408     -1510.079          51.050
C25  23289447.060   122386882.86707      1416.765          46.750    23289447.580   121274278.50608      1403.798          48.750    23289449.800    91392825.35708      1057.831          49.750    23289448.460    98545294.33307      1140.607          47.200    23289447.180    93776974.00007      1085.459          46.050
C26  25643587.720   134757877.91306     -3461.832          36.950    25643587.060   133532824.07306     -3430.283          39.150    25643597.820   100630908.31407     -2585.260          42.300    25643593.900   108506368.62106     -2787.645          39.200    25643594.880   103256032.96606     -2652.643          37.800
C31  21555488.340   113274791.90008      -916.691          52.400    21555489.460   112245125.99509      -908.376          54.300    21555493.060    84588427.47509      -684.586          56.200    21555490.600    91208371.66408      -738.154          53.400    21555490.380    86795064.55608      -702.492          52.700
C34  22564618.980   118577928.04508      1769.842          48.450    22564618.940   117499953.94208      1753.864          50.550    22564623.560    88548513.79508      1321.664          52.550    22564622.020    95478371.88308      1425.094          49.850    22564620.780    90858456.36208      1356.155          48.550
C35  24879084.020   130740496.56607     -2642.205          42.100    24879084.180   129551896.39107     -2618.171          44.350    24879090.620    97630854.98907     -1973.045          45.050    24879087.220   105271529.82207     -2127.465          43.400    24879088.100   100177744.43807     -2024.454          42.300
S21  37763726.880                           5.224          46.500
S36  37791695.020   198596680.05407         1.376          47.750
> 2026 04 30 10 06  0.0000000  0 36
G02  24273873.280   127560060.73206      3369.356          38.800                                                                                                                                    24273875.920    99397471.26306      2625.474          37.200
G07  25064119.120   131712839.12606      1747.848          38.300                                                                    25064120.540   102633387.63106      1361.958          38.700    25064120.560   102633385.62506      1361.959          39.500
G08  22536593.060   118430616.65507      2705.180          43.900                                                                    22536597.320    92283630.26407      2107.934          45.300    22536596.800    92283627.25907      2107.934          43.900    22536597.240    88438488.88008      2020.100          50.200
G10  22980153.620   120761587.53007      2771.863          47.000                                                                    22980158.760    94099988.82607      2159.896          46.600    22980158.940    94099980.82107      2159.896          46.850    22980158.180    90179159.37608      2069.839          50.950
G16  20078882.520   105515261.67008      -628.554          51.650                                                                                                                                    20078881.720    82219694.49608      -489.783          51.850
G18  22454177.820   117997524.99807     -2720.118          47.250    22454177.600   117997514.00807     -2720.177          47.350    22454179.640    91946141.97208     -2119.573          49.400    22454179.420    91946136.97407     -2119.574          46.750    22454184.600    88115071.93908     -2031.322          52.450
G23  21870561.600   114930654.60808       944.372          48.400    21870561.420   114930658.61008       944.361          48.400    21870563.540    89556392.44108       735.874          50.300    21870563.280    89556384.43907       735.874          47.500    21870568.140    85824926.20408       705.225          53.050
G26  21611854.980   113571055.82708     -2640.022          50.550                                                                    21611858.860    88496939.58308     -2057.162          50.200    21611858.800    88496938.58008     -2057.162          50.600    21611858.920    84809581.55609     -1971.496          54.900
G27  20539609.040   107936416.06908      1318.938          53.250                                                                    20539611.320    84106331.52408      1027.744          52.700    20539610.960    84106329.52808      1027.745          53.200    20539611.300    80601923.77309       984.868          57.000
R07  23432188.780   125434384.72906       725.588          40.850    23432193.140    97560087.11206       564.350          40.100    23432193.280    97560078.10706       564.350          40.600
R08  23931127.280   128150127.98406      3162.917          37.050    23931134.100    99672357.71706      2460.054          37.550    23931133.880    99672357.71506      2460.057          38.050
R13  20819183.260   111173395.68007     -3512.853          44.050
R14  19614665.260   104557235.95208       926.286          52.950    19614669.040    81322315.44008       720.444          50.300    19614669.040    81322327.44108       720.444          51.200
R15  22935455.560   122560118.54707      3976.991          42.050    22935459.680    95324556.35306      3093.215          41.850    22935459.960    95324560.35306      3093.217          41.850
R17  23375803.920   125088697.56007      3390.890          42.050    23375810.100    97291191.18406      2637.358          40.250    23375809.920    97291198.18606      2637.357          41.500
R23  21117109.560   112962306.49607     -2992.743          47.100
R24  19796823.080   105862568.70308      1089.338          53.850    19796825.120    82337593.85508       847.264          50.000    19796825.100    82337585.85808       847.263          50.750
E02  25240939.620   132642045.41048      2175.082          48.750    25240944.460    99050912.66508      1624.313          49.900    25240941.820   107664018.01508      1765.554          50.050    25240941.940   101634836.11908      1666.694          49.700    25240942.640   100342862.68808      1645.576          53.400
E10  24486566.340   128677814.90148     -1587.319          52.950    24486571.400    96090620.52208     -1185.354          53.850    24486569.020   104446300.69709     -1288.411          54.000    24486569.280    98597319.18109     -1216.249          54.400    24486569.540    97343964.65009     -1200.811          57.750
E11  21830521.960   114720211.16248       -88.522          51.400    21830523.620    85667724.12008       -66.085          52.850    21830519.840    93117066.08308       -71.870          53.700    21830520.820    87902517.97508       -67.807          52.550    21830521.620    86785115.34609       -66.962          56.300
E12  26008070.580   136673342.38846     -2491.809          40.900    26008075.360   102061284.74707     -1860.896          45.550    26008070.980   110936161.03907     -2022.609          44.550    26008072.580   104723740.98807     -1909.400          44.600    26008073.160   103392509.66308     -1885.069          48.650
E16  25617847.260   134622685.68947     -2410.339          47.200    25617854.740   100529955.18908     -1799.940          49.300    25617849.740   109271670.22408     -1956.456          49.150    25617851.520   103152464.22708     -1846.936          49.050    25617852.600   101841196.50708     -1823.413          52.850
E25  23260237.720   122233388.96749      -341.074          54.850    23260243.160    91278223.97809      -254.724          55.600    23260237.960    99215432.54209      -276.864          56.800    23260240.240    93659380.40609      -261.373          55.700    23260241.220    92468785.99009      -258.055          59.250
E36  25169704.420   132267739.25348      2365.125          49.650    25169712.660    98771419.76408      1766.225          50.900    25169707.300   107360209.52108      1919.734          51.450    25169709.500   101348050.11008      1812.281          51.000    25169710.360   100059735.73509      1789.237          54.550
C06  39938550.300   209878502.87506      -678.865          38.550    39938550.400   207970526.05906      -672.712          40.500    39938554.400   156727483.11707      -506.922          42.300    39938550.320   168993095.79606      -546.656          38.200    39938551.420   160816007.31406      -520.240          38.700
C09                                                                  38856749.660   202337337.02407       102.523          44.250                                                                    38856753.540   164415712.89606        83.122          41.950                                                                    38856755.020   156460127.63407        79.160          43.750
C19  26073949.680   137019558.30006       622.191          37.300    26073950.960   135773936.74306       616.276          36.950    26073957.540   102319857.18007       464.477          45.300    26073951.940   110327474.99406       500.796          40.700    26073954.840   104989023.15006       476.521          39.900
C22  25725199.300   135186865.94406      2610.764          36.250    25725199.020   133957904.31106      2586.694          37.150    25725207.160   100951292.00807      1949.546          44.200    25725201.140   108851790.00706      2102.213          38.400    25725203.240   103584771.04906      2000.254          40.550
C24  22748138.120   119542267.24408     -1984.326          50.800    22748138.220   118455513.83808     -1966.180          52.600    22748139.180    89268574.85909     -1481.815          54.050    22748138.080    96254808.92008     -1597.779          50.250    22748136.780    91597310.09008     -1520.482          50.900
C25  23281402.840   122344610.09007      1401.573          46.150    23281403.400   121232390.03008      1388.715          48.450    23281405.620    91361258.01208      1046.606          49.700    23281404.080    98511256.50707      1128.527          46.750    23281402.860    93744583.16907      1073.851          45.850
C26  25663356.120   134861760.61505     -3463.609          35.950    25663355.440   133635762.37906     -3432.178          37.700    25663366.540   100708482.71606     -2586.709          41.450    25663362.300   108590014.18806     -2789.055          37.750    25663363.400   103335631.07906     -2654.062          37.850
C31  21560745.000   113302415.68208      -924.984          52.300    21560746.060   112272498.65809      -916.591          54.200    21560749.760    84609055.60609      -690.765          56.100    21560747.200    91230614.17408      -744.787          53.050    21560746.980    86816230.81108      -708.750          52.600
C34  22554536.220   118524943.32008      1762.204          48.250    22554536.140   117447450.89908      1746.271          50.150    22554540.800    88508947.30708      1315.942          52.400    22554539.300    95435708.87608      1418.943          49.400    22554538.160    90817857.69708      1350.311          48.700
C35  24894171.940   130819783.97907     -2643.753          42.200    24894172.340   129630463.00907     -2619.884          44.050    24894178.280    97690063.00707     -1974.204          44.950    24894175.480   105335371.54807     -2128.777          43.300    24894175.900   100238497.03406     -2025.885          41.900
S21  37763694.940                           5.540          46.300
S36  37791685.480   198596628.61207         1.636          47.700
> 2026 04 30 10 06 30.0000000  0 36
G02  24254653.880   127459063.32206      3363.232          38.050                                                                                                                                    24254656.680    99318772.00705      2620.701          34.850
G07  25054177.260   131660595.34206      1734.411          37.650                                                                    25054178.960   102592678.19206      1351.487          37.850    25054178.960   102592676.18306      1351.488          38.150
G08  22521163.360   118349533.88307      2700.062          44.050                                                                    22521167.840    92220448.93907      2103.945          45.400    22521167.280    92220445.94207      2103.945          43.550    22521167.660    88377940.12508      2016.385          50.250
G10  22964358.400   120678583.28507      2761.782          47.350                                                                    22964363.280    94035310.28407      2152.039          45.950    22964363.460    94035302.28307      2152.040          47.300    22964362.640    90117175.79908      2062.279          50.900
G16  20082522.100   105534387.86608      -646.750          51.800                                                                                                                                    20082521.320    82234598.00008      -503.962          51.700
G18  22469730.040   118079251.32507     -2728.352          47.800    22469729.860   118079240.32407     -2728.247          47.550    22469731.640    92009824.77308     -2125.989          49.600    22469731.500    92009819.76707     -2125.989          45.700    22469736.680    88176101.26708     -2037.383          52.700
G23  21865223.340   114902602.17808       925.567          48.850    21865223.200   114902606.16408       925.793          48.750    21865225.280    89534533.42908       721.222          49.950    21865225.060    89534525.42307       721.221          46.600    21865229.940    85803977.98108       691.185          53.200
G26  21626961.920   113650443.01508     -2652.287          50.500                                                                    21626965.860    88558799.65108     -2066.720          49.850    21626965.780    88558798.64808     -2066.720          50.250    21626965.840    84868864.10809     -1980.734          55.050
G27  20532109.900   107897007.86508      1308.339          53.100                                                                    20532112.160    84075623.84108      1019.485          52.600    20532111.800    84075621.84108      1019.485          53.250    20532112.200    80572495.57809       976.898          57.150
R07  23428189.040   125412972.91606       701.852          40.550    23428193.620    97543433.56806       545.889          40.850    23428193.660    97543424.56606       545.888          41.450
R08  23913435.360   128055390.73805      3152.694          33.950    23913442.880    99598673.42206      2452.105          38.600    23913442.560    99598673.41706      2452.105          39.800
R13  20838964.440   111279026.30707     -3529.251          44.100
R14  19609524.480   104529832.61408       900.578          53.100    19609528.280    81301001.72208       700.449          50.200    19609528.280    81301013.72708       700.450          50.950
R15  22913152.740   122440939.95007      3968.201          43.400    22913157.140    95231861.96306      3086.380          41.800    22913157.340    95231865.95107      3086.379          43.100
R17  23356812.200   124987069.57007      3384.252          43.000    23356818.320    97212147.25206      2632.198          40.750    23356818.060    97212154.26506      2632.198          41.700
R23  21133911.180   113052183.99407     -2999.073          46.800
R24  19790755.640   105830123.66908      1073.549          53.800    19790757.780    82312358.84108       834.983          49.800    19790757.720    82312350.84008       834.982          50.500
E02  25228536.680   132576867.75248      2169.924          49.550    25228541.600    99002241.05408      1620.386          50.200    25228539.060   107611114.09508      1761.273          49.950    25228539.080   101584894.82208      1662.667          50.050    25228539.760   100293556.24008      1641.474          53.350
E10  24495654.440   128725573.12848     -1596.675          53.050    24495659.540    96126284.10008     -1192.338          53.950    24495657.040   104485065.47109     -1296.021          54.000    24495657.360    98633913.12009     -1223.469          54.600    24495657.620    97380093.41109     -1207.936          57.550
E11  21831061.540   114723046.86348      -100.931          51.550    21831063.180    85669841.68708       -75.302          53.000    21831059.500    93119367.78608       -81.887          53.800    21831060.440    87904690.78708       -77.295          52.750    21831061.240    86787260.53809       -76.321          56.150
E12  26022310.480   136748173.46246     -2496.884          40.950    26022315.200   102117165.00907     -1864.652          45.600    26022310.840   110996900.48807     -2026.834          44.850    26022312.460   104781079.00407     -1913.313          44.750    26022313.120   103449118.80308     -1889.025          48.400
E16  25631626.480   134695095.88447     -2417.054          47.400    25631633.820   100584027.60408     -1805.009          49.400    25631628.940   109330444.63908     -1961.918          48.950    25631630.920   103207947.23308     -1852.042          49.250    25631631.940   101895974.21808     -1828.521          52.600
E25  23262215.840   122243784.11849      -352.042          55.000    23262221.300    91285986.57909      -262.935          55.800    23262216.000    99223870.15609      -285.762          56.750    23262218.400    93667345.50509      -269.750          55.900    23262219.380    92476649.84109      -266.337          59.050
E36  25156225.960   132196909.13448      2356.673          49.900    25156234.180    98718527.19408      1759.878          51.450    25156228.780   107302717.57608      1912.902          51.350    25156230.920   101293777.72508      1805.769          51.300    25156231.760   100006153.25509      1782.858          54.600
C06  39942439.940   209898942.76406      -683.991          39.350    39942440.040   207990780.13606      -677.613          40.300    39942443.880   156742746.63907      -510.807          42.750    39942440.040   169009553.86206      -550.808          38.300    39942441.180   160831669.02106      -524.106          38.200
C09                                                                  38856177.660   202334358.50607        95.879          44.300                                                                    38856181.600   164413292.57906        78.016          41.750                                                                    38856182.880   156457824.41707        74.283          44.050
C19  26070443.560   137001132.78206       606.133          37.650    26070444.160   135755678.69306       600.500          38.550    26070451.460   102306097.92107       452.677          44.900    26070445.760   110312638.89706       488.135          41.000    26070448.320   104974904.93206       464.554          40.600
C22  25710310.360   135108626.08606      2604.998          36.650    25710310.140   133880375.65906      2581.569          39.600    25710318.740   100892866.46307      1945.306          44.600    25710312.640   108788791.90006      2097.728          39.350    25710314.780   103524821.32706      1996.145          39.550
C24  22759504.540   119601997.97708     -1997.805          50.950    22759504.600   118514701.56908     -1979.562          52.150    22759505.520    89313178.91309     -1491.905          54.050    22759504.360    96302903.74908     -1608.650          50.000    22759503.140    91643077.73208     -1530.843          50.950
C25  23273444.780   122302790.21807      1386.424          46.200    23273445.300   121190950.33908      1373.930          48.550    23273447.620    91330028.88908      1035.304          49.900    23273446.040    98477583.36107      1116.367          46.900    23273444.740    93712539.36107      1062.320          46.150
C26  25683135.500   134965700.89205     -3465.889          35.050    25683134.740   133738757.70006     -3433.659          36.950    25683146.100   100786100.11406     -2588.094          41.400    25683141.680   108673706.10306     -2790.598          36.900    25683142.920   103415273.31406     -2655.391          37.650
C31  21566048.600   113330286.31708      -933.136          52.300    21566049.740   112300115.92309      -924.659          54.350    21566053.400    84629868.07809      -696.841          56.300    21566050.840    91253055.45608      -751.393          53.000    21566050.580    86837586.22208      -715.068          52.850
C34  22544496.840   118472186.59708      1754.754          48.450    22544496.740   117395173.77708      1738.776          50.100    22544501.440    88469551.07408      1310.298          52.650    22544499.900    95393229.45208      1412.898          49.400    22544499.000    90777433.74108      1344.436          49.100
C35  24909269.220   130899119.97207     -2645.038          42.250    24909269.640   129709077.78407     -2621.336          43.650    24909275.620    97749307.32507     -1975.408          45.450    24909272.980   105399252.39507     -2129.998          42.850    24909273.080   100299286.85407     -2026.911          42.050
S21  37763662.600                           5.637          46.350
S36  37791676.160   198596579.17807         1.735          47.750
> 2026 04 30 10 07  0.0000000  0 36
G02  24235468.400   127358242.91806      3357.235          37.900                                                                                                                                    24235471.060    99240210.61305      2616.022          33.650
G07  25044314.600   131608767.32906      1719.981          39.000                                                                    25044316.600   102552292.71206      1340.246          39.400    25044316.500   102552290.71006      1340.248          39.650
G08  22505761.960   118268599.19507      2695.019          44.250                                                                    22505766.480    92157383.01407      2100.017          45.550    22505765.940    92157380.00407      2100.016          44.650    22505766.200    88317501.94908      2012.381          50.050
G10  22948620.360   120595879.64507      2751.133          47.550                                                                    22948625.100    93970865.98507      2143.741          45.750    22948625.340    93970857.98007      2143.741          47.600    22948624.380    90055416.68908      2054.476          50.900
G16  20086264.620   105554054.70208      -665.064          51.950                                                                                                                                    20086263.780    82249922.79108      -518.231          51.900
G18  22485327.400   118161215.14107     -2736.397          47.850    22485327.240   118161204.14007     -2736.477          47.550    22485328.720    92073692.61608     -2132.261          48.850    22485328.580    92073687.62007     -2132.260          45.250    22485334.060    88237307.94708     -2043.545          52.450
G23  21859992.000   114875111.67908       906.552          48.600    21859991.860   114875115.68408       906.536          48.400    21859993.840    89513112.27908       706.405          50.250    21859993.660    89513104.27807       706.405          46.600    21859998.620    85783449.39108       676.927          53.100
G26  21642138.480   113730196.21108     -2665.024          50.250                                                                    21642142.400    88620944.91408     -2076.646          49.850    21642142.340    88620943.91308     -2076.646          50.200    21642142.420    84928419.96609     -1990.094          55.050
G27  20524670.800   107857915.60108      1297.319          53.400                                                                    20524673.140    84045162.34208      1010.898          52.850    20524672.760    84045160.34608      1010.898          53.300    20524673.180    80543303.30709       968.761          57.050
R07  23424322.140   125392273.62306       677.628          39.550    23424326.900    97527334.20906       527.047          40.150    23424326.780    97527325.21906       527.047          40.600
R08  23895799.300   127960951.77105      3142.625          34.950    23895807.060    99525221.10806      2444.269          38.100    23895806.800    99525221.10206      2444.267          38.100
R13  20858836.100   111385139.90307     -3545.597          44.000
R14  19604527.580   104503196.47708       874.615          53.000    19604531.360    81280284.71408       680.256          50.000    19604531.420    81280296.71708       680.256          50.600
R15  22890899.200   122322023.55507      3958.865          43.150    22890903.660    95139371.46906      3079.118          41.850    22890903.780    95139375.46106      3079.118          41.900
R17  23337857.960   124885641.18607      3377.331          42.550    23337863.980    97133258.56506      2626.814          41.300    23337863.660    97133265.56106      2626.814          41.600
R23  21150748.260   113142250.69007     -3005.834          46.950
R24  19784776.280   105798149.58208      1057.448          53.350    19784778.360    82287490.11508       822.460          49.400    19784778.320    82287482.12008       822.460          50.050
E02  25216163.400   132511845.99248      2164.280          49.150    25216168.440    98953685.86608      1616.168          50.150    25216165.740   107558336.69808      1756.727          50.050    25216165.860   101535072.96808      1658.362          49.700    25216166.520   100244367.71508      1637.288          53.300
E10  24504795.600   128773609.72548     -1606.281          53.350    24504800.700    96162155.55409     -1199.545          54.000    24504798.140   104524056.19209     -1303.834          54.150    24504798.380    98670720.34808     -1230.803          53.950    24504798.660    97416432.75109     -1215.191          57.400
E11  21831671.400   114726251.77248      -113.487          51.450    21831672.980    85672234.96208       -84.705          52.900    21831669.460    93121969.16708       -92.079          53.950    21831670.320    87907146.48908       -86.902          52.300    21831671.120    86789685.02509       -85.807          56.050
E12  26036578.620   136823152.32446     -2502.230          41.400    26036583.200   102173155.61407     -1868.486          45.350    26036578.820   111057759.88107     -2031.041          44.750    26036580.440   104838530.24707     -1917.254          44.300    26036581.220   103505839.72808     -1892.858          48.350
E16  25645443.460   134767704.16847     -2424.027          47.650    25645450.700   100638247.92408     -1810.147          49.250    25645446.020   109389379.82308     -1967.585          49.100    25645448.000   103263582.01708     -1857.386          48.750    25645448.920   101950901.77008     -1833.773          52.450
E25  23264255.840   122254504.37849      -363.246          54.900    23264261.320    91293991.94909      -271.266          55.700    23264255.980    99232571.65209      -294.881          56.850    23264258.420    93675559.71609      -278.357          55.550    23264259.400    92484759.63009      -274.800          59.050
E36  25142795.400   132126331.08848      2347.910          49.850    25142803.640    98665822.86208      1753.295          51.350    25142798.160   107245430.24208      1905.780          51.350    25142800.380   101239698.48808      1799.052          50.850    25142801.120    99952761.47209      1776.214          54.550
C06  39946358.500   209919535.87706      -689.470          38.250    39946358.800   208011186.02206      -683.001          40.600    39946362.880   156758124.52507      -514.864          43.100    39946359.020   169026135.26006      -555.136          38.200    39946359.640   160847448.08606      -528.348          37.950
C09                                                                  38855641.320   202331565.55707        89.551          44.300                                                                    38855645.280   164411023.07906        72.655          41.550                                                                    38855646.500   156455664.73207        69.124          44.000
C19  26067027.000   136983178.27506       590.284          37.600    26067027.840   135737887.44406       584.758          39.100    26067034.660   102292690.37607       440.738          44.900    26067029.080   110298182.05306       475.132          41.050    26067031.820   104961147.63506       452.211          40.900
C22  25695453.200   135030554.52206      2599.296          37.600    25695453.840   133803013.92806      2575.372          39.850    25695462.000   100834566.60707      1940.891          43.850    25695456.040   108725929.34706      2092.748          39.900    25695457.880   103465000.56406      1991.524          39.500
C24  22770947.240   119662129.38308     -2011.533          50.650    22770947.200   118574286.32808     -1993.228          51.950    22770948.120    89358082.16708     -1502.085          53.950    22770947.020    96351321.19808     -1619.667          49.900    22770945.780    91689152.37908     -1541.260          50.550
C25  23265572.320   122261420.19607      1371.020          46.450    23265572.640   121149956.41307      1358.636          47.950    23265575.240    91299135.68208      1023.793          49.750    23265573.580    98444272.43007      1103.927          46.800    23265572.240    93680840.24507      1050.531          45.700
C26  25702924.520   135069692.32105     -3468.414          33.700    25702923.940   133841803.72705     -3436.016          35.900    25702935.320   100863755.64506     -2589.583          40.600    25702930.840   108757439.16706     -2792.251          36.050    25702932.060   103494954.69805     -2656.992          35.600
C31  21571398.120   113358398.48108      -941.578          52.250    21571399.380   112327972.51209      -932.955          54.050    21571403.040    84650860.90609      -703.146          56.200    21571400.380    91275691.20108      -758.115          52.800    21571400.140    86859126.69008      -721.480          52.300
C34  22534500.040   118419653.47708      1746.872          48.600    22534499.940   117343118.22508      1731.098          50.050    22534504.680    88430321.82308      1304.485          52.400    22534503.020    95350930.07508      1406.555          49.100    22534502.340    90737181.11008      1338.554          48.650
C35  24924374.780   130978499.41906     -2647.158          41.950    24924375.060   129787735.59207     -2623.125          42.950    24924381.100    97808584.05707     -1976.817          45.050    24924378.240   105463168.23107     -2131.542          42.050    24924378.300   100360109.96006     -2028.492          41.400
S21  37763629.960                           5.316          46.350
S36  37791665.440   198596521.57807         1.650          47.850
> 2026 04 30 10 07 30.0000000  0 36
G02  24216317.700   127257606.46606      3351.457          36.800                                                                                                                                    24216320.540    99161792.68406      2611.528          36.250
G07  25034532.760   131557362.29606      1705.951          38.950                                                                    25034534.940   102512236.81806      1329.313          39.700    25034534.660   102512234.81606      1329.313          38.900
G08  22490390.100   118187819.24707      2689.640          44.300                                                                    22490394.480    92094437.64107      2095.826          46.050    22490394.000    92094434.63707      2095.825          44.500    22490394.120    88257179.29608      2008.549          50.050
G10  22932941.100   120513485.21307      2740.921          47.700                                                                    22932945.800    93906662.62407      2135.786          46.250    22932946.100    93906654.62107      2135.785          47.850    22932945.280    89993888.50708      2046.786          51.350
G16  20090111.180   105574268.36108      -683.214          51.750                                                                                                                                    20090110.300    82265673.66808      -532.375          51.700
G18  22500970.480   118243420.14407     -2744.439          47.150    22500970.420   118243409.15107     -2744.514          46.850    22500971.720    92137748.41508     -2138.527          48.600    22500971.520    92137743.41407     -2138.526          45.050    22500977.140    88298694.73008     -2049.493          52.150
G23  21854868.900   114848190.24008       887.576          48.400    21854868.680   114848194.24708       887.497          48.400    21854870.800    89492134.55308       691.618          50.050    21854870.600    89492126.55207       691.619          47.300    21854875.560    85763345.74008       662.767          53.150
G26  21657385.480   113810319.43708     -2677.354          50.300                                                                    21657389.400    88683378.52808     -2086.252          49.900    21657389.320    88683377.52108     -2086.252          50.000    21657389.500    84988252.15309     -1999.289          55.150
G27  20517293.100   107819145.69908      1286.630          53.250                                                                    20517295.520    84014952.03308      1002.568          52.800    20517295.140    84014950.03508      1002.569          53.250    20517295.540    80514351.76209       960.807          57.150
R07  23420589.420   125372294.58806       653.690          38.700    23420593.940    97511795.02206       508.427          39.850    23420594.000    97511786.01206       508.427          40.100
R08  23878220.520   127866821.26206      3132.317          37.300    23878228.520    99452008.66306      2436.252          37.350    23878228.160    99452008.66706      2436.252          38.000
R13  20878798.740   111491738.98307     -3561.764          43.500
R14  19599676.140   104477335.48908       848.732          53.250    19599679.860    81260170.60208       660.125          50.100    19599679.880    81260182.60308       660.125          50.900
R15  22868696.540   122203379.11707      3949.974          42.250    22868700.900    95047092.51807      3072.205          42.050    22868701.120    95047096.51307      3072.206          42.750
R17  23318942.400   124784419.35007      3370.259          42.750    23318948.040    97054530.54106      2621.316          41.600    23318947.720    97054537.55407      2621.317          42.150
R23  21167621.320   113232510.11407     -3012.244          46.800
R24  19778885.940   105766651.62708      1041.656          53.500    19778887.940    82262991.71508       810.177          49.450    19778887.960    82262983.72308       810.179          50.000
E02  25203821.220   132446987.28348      2158.883          49.550    25203826.340    98905252.43708      1612.119          50.300    25203823.520   107505691.65908      1752.318          49.950    25203823.600   101485376.05808      1654.216          49.700    25203824.320   100195302.54708      1633.157          53.200
E10  24513990.580   128821928.99648     -1615.684          53.350    24513995.740    96198238.09308     -1206.544          53.950    24513993.000   104563276.35609     -1311.451          54.100    24513993.160    98707744.17308     -1238.014          53.750    24513993.540    97452985.93009     -1222.257          57.050
E11  21832352.480   114729830.89348      -125.771          51.400    21832354.020    85674907.67708       -93.933          52.850    21832350.620    93124874.30208      -102.113          53.950    21832351.400    87909888.93408       -96.378          52.300    21832352.200    86792392.60609       -95.185          55.850
E12  26050875.700   136898283.22247     -2507.241          42.350    26050880.140   102229259.77907     -1872.271          45.300    26050875.680   111118742.71207     -2035.155          44.550    26050877.340   104896098.01707     -1921.152          44.250    26050878.280   103562675.70308     -1896.768          48.050
E16  25659299.240   134840515.67447     -2430.785          47.750    25659306.400   100692620.00208     -1815.166          49.150    25659301.940   109448479.96108     -1973.036          49.050    25659303.800   103319372.51708     -1862.521          48.800    25659304.640   102005983.05908     -1838.832          52.200
E25  23266358.900   122265556.04649      -374.266          54.950    23266364.400    91302244.80109      -279.505          55.700    23266359.080    99241542.15309      -303.814          56.900    23266361.520    93684027.86309      -286.804          55.550    23266362.480    92493120.12909      -283.163          58.850
E36  25129414.040   132056011.75348      2339.282          49.850    25129422.260    98613311.72008      1746.906          51.100    25129416.540   107188352.89108      1898.755          51.050    25129419.080   101185817.48408      1792.441          50.850    25129419.720    99899565.39909      1769.657          54.250
C06  39950307.220   209940287.42006      -694.379          38.850    39950307.880   208031748.97606      -688.557          40.100    39950312.100   156773620.78407      -518.840          43.050    39950308.120   169042844.29506      -559.398          38.550    39950308.840   160863348.60206      -532.381          38.650
C09                                                                  38855141.740   202328963.81907        83.307          44.150                                                                    38855145.680   164408908.93906        67.627          41.700                                                                    38855146.880   156453652.88607        64.254          43.950
C19  26063701.380   136965701.68306       574.352          38.000    26063702.200   135720569.71106       569.125          38.250    26063709.260   102279639.72107       428.876          45.050    26063703.660   110284110.01306       462.393          41.200    26063706.260   104947756.52206       439.999          40.800
C22  25680629.940   134952659.84106      2593.281          37.750    25680630.960   133725827.36506      2569.519          40.300    25680638.500   100776398.79907      1936.477          43.650    25680632.980   108663209.18506      2088.044          39.800    25680634.700   103405315.29606      1986.922          39.650
C24  22782466.980   119722665.68608     -2024.979          50.600    22782466.800   118634272.30408     -2006.473          51.700    22782467.940    89403287.77109     -1512.143          54.000    22782466.840    96400064.65708     -1630.440          50.300    22782465.520    91735537.26808     -1551.558          50.450
C25  23257786.840   122220507.12507      1355.840          46.600    23257786.920   121109415.28707      1343.446          47.550    23257789.820    91268583.71408      1012.404          49.700    23257788.200    98411329.44607      1091.640          46.950    23257786.720    93649491.27107      1038.872          45.650
C26  25722724.000   135173738.48705     -3469.712          33.250    25722723.520   133944903.98205     -3437.598          34.700    25722735.080   100941452.12306     -2590.958          39.700    25722730.580   108841216.34305     -2793.658          35.950    25722731.500   103574678.05605     -2658.082          34.450
C31  21576794.560   113386757.10408      -949.801          52.100    21576795.860   112356073.33208      -941.082          53.850    21576799.580    84672037.78609      -709.240          56.200    21576796.860    91298525.41308      -764.765          53.100    21576796.580    86880856.01408      -727.763          52.250
C34  22524546.960   118367349.87208      1739.208          48.750    22524546.880   117291290.11308      1723.501          49.900    22524551.600    88391263.95908      1298.811          52.350    22524549.880    95308815.50408      1400.472          49.300    22524549.300    90697104.34408      1332.701          48.550
C35  24939489.460   131057927.31506     -2648.728          41.200    24939489.520   129866441.42107     -2624.688          42.650    24939495.760    97867896.97607     -1977.918          45.050    24939492.680   105527123.08206     -2132.762          41.850    24939492.920   100420970.18306     -2029.460          41.350
S21  37763596.680                           5.250          46.150
S36  37791655.060   198596468.35507         1.144          47.600
> 2026 04 30 10 08  0.0000000  0 36
G02  24197202.460   127157155.17306      3345.427          36.900                                                                                                                                    24197205.200    99083518.98405      2606.829          32.300
G07  25024831.560   131506381.71806      1692.502          38.350                                                                    25024833.940   102472511.65506      1318.830          39.950    25024833.500   102472509.66106      1318.832          38.700
G08  22475047.660   118107194.34607      2684.813          44.150                                                                    22475052.080    92031613.08207      2092.063          45.600    22475051.540    92031610.08207      2092.063          44.500    22475051.560    88196972.44808      2004.948          50.000
G10  22917321.200   120431402.36607      2730.793          47.600                                                                    22917326.060    93842702.06407      2127.896          46.650    22917326.300    93842694.06107      2127.895          47.650    22917325.480    89932592.98608      2039.246          51.600
G16  20094061.620   105595028.05108      -700.900          51.600                                                                                                                                    20094060.760    82281850.02708      -546.157          51.800
G18  22516658.980   118325863.75807     -2752.126          46.700    22516658.920   118325852.75107     -2752.230          46.700    22516660.280    92201990.12408     -2144.517          48.850    22516660.080    92201985.12307     -2144.517          45.050    22516665.620    88360259.67608     -2055.152          52.050
G23  21849854.260   114821838.65708       868.777          48.750    21849854.020   114821842.65108       868.849          48.450    21849856.240    89471600.86808       676.970          49.750    21849856.000    89471592.86707       676.970          46.350    21849860.920    85743667.62008       648.838          53.150
G26  21672702.540   113890810.42408     -2689.209          50.200                                                                    21672706.460    88746098.69108     -2095.491          49.700    21672706.400    88746097.69008     -2095.491          50.300    21672706.580    85048358.95709     -2008.110          55.100
G27  20509976.800   107780698.36408      1276.258          53.250                                                                    20509979.280    83984993.08208       994.487          52.650    20509978.880    83984991.08408       994.487          53.250    20509979.240    80485641.09509       952.998          57.100
R07  23416991.380   125353036.69606       629.970          38.750    23416995.860    97496816.69906       489.974          40.150    23416996.040    97496807.68706       489.973          40.650
R08  23860700.380   127773003.30906      3122.091          38.100    23860708.380    99379039.30506      2428.301          38.500    23860708.140    99379039.29806      2428.300          38.350
R13  20898851.600   111598819.84307     -3577.360          43.600
R14  19594970.340   104452250.80208       823.166          53.050    19594974.060    81240660.28108       640.240          50.050    19594974.100    81240672.28508       640.240          50.650
R15  22846545.320   122085009.91907      3941.008          42.850    22846549.840    94955027.63606      3065.230          41.850    22846549.960    94955031.63006      3065.229          41.950
R17  23300065.540   124683404.90307      3363.635          42.300    23300070.960    96975963.79206      2616.162          40.600    23300070.600    96975970.80106      2616.164          41.600
R23  21184529.880   113322959.31307     -3018.104          46.650
R24  19773084.460   105735628.70608      1026.125          53.650    19773086.400    82238862.78308       798.097          49.250    19773086.420    82238854.78708       798.098          50.100
E02  25191510.220   132382292.59648      2153.691          49.350    25191515.440    98856941.49408      1608.306          50.300    25191512.420   107453179.75108      1748.089          49.900    25191512.480   101435804.82208      1650.259          49.900    25191513.280   100146361.45808      1629.276          53.350
E10  24523238.980   128870529.00148     -1624.703          53.350    24523244.100    96234530.26708     -1213.229          53.950    24523241.280   104602724.38609     -1318.756          54.000    24523241.360    98744983.10608     -1244.859          53.800    24523241.840    97489751.48709     -1229.083          57.150
E11  21833104.580   114733783.09548      -137.747          51.400    21833106.080    85677858.98908      -102.924          52.850    21833102.700    93128082.25208      -111.899          53.850    21833103.480    87912917.23608      -105.603          52.350    21833104.260    86795382.41309      -104.285          55.950
E12  26065201.380   136973564.20947     -2511.770          42.000    26065205.520   102285476.02407     -1875.668          45.050    26065201.180   111179847.34507     -2038.774          44.600    26065202.920   104953780.78707     -1924.692          44.200    26065203.880   103619625.20507     -1900.190          47.950
E16  25673193.420   134913529.34247     -2437.224          47.200    25673200.660   100747143.04708     -1819.972          49.250    25673196.140   109507744.19908     -1978.221          49.000    25673197.940   103375317.92408     -1867.447          49.100    25673198.820   102061217.28308     -1843.697          52.450
E25  23268525.040   122276939.16449      -385.011          54.850    23268530.560    91310745.16409      -287.477          55.650    23268525.300    99250781.68509      -312.484          56.850    23268527.720    93692749.97709      -294.991          55.600    23268528.620    92501731.36809      -291.240          58.900
E36  25116081.920   131985951.49448      2331.023          49.850    25116090.000    98560994.04708      1740.666          50.750    25116084.300   107131485.82808      1892.055          50.950    25116086.980   101132134.99008      1786.155          50.950    25116087.640    99846565.31409      1763.414          54.250
C06  39954286.000   209961196.62106      -699.266          37.800    39954286.680   208052468.08206      -693.318          39.550    39954291.140   156789234.70907      -522.457          43.300    39954286.820   169059680.21906      -563.255          37.650    39954288.180   160879369.87306      -536.225          39.000
C09                                                                  38854678.700   202326552.53407        77.227          44.500                                                                    38854682.680   164406949.55506        62.756          41.250                                                                    38854683.840   156451788.29907        59.738          44.200
C19  26060466.840   136948703.47406       558.836          37.250    26060467.280   135703726.04206       553.589          38.400    26060474.740   102266946.33207       417.152          44.600    26060469.400   110270423.21106       449.811          41.200    26060471.820   104934731.99306       428.000          41.050
C22  25665840.980   134874944.24606      2587.242          37.700    25665842.040   133648818.22806      2563.967          40.550    25665849.240   100718364.69307      1932.253          43.050    25665843.440   108600633.16506      2083.465          40.150    25665845.680   103345767.22906      1982.681          39.250
C24  22794063.340   119783604.83008     -2037.999          49.950    22794063.140   118694657.45808     -2019.539          52.050    22794064.420    89448794.20209     -1521.898          54.100    22794063.360    96449132.48708     -1641.038          49.900    22794061.980    91782230.82908     -1561.585          50.500
C25  23250088.480   122180051.97307      1340.862          46.550    23250088.500   121069327.89807      1328.590          47.800    23250091.460    91238373.68608      1001.231          49.550    23250089.900    98378755.16107      1079.586          46.400    23250088.360    93618493.16707      1027.315          45.800
C26  25742533.540   135277836.94005     -3470.951          33.150    25742533.060   134048056.11605     -3439.084          35.100    25742544.820   101019187.63206     -2591.865          39.000    25742540.360   108925035.64505     -2794.944          34.350
C31  21582237.680   113415360.90908      -957.526          52.100    21582238.980   112384417.10209      -948.770          54.000    21582242.680    84693397.75409      -715.050          56.050    21582240.140    91321557.03708      -771.033          52.550    21582239.720    86902773.20108      -733.711          52.400
C34  22514637.500   118315275.40308      1732.066          48.750    22514637.440   117239689.05308      1716.204          50.250    22514642.140    88352377.19708      1293.396          52.250    22514640.420    95266885.43708      1394.573          48.900    22514639.800    90657203.14808      1327.076          48.600
C35  24954612.880   131137402.43806     -2649.898          40.100    24954613.100   129945194.04307     -2626.108          42.200    24954619.420    97927245.15707     -1978.924          45.000    24954616.060   105591115.95106     -2133.775          41.300    24954616.780   100481866.59106     -2030.466          41.800
S21  37763563.360                           5.666          46.250
S36  37791645.980   198596423.06407         1.327          47.650
> 2026 04 30 10 08 30.0000000  0 36
G02  24178121.840   127056886.45606      3339.018          37.300                                                                                                                                    24178124.840    99005387.51806      2601.833          36.750
G07  25015210.540   131455822.98706      1678.396          39.400                                                                    25015213.140   102433115.22706      1307.840          39.750    25015212.700   102433113.22906      1307.841          39.300
G08  22459734.040   118026721.40507      2679.832          44.300                                                                    22459738.580    91968906.94507      2088.182          45.900    22459738.060    91968903.95607      2088.183          44.200    22459737.940    88136879.08308      2001.285          50.300
G10  22901760.280   120349629.93907      2720.615          47.150                                                                    22901765.200    93778983.37607      2119.964          46.800    22901765.420    93778975.37307      2119.963          47.150    22901764.620    89871529.27008      2031.595          51.400
G16  20098115.220   105616329.78408      -719.012          51.650                                                                                                                                    20098114.380    82298448.75508      -560.270          51.750
G18  22532391.640   118408539.81507     -2759.420          47.050    22532391.620   118408528.82907     -2759.726          46.700    22532393.160    92266412.95608     -2150.199          49.050    22532392.980    92266407.95507     -2150.200          44.950    22532398.380    88421998.23108     -2060.796          52.000
G23  21844947.680   114796054.20308       850.026          48.800    21844947.360   114796058.20508       850.059          48.600    21844949.480    89451509.10808       662.359          49.550    21844949.280    89451501.10307       662.359          46.700    21844954.260    85724413.02308       634.779          53.250
G26  21688088.440   113971663.45908     -2701.005          50.000                                                                    21688092.440    88809100.97608     -2104.682          50.050    21688092.340    88809099.97308     -2104.682          49.950    21688092.460    85108736.13709     -2017.026          55.050
G27  20502721.260   107742570.28908      1265.672          53.450                                                                    20502723.740    83955282.89508       986.237          52.650    20502723.360    83955280.89708       986.238          53.550    20502723.740    80457168.83609       945.157          57.300
R07  23413527.940   125334497.32106       606.198          40.750    23413532.740    97482397.27706       471.490          40.200    23413532.660    97482388.28106       471.491          40.750
R08  23843239.380   127679498.21706      3111.313          40.250    23843246.860    99306313.28606      2419.916          39.550    23843246.640    99306313.28806      2419.917          39.200
R13  20918993.380   111706375.15907     -3592.928          43.900
R14  19590409.780   104427940.26708       797.420          53.400    19590413.480    81221752.07508       620.215          50.250    19590413.580    81221764.07808       620.215          50.750
R15  22824445.600   121966916.11407      3931.981          42.500    22824450.220    94863176.94506      3058.210          41.450    22824450.200    94863180.96306      3058.210          41.750
R17  23281226.520   124582594.40306      3357.292          40.950    23281232.160    96897555.72806      2611.231          41.150    23281231.760    96897562.74706      2611.232          41.650
R23  21201472.600   113413591.45907     -3024.003          46.850
R24  19767370.940   105705076.27608      1010.664          53.700    19767372.920    82215099.79508       786.071          49.450    19767372.960    82215091.79608       786.071          50.300
E02  25179229.940   132317759.33448      2148.496          49.200    25179235.140    98808751.09208      1604.367          50.350    25179232.000   107400798.86508      1743.907          49.800    25179232.200   101386357.28608      1646.195          50.400    25179233.000   100097542.48608      1625.296          53.700
E10  24532539.740   128919404.27648     -1633.644          53.350    24532544.840    96271028.01009     -1219.938          54.100    24532541.980   104642395.85808     -1326.018          53.700    24532542.020    98782432.96509     -1251.748          54.050    24532542.520    97526725.28909     -1235.870          57.400
E11  21833926.760   114738103.63248      -149.970          51.600    21833928.240    85681085.35508      -112.031          52.900    21833924.840    93131589.17108      -121.763          53.400    21833925.600    87916227.76208      -114.929          52.600    21833926.440    86798650.85809      -113.507          56.100
E12  26079554.620   137048989.71047     -2516.643          42.200    26079558.480   102341800.18107     -1879.263          44.850    26079554.360   111241069.27207     -2042.600          44.400    26079556.220   105011574.26007     -1928.265          44.750    26079556.920   103676684.01908     -1903.747          48.250
E16  25687125.040   134986740.54947     -2443.604          47.050    25687132.500   100801813.60008     -1824.776          49.400    25687127.920   109567168.76108     -1983.396          48.350    25687129.940   103431414.67208     -1872.326          49.150    25687130.540   102116600.93508     -1848.566          52.600
E25  23270753.600   122288650.25349      -395.743          55.000    23270759.140    91319490.44209      -295.554          55.750    23270753.900    99260287.42809      -321.254          56.350    23270756.280    93701723.39609      -303.267          55.900    23270757.200    92510590.71509      -299.407          59.100
E36  25102798.560   131916147.18248      2322.661          49.900    25102806.380    98508867.48708      1734.431          50.700    25102800.800   107074826.50908      1885.266          50.750    25102803.600   101078648.60508      1779.708          51.250    25102804.300    99793758.84309      1757.079          54.350
C06  39958293.900   209982258.97606      -704.504          38.500    39958294.840   208073338.95406      -698.330          40.350    39958299.160   156804963.02407      -526.124          43.100    39958295.040   169076639.46606      -567.208          38.200    39958296.660   160895508.47806      -539.815          38.900
C09                                                                  38854251.360   202324327.52307        71.206          44.150                                                                    38854255.460   164405141.54906        57.781          41.500                                                                    38854256.700   156450067.77007        55.049          44.550
C19  26057322.720   136932180.78606       542.666          37.950    26057323.440   135687353.53406       538.026          40.200    26057330.160   102254607.98107       405.386          44.550    26057325.360   110257119.26006       437.102          41.450    26057327.540   104922071.76806       415.944          40.950
C22  25651085.780   134797406.38406      2581.892          38.250    25651087.000   133571985.28506      2558.252          40.600    25651093.620   100660463.35707      1927.886          44.100    25651088.200   108538200.34406      2078.647          39.700    25651090.400   103286355.38706      1978.037          40.500
C24  22805735.240   119844941.22308     -2051.019          50.000    22805735.100   118755436.23208     -2032.392          52.000    22805736.540    89494597.26809     -1531.653          54.200    22805735.440    96498520.17008     -1651.567          50.000    22805733.960    91829228.77208     -1571.604          50.600
C25  23242476.720   122140052.08007      1325.862          46.750    23242476.920   121029691.63808      1313.813          48.400    23242479.680    91208503.63008       990.060          49.600    23242478.260    98346547.44907      1067.419          46.550    23242476.700    93587843.89107      1015.817          46.300
C26  25762351.880   135381981.74005     -3472.206          32.700    25762351.360   134151254.19005     -3440.626          34.750    25762363.220   101096957.74806     -2592.765          37.850    25762358.740   109008892.23005     -2795.579          33.650
C31  21587726.580   113444205.08408      -965.335          52.250    21587727.860   112412999.06009      -956.528          54.300    21587731.480    84714937.21809      -720.900          56.100    21587729.140    91344782.20408      -777.364          52.700    21587728.640    86924874.56508      -739.690          52.750
C34  22504770.900   118263426.22508      1724.667          48.850    22504770.940   117188311.22408      1708.980          50.700    22504775.560    88313658.67508      1287.882          52.350    22504773.860    95225136.75208      1388.705          49.000    22504773.080    90617474.57308      1321.477          48.850
C35  24969744.600   131216920.21006     -2651.121          40.100    24969744.780   130023988.92207     -2627.126          43.150    24969751.220    97986625.18207     -1979.731          45.050    24969748.060   105655143.15306     -2134.805          41.600    24969748.920   100542795.68306     -2031.518          41.950
S21  37763529.340                           6.153          46.150
S36  37791635.440   198596373.54907         1.695          47.700
> 2026 04 30 10 09  0.0000000  0 36
G02  24159076.660   126956803.39106      3332.731          38.200                                                                                                                                    24159079.480    98927400.78806      2596.937          37.850
G07  25005670.460   131405689.35806      1663.971          38.200                                                                    25005673.080   102394050.06206      1296.601          38.900    25005672.680   102394048.05706      1296.601          38.050
G08  22444450.020   117946403.12207      2674.326          44.600                                                                    22444454.520    91906321.33007      2083.893          45.450    22444453.940    91906318.33007      2083.893          45.000    22444453.680    88076901.19008      1997.133          50.600
G10  22886259.380   120268172.62207      2709.812          47.700                                                                    22886264.240    93715510.23807      2111.544          46.350    22886264.520    93715502.23507      2111.544          47.600    22886263.600    89810700.86008      2023.543          51.400
G16  20102272.340   105638175.44708      -737.523          51.700                                                                                                                                    20102271.480    82315471.33108      -574.694          51.750
G18  22548168.620   118491448.17007     -2767.741          47.000    22548168.580   118491437.16107     -2767.698          47.000    22548170.360    92331016.80408     -2156.684          49.000    22548170.100    92331011.80507     -2156.683          45.000    22548175.320    88483910.23208     -2066.803          52.250
G23  21840149.580   114770839.99308       830.632          48.750    21840149.260   114770843.99308       830.659          48.550    21840151.320    89431861.68908       647.247          49.850    21840151.140    89431853.69007       647.247          46.200    21840156.280    85705584.25208       620.354          53.750
G26  21703543.200   114052878.59708     -2713.440          49.800                                                                    21703547.220    88872385.41608     -2114.371          49.850    21703547.180    88872384.41108     -2114.371          49.800    21703547.180    85169383.70709     -2026.261          55.200
G27  20495526.980   107704763.97408      1254.558          53.250                                                                    20495529.400    83925823.43908       977.577          52.550    20495529.000    83925821.44108       977.577          53.250    20495529.500    80428936.86009       936.850          57.600
R07  23410199.600   125316679.80906       581.583          40.200    23410204.680    97468539.27006       452.345          40.900    23410204.580    97468530.26406       452.344          41.350
R08  23825837.960   127586312.37606      3100.481          36.100    23825844.860    99233835.62206      2411.496          39.400    23825844.740    99233835.62906      2411.496          39.750
R13  20939223.660   111814403.00807     -3609.069          42.650
R14  19585995.200   104404407.85008       771.133          52.800    19585998.840    81203449.07008       599.770          50.000    19585998.940    81203461.07108       599.769          50.750
R15  22802398.500   121849103.36607      3922.393          42.600    22802403.220    94771544.89006      3050.752          41.000    22802403.220    94771548.89206      3050.752          41.000
R17  23262426.240   124481990.94906      3349.731          40.250    23262431.780    96819308.65106      2605.348          40.700    23262431.400    96819315.65606      2605.350          41.850
R23  21218449.700   113504406.55007     -3030.415          46.650
R24  19761745.700   105674995.94808       994.510          53.400    19761747.780    82191703.99808       773.508          49.300    19761747.780    82191696.00008       773.508          49.750
E02  25166981.000   132253390.78848      2142.636          49.300    25166986.240    98760683.69308      1600.003          50.800    25166983.020   107348551.68408      1739.146          50.350    25166983.320   101337035.94508      1641.805          50.250    25166984.080   100048848.12108      1620.877          53.900
E10  24541892.940   128968555.25148     -1643.171          53.500    24541898.100    96307731.63209     -1227.064          54.450    24541895.220   104682291.11509     -1333.755          54.000    24541895.200    98820094.07308     -1259.070          53.650    24541895.660    97563907.65209     -1243.063          57.400
E11  21834819.260   114742793.71748      -162.653          51.400    21834820.740    85684587.68108      -121.501          53.150    21834817.300    93135396.05408      -132.048          53.700    21834818.020    87919821.45908      -124.665          52.250    21834818.940    86802198.87109      -123.093          56.150
E12  26093935.300   137124560.03946     -2521.869          41.600    26093939.200   102398232.48907     -1883.004          45.250    26093934.960   111302408.77407     -2046.758          44.700    26093936.740   105069478.72907     -1932.305          44.500    26093937.520   103733852.40708     -1907.616          48.250
E16  25701094.440   135060150.51547     -2450.551          47.050    25701102.240   100856632.57508     -1829.989          49.450    25701097.360   109626754.66808     -1989.073          48.400    25701099.620   103487663.72908     -1877.663          48.950    25701100.180   102172134.95408     -1853.848          52.600
E25  23273045.040   122300691.65449      -407.098          54.850    23273050.560    91328482.38309      -304.035          55.900    23273045.260    99270061.28609      -330.478          56.650    23273047.680    93710949.91509      -311.955          55.600    23273048.620    92519699.94709      -307.994          59.150
E36  25089564.380   131846601.49348      2313.767          49.850    25089572.020    98456934.07308      1727.701          51.100    25089566.620   107018377.13108      1877.973          50.950    25089569.320   101025360.40608      1772.795          50.950    25089570.180    99741148.03609      1750.263          54.450
C06  39962331.260   210003475.92706      -709.923          37.500    39962332.160   208094363.04906      -703.779          40.200    39962336.680   156820806.79607      -530.253          43.500    39962332.900   169093723.20206      -571.647          38.450    39962334.220   160911765.57006      -544.080          38.850
C09                                                                  38853860.080   202322290.61607        64.410          44.000                                                                    38853864.420   164403486.36206        52.455          41.600                                                                    38853865.640   156448492.67807        49.877          44.650
C19  26054269.400   136916136.41906       526.461          36.300    26054270.500   135671455.05406       521.646          39.250    26054276.740   102242626.83507       393.251          44.500    26054271.980   110244200.46206       424.068          40.700    26054274.100   104909778.06406       403.530          40.650
C22  25636365.360   134720050.92206      2575.324          37.600    25636366.580   133495333.09806      2551.858          40.150    25636373.200   100602698.22907      1922.970          44.550    25636367.840   108475914.37106      2073.356          40.600    25636369.900   103227083.29406      1973.279          40.150
C24  22817482.800   119906675.10108     -2064.661          49.900    22817482.740   118816608.90108     -2045.926          51.750    22817484.120    89540697.17009     -1541.766          54.550    22817483.100    96548227.91408     -1662.447          50.150    22817481.580    91876531.28808     -1581.968          50.250
C25  23234952.180   122100510.67307      1310.177          46.300    23234952.680   120990509.68608      1298.229          48.600    23234955.140    91178975.94308       978.380          49.750    23234953.800    98314708.90807      1054.878          46.500    23234952.340    93557545.91407      1003.877          46.150
C26  25782178.960   135486172.79005     -3473.892          33.100    25782178.600   134254498.00605     -3443.018          33.750    25782190.300   101174762.39206     -2593.993          36.800    25782185.900   109092786.07405     -2797.467          32.050
C31  21593261.400   113473290.67508      -973.853          52.150    21593262.700   112441820.23109      -964.928          54.000    21593266.220    84736656.95409      -727.174          56.350    21593263.900    91368201.75008      -784.101          52.650    21593263.540    86947160.90308      -746.134          52.550
C34  22494947.540   118211804.29108      1716.720          48.950    22494947.680   117137158.58808      1701.135          50.400    22494952.240    88275109.85508      1281.949          52.650    22494950.540    95183571.07108      1382.276          48.850    22494949.620    90577920.12608      1315.382          48.700
C35  24984884.700   131296481.77006     -2653.013          40.500    24984885.140   130102827.17707     -2628.821          43.000    24984891.440    98046037.90607     -1981.154          45.350    24984888.360   105719205.61307     -2136.173          42.000    24984889.100   100603758.30406     -2032.707          41.350
S21  37763496.160                           5.589          46.200
S36  37791624.480   198596317.74307         1.350          47.600
> 2026 04 30 10 09 30.0000000  0 36
G02  24140067.420   126856908.82906      3326.107          38.600                                                                                                                                    24140070.260    98849560.91305      2591.774          35.750
G07  24996211.760   131355983.59106      1649.453          39.300                                                                    24996214.180   102355318.28506      1285.285          39.000    24996213.760   102355316.28906      1285.285          39.950
G08  22429195.800   117866241.51607      2669.252          44.950                                                                    22429200.200    91843857.80207      2079.939          45.650    22429199.640    91843854.79607      2079.938          44.800    22429199.280    88017040.30508      1993.364          50.900
G10  22870819.140   120187034.42507      2699.179          47.600                                                                    22870824.020    93652285.75907      2103.259          46.750    22870824.320    93652277.75807      2103.259          47.200    22870823.280    89750110.74508      2015.711          51.650
G16  20106533.180   105660566.27808      -755.585          51.600                                                                                                                                    20106532.340    82332918.70808      -588.769          51.650
G18  22563989.660   118574587.82407     -2775.259          47.100    22563989.620   118574576.82007     -2775.226          47.000    22563991.420    92395800.87808     -2162.544          48.750    22563991.220    92395795.88707     -2162.542          46.050    22563996.380    88545994.96508     -2072.375          52.600
G23  21835460.440   114746198.43308       811.690          48.900    21835460.120   114746202.43808       811.616          48.850    21835462.240    89412660.48908       632.486          50.000    21835462.020    89412652.49007       632.486          46.550    21835467.360    85687183.11409       606.234          54.050
G26  21719066.720   114134455.21908     -2725.376          49.900                                                                    21719070.840    88935951.53708     -2123.672          49.400    21719070.760    88935950.53408     -2123.673          49.850    21719070.820    85230301.22409     -2035.123          55.450
G27  20488394.220   107667281.25108      1243.914          53.450                                                                    20488396.580    83896616.12708       969.283          52.550    20488396.220    83896614.12908       969.283          53.550    20488396.720    80400946.51509       928.971          57.750
R07  23407006.840   125299586.67506       557.554          41.250    23407011.560    97455244.64406       433.653          41.050    23407011.620    97455235.63806       433.652          41.850
R08  23808496.840   127493451.46606      3089.709          38.950    23808503.360    99161610.67206      2403.111          37.000    23808503.560    99161610.68006      2403.110          37.150
R13  20959542.080   111922901.57207     -3624.458          43.000
R14  19581727.000   104381656.18208       745.228          53.300    19581730.700    81185753.31508       579.621          50.400    19581730.760    81185765.31708       579.620          51.450
R15  22780404.900   121731576.88807      3912.697          42.400    22780409.620    94680135.45507      3043.215          42.050    22780409.580    94680139.45307      3043.215          42.350
R17  23243664.820   124381596.70906      3342.671          39.800    23243670.820    96741224.35606      2599.857          40.900    23243670.400    96741231.36707      2599.857          42.050
R23  21235460.740   113595403.31107     -3036.342          46.950
R24  19756208.900   105645388.15809       978.982          54.100    19756210.940    82168675.72408       761.431          49.650    19756210.980    82168667.72708       761.430          50.200
E02  25154763.920   132189189.54248      2137.112          49.600    25154769.160    98712741.21608      1595.949          51.100    25154765.920   107296440.28608      1734.730          50.350    25154766.300   101287842.80008      1637.600          50.300    25154766.980   100000280.30508      1616.791          53.700
E10  24551298.520   129017981.62648     -1652.219          53.500    24551303.600    96344640.90309     -1233.764          54.550    24551300.840   104722409.90108     -1341.028          53.850    24551300.660    98857966.20708     -1265.961          53.350    24551301.220    97601298.35409     -1249.874          56.900
E11  21835782.140   114747853.71548      -174.865          51.650    21835783.640    85688366.24708      -130.591          53.400    21835780.140    93139503.19508      -141.959          53.500    21835780.820    87923698.59408      -134.020          52.150    21835781.820    86806026.72009      -132.304          55.800
E12  26108343.440   137200274.87946     -2526.158          41.500    26108347.400   102454772.72707     -1886.460          45.550    26108343.020   111363865.59507     -2050.538          44.250    26108344.900   105127493.96007     -1935.860          43.950    26108345.620   103791130.14207     -1911.141          47.750
E16  25715101.900   135133759.76747     -2457.026          47.500    25715109.800   100911600.35708     -1834.774          49.650    25715104.660   109686502.33108     -1994.342          48.050    25715107.260   103544065.48908     -1882.656          49.200    25715107.720   102227819.72508     -1858.748          52.350
E25  23275399.620   122313065.04849      -418.042          55.100    23275405.120    91337722.23009      -312.171          56.100    23275399.840    99280104.60609      -339.286          56.400    23275402.280    93720430.80209      -320.285          55.550    23275403.240    92529060.31509      -316.229          58.850
E36  25076379.860   131777316.46248      2305.119          50.000    25076387.480    98405195.29508      1721.390          51.550    25076381.940   106962139.30908      1871.040          50.800    25076384.800   100972271.91608      1766.251          51.000    25076385.640    99688734.40409      1743.815          54.250
C06  39966398.240   210024848.24006      -715.329          38.900    39966399.300   208115541.00106      -708.566          40.000    39966403.960   156836766.53907      -533.871          43.900    39966400.300   169110932.00006      -575.712          38.700    39966401.240   160928141.67006      -547.804          38.700
C09                                                                  38853505.200   202320442.65507        58.303          44.200                                                                    38853509.600   164401984.74406        47.437          41.600                                                                    38853510.880   156447063.70307        45.232          44.400
C19  26051307.220   136900572.49406       510.930          37.300    26051309.060   135656032.65306       506.048          39.800    26051314.900   102231004.48107       381.494          44.600    26051309.420   110231668.52106       411.231          40.300    26051312.360   104897852.52406       391.421          40.350
C22  25621680.420   134642881.71706      2569.067          36.500    25621681.440   133418865.41006      2545.818          39.800    25621688.320   100545072.17007      1918.500          44.500    25621682.700   108413778.30306      2068.788          40.250    25621684.980   103167953.91106      1968.457          40.050
C24  22829305.940   119968806.05808     -2077.833          49.950    22829306.000   118878175.01808     -2058.846          52.350    22829307.260    89587093.58309     -1551.558          54.800    22829306.320    96598255.37008     -1672.973          50.300    22829304.800    91924138.05108     -1591.966          50.150
C25  23227515.340   122061430.25907      1294.736          46.400    23227516.140   120951784.53808      1283.104          49.150    23227518.240    91149792.49708       966.947          49.700    23227516.980    98283241.53607      1042.579          46.600    23227515.700    93527601.16707       992.175          46.200
C26  25802014.560   135590501.12205     -3475.566          30.800    25802014.400   134357786.74905     -3443.632          32.150    25802026.160   101252600.89406     -2595.232          36.850    25802021.860   109176716.36505     -2798.076          30.600
C31  21598842.220   113502618.01108      -981.823          52.250    21598843.520   112470880.95009      -972.841          54.300    21598847.040    84758557.20809      -733.045          56.550    21598844.680    91391815.94708      -790.428          52.650    21598844.420    86969632.47408      -752.198          52.350
C34  22485167.720   118160410.90808      1709.128          49.300    22485167.840   117086232.41208      1693.660          50.550    22485172.340    88236731.70208      1276.408          52.750    22485170.640    95142189.40108      1376.247          48.800    22485169.780    90538540.79908      1309.690          48.800
C35  25000033.300   131376087.57306     -2654.259          41.150    25000033.860   130181709.27407     -2630.396          43.650    25000039.920    98105483.65807     -1982.105          45.450    25000037.180   105783303.66906     -2137.202          41.950    25000037.480   100664754.85506     -2033.890          41.350
S21  37763463.840                           5.396          46.300
S36  37791614.740   198596268.50607         1.345          47.950
> 2026 04 30 10 10  0.0000000  0 36
G02  24121094.100   126757202.57206      3320.575          38.500                                                                                                                                    24121096.640    98771867.79506      2587.464          37.650
G07  24986834.500   131306705.76706      1635.623          38.050                                                                    24986836.840   102316920.00306      1274.512          38.850    24986836.400   102316918.00506      1274.514          36.850
G08  22413971.220   117786236.23907      2664.409          44.250                                                                    22413975.700    91781516.07807      2076.165          45.750    22413975.120    91781513.07307      2076.165          44.500    22413974.780    87957296.16408      1989.601          51.100
G10  22855439.960   120106216.94607      2688.808          47.100                                                                    22855444.940    93589311.19007      2095.177          47.050    22855445.200    93589303.19307      2095.177          47.250    22855444.340    89689760.16308      2007.786          51.600
G16  20110897.460   105683500.82108      -773.576          51.450                                                                                                                                    20110896.680    82350789.75808      -602.788          51.650
G18  22579854.160   118657955.54307     -2782.747          46.800    22579854.060   118657944.53907     -2782.541          47.000    22579855.840    92460762.68008     -2168.377          48.600    22579855.680    92460757.68207     -2168.376          45.100    22579860.860    88608250.00808     -2077.856          52.200
G23  21830880.240   114722129.52508       792.755          48.300    21830879.940   114722133.52408       792.811          48.200    21830882.140    89393905.51808       617.730          50.350    21830881.860    89393897.52107       617.732          47.750    21830887.280    85669209.60808       592.061          53.700
G26  21734658.420   114216390.35008     -2736.940          49.350                                                                    21734662.600    88999797.00308     -2132.685          49.600    21734662.560    88999796.00208     -2132.685          49.400    21734662.680    85291486.44909     -2043.867          55.100
G27  20481322.980   107630121.57108      1233.517          53.100                                                                    20481325.340    83867660.53808       961.182          52.750    20481324.960    83867658.53808       961.182          52.900    20481325.400    80373197.41909       921.077          57.450
R07  23403949.300   125283218.35606       533.650          40.150    23403953.700    97442513.77906       415.063          40.250    23403953.740    97442504.77906       415.062          40.600
R08  23791217.280   127400918.74206      3079.049          38.250    23791223.360    99089640.94906      2394.824          38.550    23791223.540    99089640.95306      2394.825          38.600
R13  20979947.820   112031866.19307     -3639.814          43.250
R14  19577605.360   104359685.55108       719.445          52.900    19577609.160    81168665.03408       559.568          50.550    19577609.200    81168677.04008       559.568          51.300
R15  22758465.400   121614339.26607      3903.142          42.450    22758470.060    94588950.67507      3035.780          42.250    22758469.980    94588954.67907      3035.778          43.000
R17  23224942.620   124281411.35506      3336.254          39.700    23224948.800    96663302.51706      2594.864          40.400    23224948.440    96663309.52106      2594.864          41.000
R23  21252504.940   113686577.70507     -3041.917          46.900
R24  19750760.220   105616251.12008       963.487          53.650    19750762.160    82146013.59108       749.379          49.600    19750762.180    82146005.58908       749.379          50.400
E02  25142578.680   132125155.81848      2131.730          49.350    25142583.960    98664923.84408      1591.896          51.050    25142580.820   107244464.88708      1730.357          50.400    25142580.980   101238778.01508      1633.454          50.350    25142581.780    99951839.22908      1612.666          53.900
E10  24560755.940   129067680.72748     -1660.979          52.900    24560761.000    96381753.83509     -1240.379          54.350    24560758.360   104762750.05908     -1348.244          53.750    24560758.020    98896047.30608     -1272.755          53.400    24560758.680    97638895.37009     -1256.555          57.050
E11  21836815.080   114753281.80748      -187.064          51.200    21836816.620    85692419.68808      -139.666          53.150    21836813.060    93143909.10708      -151.802          53.350    21836813.720    87927857.77708      -143.331          52.300    21836814.760    86810133.03109      -141.471          56.000
E12  26122778.380   137276131.53446     -2530.881          40.750    26122782.460   102511418.84607     -1889.925          45.000    26122778.100   111425437.48507     -2054.234          44.200    26122780.000   105185617.79007     -1939.188          44.200    26122780.760   103848515.11707     -1914.583          47.850
E16  25729146.940   135207566.46747     -2463.344          46.900    25729154.800   100966715.59708     -1839.539          48.900    25729149.600   109746410.25407     -1999.504          47.750    25729152.460   103600618.52408     -1887.609          49.500    25729152.800   102283653.85508     -1863.535          52.350
E25  23277817.240   122325769.69249      -428.879          54.650    23277822.720    91347209.44109      -320.265          55.800    23277817.540    99290416.80309      -348.132          56.400    23277819.940    93730165.50809      -328.616          55.700    23277820.860    92538671.27409      -324.444          58.950
E36  25063244.840   131708291.66448      2296.563          50.100    25063252.580    98353650.85908      1714.970          51.600    25063246.860   106906112.72108      1864.132          50.850    25063249.780   100919382.83108      1759.711          51.400    25063250.600    99636517.64209      1737.351          54.700
C06  39970494.480   210046374.17406      -720.102          37.500    39970495.600   208136871.27806      -713.296          39.450    39970500.400   156852841.03907      -537.523          43.750    39970496.760   169128264.52906      -579.674          38.050    39970497.620   160944635.52906      -551.714          39.050
C09                                                                  38853186.420   202318782.27507        52.177          44.050                                                                    38853190.800   164400635.52906        42.578          41.150                                                                    38853192.160   156445779.77407        40.499          44.500
C19  26048436.540   136885488.92606       495.099          37.300    26048438.680   135641086.17406       490.501          39.150    26048444.440   102219740.78107       369.499          44.700    26048438.740   110219523.29406       398.476          40.150    26048442.060   104886294.96506       379.354          40.950
C22  25607031.200   134565900.22706      2563.294          37.500    25607032.080   133342583.75706      2539.688          40.000    25607038.520   100487586.25207      1913.918          44.750    25607033.560   108351793.43406      2063.720          39.700    25607035.400   103108968.33706      1963.819          39.550
C24  22841204.120   120031331.23808     -2090.628          49.700    22841204.260   118940131.78208     -2071.584          52.100    22841205.580    89633784.37809     -1561.154          54.700    22841204.580    96648600.26208     -1683.326          49.900    22841202.980    91972046.89008     -1601.934          50.400
C25  23220166.300   122022810.92007      1279.592          45.900    23220167.200   120913516.30408      1268.150          48.800    23220169.080    91120953.37808       955.671          49.400    23220167.920    98252145.44007      1030.434          46.000    23220166.700    93498009.71307       980.697          46.300
C26                                                                  25821858.100   134461117.27405     -3444.886          30.800    25821870.120   101330470.83406     -2596.040          36.550
C31  21604468.660   113532185.10008      -989.409          51.950    21604470.000   112500179.25809      -980.451          54.050    21604473.500    84780636.51009      -738.844          56.250    21604471.140    91415623.20508      -796.652          52.300    21604470.880    86992287.76208      -758.146          52.500
C34  22475431.180   118109244.94008      1701.886          48.750    22475431.260   117035531.59508      1686.340          50.600    22475435.680    88198523.37208      1270.862          52.450    22475434.000    95100990.84608      1370.306          48.350    22475433.300    90499335.73108      1304.003          49.050
C35  25015190.120   131455735.74106     -2655.505          41.700    25015190.520   130260633.34207     -2631.102          43.350    25015196.440    98164961.06507     -1982.972          44.750    25015193.660   105847435.88006     -2138.154          41.400    25015194.060   100725783.85806     -2034.821          41.500
S21  37763432.220                           5.686          45.900
S36  37791605.420   198596220.38807         1.568          47.400
> 2026 04 30 10 10 30.0000000  0 36
G02  24102156.720   126657685.78406      3314.186          39.700                                                                                                                                    24102159.320    98694322.28306      2582.482          38.950
G07  24977539.060   131257856.76006      1621.296          38.600                                                                    24977540.920   102278855.82506      1263.346          39.150    24977540.640   102278853.82906      1263.347          38.750
G08  22398776.420   117706387.60707      2659.073          44.300                                                                    22398780.920    91719296.42007      2072.007          45.300    22398780.380    91719293.40907      2072.007          44.300    22398780.140    87897668.98708      1985.709          51.350
G10  22840122.360   120025722.44607      2678.051          47.700                                                                    22840127.320    93526588.31207      2086.795          46.650    22840127.540    93526580.30607      2086.795          47.300    22840126.740    89629650.74608      1999.740          51.800
G16  20115365.120   105706978.21808      -791.328          51.300                                                                                                                                    20115364.320    82369083.80708      -616.620          51.250
G18  22595761.520   118741548.62207     -2789.899          46.600    22595761.380   118741537.61507     -2789.860          46.550    22595762.980    92525900.07608     -2173.951          48.250    22595762.840    92525895.08907     -2173.950          45.050    22595768.200    88670673.34808     -2083.415          52.100
G23  21826409.120   114698633.85608       773.748          48.350    21826408.840   114698637.85308       773.914          48.100    21826411.100    89375597.23408       602.922          50.350    21826410.880    89375589.22907       602.921          47.500    21826416.120    85651664.16708       577.865          53.550
G26  21750317.940   114298681.55408     -2748.716          49.350                                                                    21750322.180    89063919.93208     -2141.860          49.700    21750322.160    89063918.93108     -2141.860          49.300    21750322.320    85352937.57509     -2052.698          54.950
G27  20474313.220   107593285.02608      1222.840          53.100                                                                    20474315.600    83838956.74108       952.862          52.800    20474315.220    83838954.74508       952.862          53.050    20474315.540    80345689.61909       913.054          57.400
R07  23401027.160   125267575.54806       509.508          40.000    23401031.480    97430347.22506       396.286          41.100    23401031.560    97430338.23407       396.287          42.000
R08  23773999.400   127308717.91306      3068.257          36.000    23774005.100    99017929.39306      2386.433          40.250    23774005.360    99017929.40106      2386.435          40.800
R13  21000439.860   112141292.26107     -3654.847          43.750
R14  19573630.500   104338497.79008       693.422          53.200    19573634.500    81152185.65408       539.328          50.700    19573634.500    81152197.66008       539.327          51.600
R15  22736580.600   121497393.85607      3893.548          43.050    22736585.220    94497993.18906      3028.315          41.800    22736585.180    94497997.19207      3028.315          42.600
R17  23206259.700   124181435.50106      3329.188          40.300    23206265.820    96585543.62906      2589.370          40.500    23206265.540    96585550.63406      2589.371          41.000
R23  21269581.860   113777927.13707     -3047.509          46.700
R24  19745399.280   105587583.61509       947.974          54.250    19745401.200    82123716.64908       737.312          49.950    19745401.220    82123708.65708       737.313          50.500
E02  25130425.480   132061290.44248      2126.195          49.550    25130430.840    98617232.18308      1587.788          51.100    25130427.540   107192626.11408      1725.843          50.600    25130427.760   101189842.22708      1629.158          50.150    25130428.560    99903525.50208      1608.480          53.750
E10  24570264.800   129117650.50548     -1669.895          52.800    24570269.920    96419068.89909     -1247.056          54.250    24570267.340   104803309.91808     -1355.523          53.850    24570266.920    98934335.81308     -1279.615          53.100    24570267.680    97676697.15609     -1263.352          56.800
E11  21837917.760   114759076.48748      -199.213          51.150    21837919.380    85696746.87908      -148.713          53.100    21837915.740    93148612.57908      -161.693          53.550    21837916.420    87932297.85708      -152.641          52.050    21837917.460    86814516.66909      -150.695          55.750
E12  26137239.840   137352127.78146     -2535.561          40.150    26137244.180   102568169.18007     -1893.271          44.800    26137239.800   111487122.66107     -2057.915          44.400    26137241.820   105243848.58007     -1942.646          44.000    26137242.440   103906005.67907     -1917.969          47.500
E16  25743229.360   135281569.38547     -2469.834          46.550    25743237.200   101021977.34508     -1844.293          48.750    25743232.000   109806477.43308     -2004.717          48.250    25743234.940   103657321.89308     -1892.403          48.800    25743235.120   102339636.42008     -1868.367          51.900
E25  23280297.900   122338805.48849      -439.825          54.700    23280303.380    91356943.94809      -328.468          55.800    23280298.280    99300997.79309      -357.023          56.600    23280300.600    93740153.95709      -337.024          55.450    23280301.520    92548532.75309      -332.760          58.750
E36  25050159.400   131639527.33848      2287.997          50.000    25050167.240    98302300.92508      1708.526          51.400    25050161.520   106850297.55608      1857.072          51.000    25050164.360   100866693.33308      1753.057          51.150    25050165.140    99584497.92609      1730.784          54.400
C06  39974619.680   210068052.74006      -724.361          37.400    39974621.040   208158352.79306      -718.232          40.800    39974625.580   156869029.55707      -541.360          43.200    39974622.160   169145719.99806      -583.895          38.300    39974623.240   160961246.34406      -555.395          39.200
C09                                                                  38852903.560   202317308.70807        46.169          45.200                                                                    38852907.820   164399438.13906        37.582          41.050                                                                    38852909.220   156444640.31307        35.704          44.100
C19  26045657.740   136870885.96806       478.923          37.650    26045659.600   135626615.95206       474.641          40.300    26045665.680   102208835.97307       357.630          44.800    26045660.120   110207765.07606       385.490          40.350    26045663.160   104875105.70506       366.855          39.950
C22  25592418.120   134489108.68506      2556.768          37.650    25592418.960   133266490.33106      2533.766          41.050    25592425.320   100430242.20107      1909.129          43.850    25592420.340   108289961.47806      2058.667          39.250    25592422.000   103050128.29606      1959.132          39.300
C24  22853176.960   120094248.38708     -2103.478          49.800    22853177.140   119002476.94708     -2084.401          53.000    22853178.440    89680767.88709     -1570.854          54.650    22853177.380    96699260.76508     -1693.821          49.900    22853175.840    92020256.06408     -1611.836          50.050
C25  23212905.140   121984653.41907      1264.530          45.750    23212906.040   120875705.70208      1252.959          49.250    23212907.900    91092459.14608       944.244          49.250    23212906.720    98221421.23507      1018.039          46.150    23212905.540    93468772.17307       968.873          46.100
C26  25841709.340   135799098.69614     -3477.799          28.150    25841709.860   134564486.98905     -3446.345          31.700    25841721.520   101408370.33405     -2596.837          35.900
C31  21610140.480   113561990.54508      -997.360          51.900    21610141.860   112529713.73109      -988.112          54.900    21610145.340    84802893.79709      -744.746          56.200    21610142.880    91439622.37308      -803.040          52.150    21610142.700    87015125.67408      -764.144          52.250
C34  22465737.820   118058305.91808      1694.354          48.900    22465737.880   116985055.64508      1679.029          51.300    22465742.220    88160484.51408      1265.248          52.300    22465740.600    95059975.02108      1364.254          48.350    22465739.940    90460304.54408      1298.342          48.900
C35  25030354.720   131535425.03506     -2657.044          41.200    25030354.940   130339598.20707     -2632.523          43.950    25030360.940    98224469.20207     -1983.921          44.550    25030358.100   105911601.20506     -2139.150          41.450    25030358.560   100786844.39306     -2035.840          41.350
S21  37763400.040                           5.875          46.000
S36  37791595.680   198596167.02007         1.792          47.350
> 2026 04 30 10 11  0.0000000  0 36
G02  24083255.780   126558360.55306      3307.771          40.050                                                                                                                                    24083258.280    98616926.07906      2577.483          38.350
G07  24968325.440   131209438.75506      1606.790          39.700                                                                    24968327.240   102241127.48306      1252.045          40.200    24968326.980   102241125.48706      1252.046          40.000
G08  22383611.820   117626697.25907      2653.912          44.550                                                                    22383616.300    91657200.08207      2067.986          45.550    22383615.760    91657197.07907      2067.984          44.600    22383615.660    87838160.01808      1981.732          51.850
G10  22824866.940   119945554.52607      2666.782          47.500                                                                    22824871.780    93464119.89207      2078.015          47.000    22824871.980    93464111.88707      2078.014          47.650    22824871.380    89569785.20308      1991.448          51.850
G16  20119936.200   105730999.36608      -809.746          51.450                                                                                                                                    20119935.360    82387801.56008      -630.972          51.600
G18  22611711.340   118825365.82007     -2797.497          45.900    22611711.240   118825354.82207     -2797.467          45.950    22611712.760    92591212.13608     -2179.870          48.100    22611712.580    92591207.12807     -2179.871          45.400    22611718.080    88733264.03708     -2089.082          52.300
G23  21822047.460   114675713.38108       754.497          48.450    21822047.220   114675717.38508       754.524          48.450    21822049.460    89357737.14608       587.919          50.200    21822049.240    89357729.14407       587.920          47.250    21822054.460    85634548.25808       563.390          53.750
G26  21766045.100   114381327.86508     -2760.812          49.450                                                                    21766049.360    89128319.57408     -2151.282          49.400    21766049.320    89128318.57308     -2151.283          49.400    21766049.540    85414653.88209     -2061.609          55.050
G27  20467365.280   107556773.14208      1211.577          53.250                                                                    20467367.620    83810505.92608       944.086          52.850    20467367.240    83810503.93008       944.086          53.100    20467367.580    80318424.25109       904.822          57.700
R07  23398240.500   125252660.16206       485.120          40.000    23398244.980    97418746.40906       377.315          39.950    23398245.020    97418737.41306       377.315          40.700
R08  23756844.340   127216854.64106      3056.493          38.050    23756850.360    98946480.43306      2377.277          41.000    23756850.600    98946480.43106      2377.277          41.850
R13  21021017.960   112251177.88407     -3670.451          43.000
R14  19569802.860   104318094.65908       666.983          53.050    19569806.920    81136316.53808       518.764          50.400    19569806.900    81136328.54308       518.764          51.050
R15  22714751.500   121380745.62807      3883.438          43.200    22714755.900    94407266.83206      3020.451          41.550    22714755.840    94407270.82806      3020.447          41.700
R17  23187616.360   124081671.13206      3321.984          41.000    23187621.900    96507949.22006      2583.765          39.450    23187621.940    96507956.21806      2583.764          39.600
R23  21286691.120   113869450.13107     -3053.572          47.200
R24  19740126.260   105559386.08908       932.138          53.650    19740128.120    82101785.24908       724.996          49.700    19740128.120    82101777.25208       724.996          50.250
E02  25118304.780   131997595.68948      2120.336          49.750    25118310.220    98569667.94508      1583.345          51.400    25118306.740   107140925.84608      1721.051          50.900    25118306.940   101141037.17508      1624.648          50.350    25118307.820    99855340.85909      1603.996          54.050
E10  24579825.040   129167890.32548     -1679.123          52.800    24579830.160    96456585.61309     -1253.925          54.350    24579827.580   104844088.96308     -1362.884          53.950    24579827.200    98972831.22408     -1286.549          53.200    24579828.060    97714703.21909     -1270.239          57.000
E11  21839090.220   114765237.87748      -211.610          51.100    21839091.900    85701347.91608      -157.955          53.200    21839088.200    93153613.70508      -171.705          53.750    21839088.920    87937018.91608      -162.069          52.250    21839089.940    86819177.71609      -160.029          56.000
E12  26151727.880   137428262.94046     -2540.144          40.650    26151732.440   102625023.28907     -1896.883          45.050    26151727.940   111548920.62807     -2061.672          44.400    26151729.860   105302185.84907     -1946.359          44.250    26151730.520   103963601.36107     -1921.600          47.900
E16  25757349.080   135355768.70447     -2476.525          46.400    25757357.000   101077385.76308     -1849.380          48.650    25757351.600   109866704.03808     -2010.163          48.350    25757354.640   103714175.77008     -1897.621          49.000    25757354.900   102395767.56108     -1873.438          52.100
E25  23282841.860   122352173.76349      -451.142          54.750    23282847.340    91366926.72309      -336.863          55.900    23282842.240    99311848.64209      -366.146          56.800    23282844.520    93750397.15809      -345.646          55.650    23282845.440    92558645.73609      -341.236          59.000
E36  25037123.780   131571025.10348      2279.036          50.050    25037131.720    98251146.71908      1701.833          51.500    25037126.240   106794695.14308      1849.868          51.650    25037128.800   100814204.65608      1746.257          51.300    25037129.560    99532676.48509      1724.042          54.650
C06  39978774.080   210089884.42006      -730.328          37.200    39978775.460   208179985.96306      -723.643          39.850    39978779.940   156885332.33807      -545.253          43.700    39978776.800   169163298.67906      -588.005          39.300    39978777.760   160977974.42506      -559.349          39.250
C09                                                                  38852656.720   202316022.66307        39.832          44.550                                                                    38852660.760   164398393.09906        32.307          41.800                                                                    38852662.220   156443645.84707        30.706          44.250
C19  26042970.700   136856765.38106       462.934          37.600    26042972.660   135612623.74406       458.697          40.500    26042978.880   102198291.41207       345.452          45.550    26042972.980   110196395.27306       372.607          40.800    26042975.800   104864286.04606       354.585          40.300
C22  25577841.880   134412510.56606      2549.931          37.200    25577842.660   133190588.58606      2526.911          40.150    25577848.880   100373042.57507      1904.319          43.700    25577843.720   108228285.26306      2053.410          40.000    25577845.420   102991436.48606      1953.865          39.750
C24  22865224.300   120157556.72208     -2116.888          50.050    22865224.380   119065209.74608     -2097.561          52.100    22865225.780    89728043.50309     -1580.641          54.600    22865224.580    96750236.24408     -1704.397          50.500    22865223.060    92068764.97108     -1621.915          50.200
C25  23205732.320   121946959.89307      1248.578          45.950    23205733.040   120838354.84508      1237.428          48.100    23205735.020    91064311.37508       932.535          49.550    23205733.740    98191070.59107      1005.527          46.650    23205732.660    93439890.10907       956.879          46.400
C26                                                                  25861568.560                       -3448.716          29.200    25861580.240   101486298.44305     -2597.787          34.450
C31  21615857.660   113592034.36008     -1005.387          51.950    21615859.060   112559484.42909      -996.246          54.150    21615862.540    84825329.09309      -750.773          56.350    21615859.960    91463813.48308      -809.526          52.850    21615859.800    87038146.24008      -770.346          52.350
C34  22456087.860   118007594.82408      1686.560          49.000    22456087.880   116934805.56808      1671.278          50.750    22456092.160    88122615.85708      1259.480          52.500    22456090.540    95019142.73208      1358.040          48.900    22456089.920    90421448.01508      1292.322          49.050
C35  25045526.980   131615155.57606     -2658.193          40.900    25045527.320   130418603.93507     -2634.178          43.100    25045533.360    98284008.14807     -1985.223          44.800    25045530.440   105975799.75307     -2140.440          42.050    25045531.100   100847936.52006     -2036.981          41.900
S21  37763367.960                           5.594          46.050
S36  37791586.840   198596118.94007         1.594          47.350
> 2026 04 30 10 11 30.0000000  0 36
G02  24064391.740   126459229.76606      3301.627          39.850                                                                                                                                    24064394.480    98539681.39206      2572.701          39.200
G07  24959194.260   131161454.82406      1592.299          38.550                                                                    24959196.380   102203737.44206      1240.754          39.500    24959196.100   102203735.43606      1240.753          38.950
G08  22368477.860   117547167.62507      2648.488          44.900                                                                    22368482.160    91595228.98207      2063.759          44.550    22368481.600    91595225.97707      2063.759          44.650    22368481.800    87778771.04708      1977.784          51.800
G10  22809674.380   119865717.44907      2656.053          47.650                                                                    22809679.080    93401909.27407      2069.654          46.950    22809679.280    93401901.27407      2069.655          47.900    22809678.720    89510166.72408      1983.315          51.500
G16  20124610.980   105755565.56108      -827.816          51.650                                                                                                                                    20124610.140    82406944.02308      -645.053          51.600
G18  22627703.680   118909406.55207     -2804.729          45.800    22627703.600   118909395.56907     -2804.977          45.950    22627705.140    92656698.35507     -2185.506          47.600    22627705.000    92656693.35507     -2185.506          44.800    22627710.460    88796021.65508     -2094.556          51.900
G23  21817795.880   114653370.77808       735.138          48.850    21817795.600   114653374.77508       735.239          48.650    21817797.720    89340327.33908       572.835          50.000    21817797.540    89340319.33807       572.835          47.000    21817802.900    85617863.86108       549.140          53.600
G26  21781839.780   114464328.95108     -2772.311          49.450                                                                    21781843.960    89192995.65708     -2160.245          49.200    21781843.920    89192994.65608     -2160.245          50.000    21781844.320    85476635.11409     -2070.261          54.850
G27  20460479.480   107520587.99508      1200.921          53.550                                                                    20460481.800    83782309.71608       935.782          52.800    20460481.420    83782307.71808       935.782          53.450    20460481.800    80291402.88309       896.819          57.550
R07  23395590.300   125238475.18906       460.716          40.250    23395594.920    97407713.70706       358.332          40.100    23395594.840    97407704.69906       358.331          40.400
R08  23739753.660   127125334.41606      3045.178          39.350    23739759.720    98875298.26106      2368.476          40.150    23739759.760    98875298.26906      2368.478          40.700
R13  21041681.740   112361520.86707     -3685.555          43.350
R14  19566123.060   104298479.45708       640.932          53.100    19566127.100    81121060.26708       498.504          50.750    19566127.100    81121072.27508       498.504          51.650
R15  22692978.860   121264400.03507      3873.443          43.350    22692983.580    94316775.88007      3012.681          42.750    22692983.440    94316779.88807      3012.680          43.150
R17  23169012.860   123982120.49506      3314.920          41.100    23169018.180    96430521.03606      2578.272          39.300    23169018.280    96430528.05106      2578.271          39.700
R23  21303832.760   113961145.83007     -3059.203          46.750
R24  19734941.240   105531659.46008       916.630          53.650    19734943.060    82080220.10108       712.935          50.050    19734943.100    82080212.09808       712.934          50.700
E02  25106217.040   131934074.49148      2114.683          49.900    25106222.580    98522233.29808      1579.160          51.350    25106218.940   107089366.44608      1716.480          50.900    25106219.180   101092365.10008      1620.324          50.200    25106220.120    99807287.49309      1599.771          54.200
E10  24589436.760   129218400.19748     -1687.910          52.800    24589441.880    96494303.99209     -1260.459          54.250    24589439.300   104885087.22309     -1370.080          54.000    24589439.040    99011533.56708     -1293.313          53.100    24589439.820    97752913.57909     -1276.898          57.100
E11  21840332.640   114771766.74948      -223.598          51.600    21840334.320    85706223.37508      -166.947          52.950    21840330.580    93158913.11408      -181.471          53.650    21840331.320    87942021.56008      -171.303          52.000    21840332.340    86824116.76709      -169.109          55.950
E12  26166242.440   137504536.94746     -2544.499          41.150    26166247.060   102681981.07107     -1900.154          44.650    26166242.520   111610831.29907     -2065.453          44.000    26166244.540   105360629.49207     -1949.727          44.000    26166245.060   104021302.07307     -1924.856          47.750
E16  25771506.340   135430165.23747     -2482.877          46.350    25771514.220   101132941.46008     -1854.085          48.550    25771508.780   109927090.71507     -2015.399          47.850    25771511.860   103771180.75908     -1902.498          48.650    25771512.220   102452047.91008     -1878.333          51.950
E25  23285449.420   122365876.44449      -462.107          54.950    23285454.940    91377159.21709      -345.053          55.700    23285449.740    99322970.93509      -375.096          56.650    23285452.080    93760896.58809      -354.096          55.350    23285453.000    92569011.70109      -349.583          59.000
E36  25024138.480   131502787.28248      2270.422          50.000    25024146.440    98200189.95808      1695.372          51.400    25024141.140   106739307.34208      1842.823          51.700    25024143.560   100761918.58408      1739.636          51.000    25024144.300    99481055.06909      1717.492          54.700
C06  39982958.000   210111870.14106      -735.330          38.150    39982959.300   208201771.83506      -728.402          39.400    39982963.680   156901750.18407      -548.985          43.200    39982960.900   169181001.40606      -592.061          39.450    39982961.620   160994820.58506      -563.307          38.700
C09                                                                  38852446.040   202314925.23707        33.747          44.000                                                                    38852449.940   164397501.35106        27.312          41.650                                                                    38852451.440   156442797.24807        25.938          43.700
C19  26040375.940   136843129.62206       446.830          38.000    26040378.200   135599111.94006       442.751          39.700    26040384.160   102188108.88307       333.507          44.850    26040378.220   110185415.83606       359.757          40.750    26040380.840   104853837.87806       342.430          40.000
C22  25563303.100   134336110.08006      2543.220          36.950    25563303.900   133114882.65106      2520.542          39.050    25563309.960   100315990.53007      1899.473          42.950    25563304.820   108166768.20206      2048.131          40.000    25563306.720   102932896.09006      1948.890          40.050
C24  22877346.020   120221256.04908     -2129.617          50.400    22877345.980   119128330.00208     -2110.246          51.700    22877347.400    89775611.11209     -1590.266          54.250    22877346.200    96801526.56008     -1714.776          50.550    22877344.680    92117573.48608     -1631.786          49.950
C25  23198648.320   121909733.08507      1233.299          46.600    23198648.820   120801466.46807      1222.062          47.400    23198651.060    91036512.13908       921.021          49.350    23198649.620    98161095.77007       993.050          46.600    23198648.660    93411365.68507       944.999          46.300
C26                                                                                                                                  25881446.060   101564254.82205     -2598.664          33.800
C31  21621620.340   113622317.22008     -1013.212          52.100    21621621.720   112589491.98408     -1003.985          53.800    21621625.240    84847942.88909      -756.620          56.100    21621622.640    91488197.06308      -815.844          52.900    21621622.440    87061349.96508      -776.354          52.100
C34  22446481.520   117957113.19808      1679.051          48.950    22446481.540   116884782.86608      1663.854          50.550    22446485.800    88084918.55908      1253.856          52.400    22446484.140    94978495.19608      1352.079          48.950    22446483.600    90382767.30908      1286.582          48.900
C35  25060707.140   131694928.25206     -2659.697          40.850    25060707.460   130497651.38107     -2635.289          42.300    25060713.940    98343578.50407     -1986.055          44.750    25060710.740   106040032.19807     -2141.589          42.200    25060711.700   100909060.90306     -2037.829          41.350
S21  37763336.060                           5.550          46.000
S36  37791578.300   198596073.12907         1.690          47.650
> 2026 04 30 10 12  0.0000000  0 36
G02  24045564.460   126360292.45706      3294.768          39.550                                                                                                                                    24045567.320    98462587.45606      2567.352          39.100
G07  24950145.480   131113903.66306      1578.144          38.600                                                                    24950147.760   102166684.58306      1229.723          40.100    24950147.500   102166682.58306      1229.725          37.950
G08  22353374.080   117467797.02507      2643.136          44.600                                                                    22353378.100    91533381.79807      2059.588          44.200    22353377.560    91533378.78907      2059.587          44.900    22353378.140    87719500.86708      1973.807          51.850
G10  22794544.800   119786211.53207      2644.924          47.250                                                                    22794549.460    93339956.70707      2060.982          47.050    22794549.700    93339948.70607      2060.982          47.100    22794549.020    89450795.52108      1975.036          51.650
G16  20129389.000   105780674.13908      -845.946          51.800                                                                                                                                    20129388.200    82426509.12208      -659.181          51.700
G18  22643737.780   118993666.27707     -2812.354          46.000    22643737.680   118993655.27007     -2812.067          46.150    22643739.400    92722355.23407     -2191.444          47.850    22643739.240    92722350.23207     -2191.446          44.700    22643744.480    88858942.79408     -2099.991          52.100
G23  21813653.900   114631604.60508       716.062          48.750    21813653.640   114631608.60408       716.086          48.700    21813655.740    89323366.70108       557.972          50.100    21813655.560    89323358.70007       557.972          47.050    21813660.980    85601609.93208       534.738          53.550
G26  21797701.140   114547680.52408     -2784.094          49.750                                                                    21797705.280    89257944.85108     -2169.427          48.800    21797705.220    89257943.84808     -2169.428          49.900    21797705.720    85538878.06809     -2079.044          54.700
G27  20453655.540   107484727.81208      1190.141          53.500                                                                    20453657.880    83754366.71608       927.382          52.800    20453657.500    83754364.72008       927.383          53.350    20453657.880    80264624.18209       888.657          57.600
R07  23393076.600   125225019.22306       436.650          40.050    23393080.960    97397247.99706       339.619          39.600    23393080.960    97397238.99706       339.621          40.350
R08  23722727.340   127034159.48406      3033.477          38.900    23722733.080    98804384.65006      2359.377          39.650    23722733.240    98804384.63906      2359.374          39.550
R13  21062430.060   112472315.31707     -3700.459          43.300
R14  19562591.000   104279651.43508       614.577          53.250    19562595.000    81106416.23808       478.005          50.700    19562595.020    81106428.23908       478.005          51.550
R15  22671263.340   121148358.66107      3863.023          43.000    22671267.940    94226521.51307      3004.575          42.750    22671267.900    94226525.51507      3004.574          43.000
R17  23150449.200   123882781.89406      3307.914          41.550    23150454.140    96353257.76906      2572.826          39.650    23150454.460    96353264.79306      2572.826          40.550
R23  21321005.860   114053009.50307     -3064.801          46.700
R24  19729843.660   105504400.49208       900.976          53.700    19729845.600    82059018.69808       700.759          50.300    19729845.640    82059010.70308       700.760          50.850
E02  25094162.120   131870725.79048      2108.924          49.950    25094167.820    98474927.47508      1574.784          51.450    25094164.080   107037947.06008      1711.778          51.300    25094164.340   101043825.20408      1615.918          50.350    25094165.220    99759364.64209      1595.331          54.250
E10  24599099.120   129269176.16848     -1696.806          52.750    24599104.360    96532221.08209     -1267.104          54.350    24599101.700   104926301.46309     -1377.287          54.250    24599101.560    99050439.80408     -1300.174          53.250    24599102.180    97791325.24309     -1283.640          57.150
E11  21841644.360   114778659.84448      -235.626          51.600    21841646.020    85711370.81808      -175.952          53.000    21841642.260    93164508.16108      -191.219          53.800    21841643.040    87947303.28708      -180.574          52.050    21841644.060    86829331.35309      -178.257          55.950
E12  26180782.780   137580945.97046     -2549.090          41.500    26180787.360   102739039.67207     -1903.493          44.700    26180782.660   111672851.55007     -2068.987          44.600    26180784.880   105419176.57907     -1953.087          44.100    26180785.260   104079104.92507     -1928.341          47.750
E16  25785700.660   135504755.84647     -2489.479          47.000    25785708.460   101188642.07708     -1859.019          48.400    25785702.960   109987634.92108     -2020.646          48.000    25785706.020   103828334.44708     -1907.477          48.250    25785706.440   102508475.06208     -1883.282          51.700
E25  23288120.220   122379911.48749      -473.219          54.950    23288125.740    91387639.90609      -353.378          55.750    23288120.560    99334362.99409      -384.100          56.800    23288122.900    93771650.69109      -362.604          55.450    23288123.800    92579629.09709      -357.993          58.950
E36  25011203.180   131434812.18448      2261.580          50.250    25011211.180    98149429.38608      1688.811          51.600    25011205.960   106684132.78008      1835.751          51.850    25011208.280   100709833.81508      1732.923          51.100    25011209.000    99429632.40009      1710.861          54.750
C06  39987170.680   210134006.98006      -739.909          37.800    39987171.780   208223707.45906      -733.901          39.900    39987176.220   156918280.91107      -552.768          43.350    39987173.620   169198825.85706      -596.195          38.950    39987174.180   161011782.53406      -567.088          39.450
C09                                                                  38852270.980   202314013.80507        27.313          44.350                                                                    38852274.820   164396760.73106        22.081          41.500                                                                    38852276.240   156442092.44407        21.249          43.800
C19  26037873.200   136829977.11506       430.183          38.500    26037875.380   135586079.00006       426.739          40.300    26037881.580   102178287.20907       321.474          45.050    26037875.260   110174825.49006       346.770          40.250    26037878.120   104843759.98706       329.953          40.250
C22  25548801.980   134259907.39406      2536.747          37.650    25548802.520   133039372.78906      2513.500          38.200    25548808.420   100259086.19707      1894.545          43.000    25548803.400   108105410.41906      2042.706          39.750    25548805.760   102874507.28306      1944.022          40.000
C24  22889541.320   120285342.20008     -2142.442          50.250    22889541.220   119191833.55108     -2122.999          52.300    22889542.580    89823467.58309     -1599.949          54.100    22889541.580    96853128.33908     -1725.140          50.200    22889539.940    92166678.39508     -1641.668          50.050
C25  23191652.900   121872971.81807      1217.834          46.700    23191653.240   120765039.37107      1206.681          47.900    23191655.680    91009060.53808       909.424          49.450    23191654.020    98131495.78407       980.637          46.100    23191653.320    93383197.95507       933.131          46.600
C26                                                                                                                                  25901318.360   101642337.13505     -2599.888          31.900
C31  21627427.880   113652835.83508     -1021.112          52.100    21627429.200   112619733.16008     -1011.768          53.950    21627432.800    84870732.74009      -762.455          56.150    21627430.120    91512770.47208      -822.119          52.600    21627430.000    87084734.33508      -782.361          52.200
C34  22436918.380   117906858.64708      1671.564          49.050    22436918.440   116834985.18208      1656.370          50.800    22436922.740    88047390.84308      1248.220          52.600    22436920.980    94938030.52908      1345.816          48.650    22436920.500    90344260.60808      1280.802          49.050
C35  25075894.780   131774739.84506     -2661.093          40.200    25075895.160   130576737.41607     -2636.523          42.550    25075901.900    98403177.94607     -1987.039          44.700    25075898.560   106104295.97306     -2142.329          41.700    25075899.440   100970215.12906     -2038.954          41.200
S21  37763304.280                           5.626          45.950
S36  37791568.700   198596021.49507         1.863          47.600
> 2026 04 30 10 12 30.0000000  0 35
G02  24026774.720   126261551.56806      3288.009          40.500                                                                                                                                    24026777.440    98385646.57306      2562.088          39.550
G07  24941179.500   131066788.24006      1563.153          39.250                                                                    24941182.200   102129971.30106      1218.040          39.700    24941181.920   102129969.30906      1218.042          39.200
G08  22338301.040   117388588.11207      2637.062          44.550                                                                    22338305.040    91471660.59607      2054.854          45.050    22338304.480    91471657.60107      2054.854          44.200    22338305.240    87660351.39308      1969.531          51.850
G10  22779479.160   119707041.23808      2633.326          48.100                                                                    22779483.780    93278265.68107      2051.947          47.100    22779484.020    93278257.67808      2051.947          48.150    22779483.340    89391674.96608      1966.345          51.800
G16  20134270.560   105806327.01008      -864.498          51.800                                                                                                                                    20134269.840    82446498.33908      -673.636          51.650
G18  22659813.520   119078144.56607     -2819.705          46.650    22659813.420   119078133.58107     -2819.903          46.350    22659815.380    92788182.39708     -2197.175          48.400    22659815.200    92788177.39307     -2197.176          44.350    22659820.280    88922027.15608     -2105.721          52.150
G23  21809622.220   114610417.65708       696.349          49.050    21809621.940   114610421.66508       696.304          49.000    21809624.020    89306857.41408       542.610          50.250    21809623.840    89306849.41707       542.610          46.850    21809629.180    85585788.54208       519.998          53.400
G26  21813629.180   114631382.38208     -2796.065          49.700                                                                    21813633.340    89323166.98608     -2178.755          49.100    21813633.300    89323165.98508     -2178.755          49.600    21813633.660    85601382.60809     -2088.003          54.600
G27  20446893.820   107449194.93808      1178.740          53.550                                                                    20446896.240    83726678.76708       918.499          53.100    20446895.860    83726676.77308       918.499          53.500    20446896.260    80238089.89409       880.215          57.600
R07  23390699.720   125212294.81706       411.683          40.150    23390703.740    97387351.33406       320.197          39.300    23390703.760    97387342.31806       320.196          39.500
R08  23705766.340   126943335.62306      3021.544          38.900    23705772.260    98733744.11206      2350.099          38.600    23705772.460    98733744.11906      2350.098          39.350
R13  21083262.560   112583559.13007     -3715.747          42.500
R14  19559207.220   104261613.60508       587.776          52.950    19559211.160    81092386.79408       457.159          50.350    19559211.180    81092398.79908       457.159          51.100
R15  22649605.760   121032626.60407      3852.354          43.950    22649610.340    94136507.75607      2996.278          42.400    22649610.300    94136511.76007      2996.277          43.000
R17  23131925.720   123783658.40907      3300.360          42.050    23131930.180    96276161.78806      2566.950          39.150    23131930.460    96276168.78806      2566.949          40.050
R23  21338210.000   114145040.34007     -3070.718          46.500
R24  19724833.700   105477610.33408       884.975          53.300    19724835.820    82038181.91708       688.314          49.850    19724835.780    82038173.91808       688.314          50.400
E02  25082140.720   131807552.72048      2102.535          50.000    25082146.360    98427752.78808      1570.109          51.400    25082142.720   106986670.22808      1706.622          51.350    25082142.880   100995419.87708      1611.046          50.600    25082143.760    99711574.62909      1590.592          54.000
E10  24608812.160   129320218.46748     -1706.117          52.800    24608817.500    96570337.05109     -1274.034          54.350    24608814.820   104967731.87909     -1384.816          54.450    24608814.720    99089550.11108     -1307.252          53.550    24608815.240    97829938.38309     -1290.658          57.000
E11  21843025.560   114785917.97848      -248.154          51.650    21843027.140    85716790.84808      -185.283          52.900    21843023.460    93170399.50408      -201.432          53.900    21843024.220    87952864.70808      -190.108          52.250    21843025.240    86834822.07709      -187.690          55.750
E12  26195348.900   137657490.17546     -2554.196          41.700    26195353.260   102796199.23207     -1907.198          44.550    26195348.760   111734981.53107     -2072.964          44.850    26195350.900   105477827.26307     -1956.868          44.150    26195351.180   104137010.04607     -1932.060          47.350
E16  25799932.160   135579541.55447     -2496.310          47.150    25799939.940   101244488.38408     -1864.117          48.400    25799934.400   110048337.50208     -2026.243          48.250    25799937.480   103885637.64108     -1912.838          48.450    25799937.800   102565049.81308     -1888.487          51.550
E25  23290854.680   122394281.07449      -484.833          55.050    23290860.200    91398370.41209      -362.037          55.700    23290855.060    99346026.59909      -393.508          56.850    23290857.360    93782661.12509      -371.455          55.650    23290858.280    92590499.56809      -366.760          58.750
E36  24998318.420   131367102.24548      2252.388          50.650    24998326.440    98098866.82408      1682.000          51.550    24998321.220   106629173.46108      1828.217          51.950    24998323.440   100657952.22208      1725.869          51.350    24998324.160    99378410.32109      1703.943          54.500
C06  39991412.320   210156296.23706      -745.660          38.150    39991413.300   208245794.06006      -738.848          40.100    39991417.600   156934925.41107      -557.024          43.500    39991415.440   169216772.99406      -600.457          39.250    39991415.800   161028861.25706      -571.423          39.200
C09                                                                  38852131.820   202313289.80007        20.687          44.200                                                                    38852135.700   164396172.40506        16.647          41.400                                                                    38852137.080   156441532.58207        16.037          43.950
C19  26035463.000   136817310.38506       413.713          39.250    26035464.660   135573527.43606       410.158          40.300    26035471.340   102168828.30907       309.042          44.950    26035464.820   110164626.33706       333.054          41.050    26035467.640   104834054.33306       317.298          40.700
C22  25534339.460   134183907.01906      2529.861          37.150    25534339.820   132964063.31606      2506.900          38.150    25534345.760   100202332.94107      1889.017          42.700    25534340.880   108044215.47706      2037.021          38.700    25534343.580   102816273.45906      1938.529          40.650
C24  22901810.200   120349815.20608     -2155.771          50.250    22901810.080   119255720.43308     -2136.159          52.300    22901811.420    89871612.92609     -1609.824          54.000    22901810.520    96905041.60708     -1735.815          50.200    22901808.800    92216079.71608     -1651.877          50.300
C25  23184746.640   121836678.98707      1201.806          46.650    23184746.960   120729076.47308      1190.844          48.850    23184749.500    90981958.75508       897.376          49.550    23184747.640    98102272.98607       967.639          46.200    23184747.100    93355389.16707       920.798          46.900
C31  21633280.460   113683591.09108     -1029.317          52.150    21633281.680   112650208.82209     -1020.007          54.050    21633285.380    84893699.30209      -768.650          56.150    21633282.620    91537534.42708      -828.800          52.650    21633282.600    87108300.03008      -788.700          52.350
C34  22427398.820   117856832.99308      1663.606          49.250    22427398.860   116785414.30908      1648.342          50.800    22427403.300    88010034.05108      1242.214          52.700    22427401.360    94897750.14408      1339.343          48.650    22427400.880    90305929.28608      1274.592          49.250
C35  25091089.900   131854591.44306     -2662.218          40.350    25091090.580   130655863.13307     -2638.465          43.100    25091097.500    98462807.28207     -1988.416          44.900    25091093.960   106168591.99806     -2143.939          41.750    25091094.780   101031400.01706     -2040.231          40.850
S21  37763272.680                           5.409          46.200
S36  37791560.320   198595976.27107          .963          47.550
> 2026 04 30 10 13  0.0000000  0 36
G02  24008022.160   126163006.74606      3281.957          38.900                                                                                                                                    24008024.940    98308858.48406      2557.371          38.500
G07  24932296.820   131020108.73706      1548.705          38.300                                                                    24932299.280   102093597.67106      1206.783          39.900    24932299.020   102093595.66706      1206.783          38.100
G08  22323258.720   117309540.09807      2632.352          44.950                                                                    22323262.660    91410064.78607      2051.185          45.800    22323262.100    91410061.78407      2051.184          44.250    22323262.920    87601322.09208      1965.757          51.600
G10  22764477.600   119628207.75008      2622.403          48.400                                                                    22764482.200    93216837.07707      2043.434          47.300    22764482.440    93216829.07408      2043.435          48.400    22764481.780    89332805.90708      1958.215          52.000
G16  20139255.200   105832521.43308      -881.979          51.800                                                                                                                                    20139254.480    82466909.54708      -687.258          51.850
G18  22675930.260   119162837.76607     -2826.409          46.950    22675930.100   119162826.78307     -2826.499          46.750    22675932.140    92854177.02208     -2202.398          48.750    22675931.960    92854172.02307     -2202.398          44.750    22675936.940    88985272.00208     -2110.666          52.000
G23  21805700.660   114589809.39208       677.596          48.850    21805700.380   114589813.39408       677.469          48.950    21805702.380    89290799.04208       527.997          50.700    21805702.180    89290791.04307       527.997          47.250    21805707.480    85570399.28008       505.925          53.350
G26  21829623.240   114715431.09608     -2807.220          49.900                                                                    21829627.440    89388659.39908     -2187.447          49.200    21829627.360    89388658.40408     -2187.446          49.850    21829627.620    85664146.15409     -2096.304          54.550
G27  20440194.240   107413988.41008      1168.314          53.600                                                                    20440196.660    83699245.11908       910.375          53.200    20440196.300    83699243.12108       910.375          53.550    20440196.760    80211799.31209       872.432          57.650
R07  23388459.420   125200301.92006       388.027          40.700    23388463.020    97378023.55806       301.800          39.850    23388463.220    97378014.56306       301.799          39.800
R08  23688871.280   126852866.01806      3009.614          38.700    23688877.540    98663379.07306      2340.819          38.700    23688877.680    98663379.07506      2340.819          39.550
R13  21104178.260   112695247.49207     -3730.113          43.050
R14  19555971.600   104244365.71108       561.924          53.600    19555975.520    81078971.74908       437.051          50.650    19555975.580    81078983.75608       437.052          51.300
R15  22628006.560   120917206.97707      3842.304          44.150    22628011.140    94046736.98307      2988.460          42.800    22628011.140    94046741.00107      2988.460          42.750
R17  23113442.160   123684748.99607      3293.717          42.900    23113446.720    96199232.35906      2561.782          40.300    23113447.060    96199239.36106      2561.780          40.600
R23  21355444.600   114237234.24907     -3075.591          46.550
R24  19719910.980   105451286.84308       869.855          53.800    19719913.120    82017708.10508       676.555          50.050    19719913.100    82017700.10708       676.555          50.600
E02  25070152.700   131744555.09748      2097.227          49.950    25070158.240    98380709.12208      1566.088          51.400    25070154.740   106935535.80508      1702.300          51.450    25070154.780   100947148.98008      1606.952          50.650    25070155.720    99663917.35009      1586.502          54.350
E10  24618575.260   129371523.98248     -1714.305          52.700    24618580.760    96608649.57809     -1280.172          54.400    24618578.020   105009375.94109     -1391.510          54.450    24618577.960    99128862.09908     -1313.601          53.650    24618578.400    97868750.63509     -1296.876          57.400
E11  21844475.760   114793538.82048      -259.677          51.600    21844477.320    85722481.73608      -193.943          52.900    21844473.720    93176585.25208      -210.811          53.800    21844474.460    87958704.05908      -198.996          52.400    21844475.440    86840587.19809      -196.477          56.050
E12  26209940.060   137734166.32447     -2557.865          42.000    26209944.360   102853457.31407     -1909.998          44.350    26209939.880   111797218.61807     -2076.155          44.600    26209941.960   105536579.05307     -1959.812          44.050    26209942.240   104195014.98307     -1934.961          47.600
E16  25814200.240   135654520.05347     -2502.194          46.950    25814208.020   101300478.66908     -1868.589          48.850    25814202.640   110109196.55808     -2031.020          48.000    25814205.440   103943088.55608     -1917.335          48.750    25814205.900   102621770.41008     -1892.987          52.100
E25  23293652.560   122408983.99449      -495.453          55.000    23293658.100    91409349.83509      -369.982          55.700    23293653.000    99357960.76509      -402.141          56.750    23293655.260    93793926.97409      -379.654          55.750    23293656.180    92601622.20409      -374.813          59.100
E36  24985483.980   131299656.63548      2244.089          50.600    24985491.960    98048501.66008      1675.691          51.400    24985486.660   106574428.68908      1821.426          51.700    24985488.860   100606273.17208      1719.460          51.350    24985489.600    99327388.21409      1697.553          54.750
C06  39995682.580   210178735.80606      -750.063          38.400    39995683.600   208268029.61406      -743.396          39.850    39995687.560   156951682.15007      -560.269          43.250    39995685.640   169234841.15706      -604.191          38.850    39995685.780   161046055.15406      -574.982          39.150
C09                                                                  38852028.320   202312751.50007        15.142          44.050                                                                    38852032.260   164395734.97906        12.276          41.400                                                                    38852033.620   156441116.34007        11.661          44.200
C19  26033145.140   136805128.71406       397.905          39.050    26033146.480   135561456.47006       394.514          40.500    26033153.120   102159731.58107       297.380          44.850    26033146.920   110154817.68706       320.721          41.250    26033149.640   104824720.31106       305.045          41.050
C22  25519915.560   134108109.98006      2523.357          38.950    25519915.640   132888955.30706      2500.505          39.350    25519921.700   100145731.47607      1884.314          43.400    25519917.060   107983184.27306      2031.820          39.600    25519919.960   102758195.42306      1933.442          40.700
C24  22914152.000   120414671.71608     -2168.010          50.100    22914151.940   119319987.33808     -2148.333          52.300    22914153.180    89920044.65908     -1619.010          53.950    22914152.440    96957263.67008     -1745.652          50.150    22914150.680    92265774.88708     -1661.219          50.550
C25  23177929.460   121800854.25707      1186.678          46.550    23177929.900   120693577.43208      1175.729          48.800    23177932.340    90955206.52708       886.063          49.550    23177930.320    98073427.10507       955.441          46.200    23177930.020    93327939.05907       909.163          47.100
C31  21639177.620   113714580.57108     -1036.563          52.200    21639178.740   112680916.58008     -1027.220          53.800    21639182.500    84916840.77109      -774.138          56.100    21639179.780    91562486.98108      -834.716          52.750    21639179.740    87132045.19608      -794.323          52.400
C34  22417922.560   117807034.70808      1656.370          49.300    22417922.520   116736068.73108      1641.316          50.800    22417927.040    87972847.03408      1236.895          52.650    22417925.040    94857652.83508      1333.642          48.800    22417924.480    90267772.16508      1269.245          49.150
C35  25106292.360   131934480.87606     -2663.332          40.700    25106293.160   130735026.26407     -2639.188          42.550    25106300.140    98522464.82807     -1988.889          45.050    25106296.820   106232918.44407     -2144.432          42.250    25106297.260   101092613.86706     -2040.776          41.100
S21  37763241.480                           5.882          46.200
S23  38249573.460   201002860.43907        -1.481          46.100
S36  37791552.400   198595934.66107         1.743          47.750
> 2026 04 30 10 13 30.0000000  0 35
G02  23989307.080   126064659.17006      3275.079          38.900                                                                                                                                    23989309.900    98232224.09906      2552.015          38.000
G07  24923497.100   130973866.39506      1534.423          38.400                                                                    24923499.340   102057564.68806      1195.656          38.800    24923499.100   102057562.68706      1195.657          38.950
G08  22308247.040   117230653.66807      2627.028          44.550                                                                    22308251.080    91348594.88707      2047.035          45.750    22308250.540    91348591.88607      2047.035          44.300    22308251.300    87542413.45008      1961.689          51.700
G10  22749540.580   119549713.62108      2610.818          48.150                                                                    22749545.220    93155672.90307      2034.406          47.350    22749545.420    93155664.90208      2034.406          48.050    22749544.800    89274190.25608      1949.733          52.250
G16  20144342.880   105859257.30908      -900.078          51.800                                                                                                                                    20144342.160    82487742.66908      -701.361          51.950
G18  22692087.400   119247743.69707     -2833.553          47.300    22692087.240   119247732.70607     -2833.663          47.000    22692089.320    92920337.42508     -2207.966          48.850    22692089.140    92920332.42507     -2207.966          45.050    22692094.020    89048675.69908     -2115.983          52.100
G23  21801889.340   114569780.63408       658.162          49.000    21801889.080   114569784.64608       658.027          49.000    21801891.140    89275192.25008       512.854          51.050    21801890.920    89275184.24907       512.854          47.250    21801895.980    85555442.77108       491.421          53.650
G26  21845682.880   114799824.59608     -2818.637          49.850                                                                    21845686.980    89454420.48908     -2196.343          49.100    21845686.920    89454419.49008     -2196.343          49.950    21845687.280    85727167.17009     -2104.904          54.800
G27  20433556.840   107379108.72708      1157.203          53.550                                                                    20433559.280    83672066.15308       901.718          53.550    20433558.920    83672064.15308       901.717          53.600    20433559.440    80185752.80209       864.201          58.000
R07  23386355.980   125189041.12206       363.256          39.950    23386359.580    97369265.21106       282.531          40.150    23386359.620    97369256.20906       282.533          41.000
R08  23672043.200   126762754.56106      2997.740          39.700    23672049.780    98593292.57806      2331.580          38.100    23672049.660    98593292.58406      2331.582          38.750
R13  21125176.540   112807376.66307     -3744.798          42.700
R14  19552884.480   104227909.29408       535.401          53.850    19552888.360    81066172.29608       416.423          50.650    19552888.420    81066184.30408       416.423          51.550
R15  22606466.420   120802102.99207      3831.483          43.400    22606470.920    93957211.71307      2980.044          42.650    22606470.940    93957215.71707      2980.044          43.250
R17  23094998.680   123586054.67407      3286.420          43.400    23095003.440    96122470.17806      2556.106          41.550    23095003.580    96122477.18007      2556.108          42.050
R23  21372709.260   114329588.99007     -3080.920          46.250
R24  19715075.380   105425429.01408       854.229          53.650    19715077.540    81997596.46008       664.400          50.050    19715077.560    81997588.46608       664.401          50.700
E02  25058198.240   131681734.16248      2091.213          50.100    25058203.740    98333797.39708      1561.629          51.800    25058200.380   106884544.79908      1697.397          51.200    25058200.300   100899013.47208      1602.317          50.500    25058201.280    99616393.73309      1581.983          54.500
E10  24628388.160   129423091.09148     -1723.105          52.750    24628393.800    96647157.44709     -1286.701          54.750    24628391.000   105051232.33309     -1398.643          54.350    24628390.900    99168374.53108     -1320.348          53.400    24628391.340    97907760.78809     -1303.512          57.400
E11  21845994.820   114801521.40648      -271.920          51.700    21845996.380    85728442.75808      -203.015          53.250    21845992.840    93183064.61708      -220.654          53.600    21845993.540    87964820.58308      -208.299          52.200    21845994.480    86846625.97009      -205.700          56.100
E12  26224555.900   137810972.73546     -2562.236          41.350    26224560.300   102910812.68007     -1913.473          44.800    26224555.680   111859561.43307     -2079.718          44.100    26224557.860   105595430.64007     -1963.252          43.900    26224558.060   104253118.45607     -1938.316          47.650
E16  25828504.860   135729690.51647     -2508.715          46.650    25828512.640   101356612.29308     -1873.417          48.800    25828507.420   110170211.42908     -2036.345          48.450    25828510.100   104000686.54608     -1922.228          48.450    25828510.520   102678636.21808     -1897.824          51.900
E25  23296513.900   122424020.50249      -506.665          55.050    23296519.520    91420578.36809      -378.340          56.050    23296514.320    99370165.70509      -411.249          56.450    23296516.640    93805448.42909      -388.224          55.600    23296517.560    92612997.19709      -383.278          59.100
E36  24972699.940   131232475.98048      2235.109          50.800    24972707.780    97998334.33708      1669.051          51.750    24972702.620   106519898.97108      1814.188          51.350    24972704.840   100554797.13208      1712.608          51.150    24972705.480    99276566.53309      1690.818          54.750
C06  39999981.220   210201325.05606      -755.502          38.750    39999982.240   208290413.51406      -748.539          40.900    39999986.300   156968550.69907      -563.991          43.800    39999983.860   169253029.87206      -608.132          38.950    39999984.480   161063363.74406      -578.747          39.700
C09                                                                  38851960.540   202312398.53107         8.881          44.300                                                                    38851964.440   164395448.15606         7.316          41.500                                                                    38851965.780   156440843.39707         6.824          43.900
C19  26030919.680   136793432.72806       381.674          38.550    26030920.840   135549866.84606       378.578          40.600    26030927.400   102150997.58907       285.250          45.200    26030921.640   110145400.17406       307.422          41.600    26030924.260   104815758.47406       292.632          40.800
C22  25505531.000   134032518.78806      2516.307          39.550    25505530.980   132814051.27906      2493.587          40.500    25505537.020   100089283.69607      1879.075          44.150    25505532.380   107922318.74106      2026.203          39.750    25505535.180   102700275.08306      1928.016          40.100
C24  22926566.380   120479909.87308     -2180.868          50.150    22926566.420   119384632.41608     -2161.062          52.150    22926567.660    89968761.38009     -1628.521          54.200    22926566.960    97009793.04008     -1755.987          50.250    22926565.180    92315762.49408     -1671.075          50.300
C25  23171201.460   121765498.66007      1170.809          46.350    23171202.100   120658543.24608      1160.187          49.000    23171204.400    90928804.61408       874.350          49.950    23171202.360    98044958.96007       942.756          46.400    23171202.140    93300848.39907       897.139          47.100
C31  21645119.140   113745803.28808     -1044.497          52.300    21645120.240   112711855.45208     -1035.046          53.900    21645124.020    84940156.41109      -779.987          56.400    21645121.380    91587627.32708      -841.014          52.850    21645121.200    87155969.06808      -800.306          52.200
C34  22408489.540   117757463.67708      1648.691          49.550    22408489.440   116686948.34608      1633.745          51.100    22408493.980    87935829.72908      1231.177          53.000    22408492.020    94817738.51108      1327.564          48.800    22408491.300    90229789.20008      1263.303          49.050
C35  25121502.040   132014407.20606     -2664.627          40.900    25121502.880   130814225.97907     -2640.313          43.350    25121509.700    98582149.94307     -1989.847          45.350    25121506.680   106297274.61507     -2145.587          42.550    25121506.700   101153856.00006     -2041.711          40.650
S21  37763210.040                           5.833          46.350
S36  37791542.480   198595887.06407         1.958          47.800
> 2026 04 30 10 14  0.0000000  0 35
G02  23970629.980   125966511.13306      3267.958          39.000                                                                                                                                    23970632.840    98155745.18706      2546.466          37.350
G07  24914781.060   130928063.01206      1518.855          39.600                                                                    24914783.220   102021873.75206      1183.525          38.950    24914782.960   102021871.75206      1183.525          39.900
G08  22293266.420   117151930.57707      2621.332          44.300                                                                    22293270.600    91287252.25007      2042.598          45.600    22293270.060    91287249.25307      2042.598          44.500    22293270.680    87483626.77308      1957.383          51.350
G10  22734668.780   119471562.40008      2599.063          48.350                                                                    22734673.480    93094775.92507      2025.245          47.600    22734673.640    93094767.93008      2025.246          48.250    22734673.020    89215830.68708      1940.829          52.200
G16  20149533.760   105886535.46708      -918.504          51.700                                                                                                                                    20149533.040    82508998.34408      -715.718          51.900
G18  22708284.800   119332861.01507     -2840.813          46.700    22708284.660   119332850.01907     -2840.798          46.750    22708286.740    92986662.54808     -2213.622          48.450    22708286.460    92986657.54607     -2213.622          45.700    22708291.380    89112237.26208     -2121.435          51.700
G23  21798188.620   114550333.23508       638.401          49.200    21798188.400   114550337.24208       638.329          48.950    21798190.480    89260038.46608       497.457          50.600    21798190.240    89260030.46407       497.457          46.950    21798195.180    85540920.39008       476.700          53.400
G26  21861807.900   114884561.87708     -2830.486          49.650                                                                    21861811.960    89520449.45008     -2205.576          49.100    21861811.920    89520448.44708     -2205.576          49.850    21861812.300    85790444.90209     -2113.697          54.450
G27  20426981.880   107344557.33708      1146.090          53.600                                                                    20426984.400    83645142.99208       893.058          53.350    20426984.020    83645140.99408       893.058          53.500    20426984.540    80159951.44909       855.840          57.750
R07  23384389.360   125178514.93406       338.382          40.250    23384393.420    97361078.24206       263.187          40.150    23384393.480    97361069.24006       263.186          39.950
R08  23655283.220   126673006.67906      2985.578          39.650    23655289.640    98523488.84206      2322.121          38.100    23655289.560    98523488.85006      2322.122          38.750
R13  21146256.740   112919943.93407     -3759.682          42.600
R14  19549946.280   104212246.56308       508.659          53.550    19549950.080    81053990.15408       395.623          50.550    19549950.120    81054002.15508       395.623          51.400
R15  22584986.200   120687319.92207      3820.601          43.550    22584990.820    93867936.04207      2971.579          42.700    22584990.780    93867940.03707      2971.580          43.150
R17  23076595.640   123487577.11107      3278.792          43.700    23076600.800    96045876.62806      2550.174          41.550    23076600.780    96045883.63407      2550.176          42.600
R23  21390003.800   114422103.35007     -3086.688          46.000
R24  19710327.000   105400037.03808       838.467          53.800    19710329.100    81977847.14608       652.141          49.950    19710329.080    81977839.14908       652.142          50.500
E02  25046277.880   131619092.20848      2084.914          50.050    25046283.320    98287019.33008      1556.903          51.600    25046280.060   106833699.06408      1692.303          51.750    25046279.840   100851015.10208      1597.522          50.500    25046280.900    99569005.51309      1577.207          54.450
E10  24638250.700   129474919.11848     -1732.153          52.550    24638256.380    96685860.16609     -1293.506          54.350    24638253.640   105093300.51109     -1405.966          54.700    24638253.400    99208086.88208     -1327.214          53.550    24638253.940    97946968.32309     -1310.352          57.350
E11  21847582.680   114809865.70148      -284.287          51.600    21847584.300    85734673.89108      -212.305          52.950    21847580.760    93189837.58408      -230.738          53.900    21847581.440    87971214.26808      -217.846          52.200    21847582.340    86852938.37909      -215.062          56.050
E12  26239196.380   137887908.72446     -2566.628          41.550    26239200.800   102968264.80807     -1916.822          44.200    26239196.140   111922009.43807     -2083.545          44.650    26239198.340   105654381.53407     -1966.803          43.950    26239198.560   104311319.97507     -1941.867          47.500
E16  25842845.880   135805053.05647     -2515.373          46.550    25842853.940   101412889.34208     -1878.394          48.800    25842848.640   110231382.20208     -2041.750          48.550    25842851.300   104058431.72108     -1927.434          48.450    25842851.660   102735647.33108     -1902.892          52.000
E25  23299438.960   122439391.85749      -518.077          54.900    23299444.640    91432056.95109      -386.915          55.700    23299439.360    99382642.43409      -420.534          56.750    23299441.740    93817226.45609      -396.989          55.550    23299442.660    92624625.50309      -391.979          59.050
E36  24959966.600   131165561.82748      2225.908          50.800    24959974.260    97948366.02808      1662.144          51.300    24959969.280   106465585.57608      1806.691          51.750    24959971.380   100503525.29308      1705.522          51.050    24959972.080    99225946.46009      1683.811          54.700
C06  40004308.540   210224064.33306      -760.822          38.450    40004309.540   208312946.07706      -753.885          40.350    40004313.740   156985531.29107      -568.063          43.700    40004310.940   169271339.39506      -612.417          39.250    40004311.660   161080787.29206      -582.711          39.550
C09                                                                  38851928.460   202312231.40607         2.345          44.350                                                                    38851932.380   164395312.34106         1.910          41.750                                                                    38851933.840   156440714.15607         1.755          44.000
C19  26028786.780   136782224.13706       365.298          37.650    26028787.780   135538760.15906       362.081          39.200    26028794.360   102142627.53907       272.721          44.750    26028788.660   110136375.06006       294.139          41.600    26028791.480   104807170.07106       279.890          40.600
C22  25491186.280   133957136.91706      2508.994          39.250    25491186.460   132739354.74006      2486.160          41.350    25491192.420   100032992.24807      1873.672          43.700    25491187.800   107861621.81406      2020.134          40.950    25491190.360   102642515.13806      1922.558          39.000
C24  22939053.220   120545528.76508     -2193.799          50.100    22939053.360   119449654.76508     -2173.858          51.850    22939054.600    90017762.42108     -1638.209          53.850    22939053.960    97062628.96608     -1766.431          50.650    22939052.160    92366041.82408     -1680.958          50.300
C25  23164563.140   121730614.24207      1154.710          46.300    23164563.920   120623975.97008      1144.414          48.950    23164566.120    90902754.57608       862.316          49.600    23164564.120    98016870.21607       929.764          46.700    23164563.920    93274118.79207       884.801          47.100
C31  21651105.040   113777259.26008     -1052.559          52.150    21651106.100   112743025.46308     -1043.017          53.850    21651109.940    84963646.23709      -786.036          56.050    21651107.280    91612955.49808      -847.549          53.100    21651107.060    87180071.67608      -806.527          52.100
C34  22399099.880   117708120.83608      1640.821          49.400    22399099.780   116638054.07608      1625.921          51.000    22399104.380    87898982.82008      1225.255          52.800    22399102.420    94778007.92208      1321.172          49.050    22399101.520    90191981.06508      1257.147          48.900
C35  25136718.600   132094370.65106     -2666.126          40.200    25136719.720   130893462.48007     -2641.903          43.300    25136726.060    98641862.79907     -1990.969          44.950    25136723.360   106361660.68507     -2146.800          42.900    25136723.300   101215126.60606     -2042.958          40.750
S21  37763179.360                           5.375          46.250
S36  37791533.780   198595837.19907         1.639          47.600
> 2026 04 30 10 14 30.0000000  0 35
G02  23951991.140   125868563.52006      3261.307          39.300                                                                                                                                    23951993.880    98079422.44406      2541.284          37.300
G07  24906148.840   130882699.76506      1504.521          39.700                                                                    24906150.620   101986525.75706      1172.353          39.450    24906150.440   101986523.75006      1172.352          39.750
G08  22278317.080   117073371.52307      2615.554          44.900                                                                    22278321.200    91226037.44607      2038.095          45.700    22278320.660    91226034.45007      2038.096          44.850    22278321.240    87424962.57408      1953.390          51.400
G10  22719862.840   119393756.66808      2587.598          48.350                                                                    22719867.580    93034148.17407      2016.313          47.350    22719867.780    93034140.16908      2016.313          48.600    22719867.060    89157729.09708      1932.423          52.400
G16  20154827.720   105914355.33608      -936.512          51.900                                                                                                                                    20154827.020    82530676.13308      -729.751          51.950
G18  22724522.040   119418187.54807     -2847.650          46.400    22724521.860   119418176.55807     -2847.674          46.600    22724523.760    93053150.69308     -2218.950          48.350    22724523.500    93053145.69907     -2218.950          44.150    22724528.560    89175955.05108     -2126.520          51.650
G23  21794598.640   114531467.97008       619.014          49.150    21794598.440   114531471.97708       619.010          49.100    21794600.500    89245338.28808       482.350          50.600    21794600.280    89245330.28907       482.350          47.400    21794605.260    85526832.73008       462.358          53.650
G26  21877998.000   114969640.81808     -2841.706          50.000                                                                    21878002.080    89586744.63308     -2214.319          49.100    21878002.060    89586743.63208     -2214.319          50.050    21878002.320    85853977.77309     -2122.037          54.400
G27  20420469.520   107310334.73508      1135.085          53.700                                                                    20420472.060    83618476.04208       884.481          53.200    20420471.680    83618474.04408       884.481          53.650    20420472.220    80134395.61609       847.700          57.950
R07  23382560.520   125168723.47906       313.831          40.850    23382564.080    97353462.66206       244.092          39.400    23382564.180    97353453.63306       244.087          40.200
R08  23638591.520   126583626.54006      2973.317          39.900    23638598.060    98453971.18106      2312.585          38.600    23638597.940    98453971.18306      2312.583          38.900
R13  21167418.200   113032945.21407     -3774.021          42.250
R14  19547157.140   104197378.84508       482.108          53.700    19547160.960    81042426.36108       374.974          50.600    19547161.000    81042438.36408       374.974          51.300
R15  22563566.780   120572861.43907      3809.695          44.000    22563571.520    93778912.83207      2963.101          43.200    22563571.460    93778916.84607      2963.102          42.900
R17  23058233.100   123389317.05307      3271.600          43.400    23058238.760    95969452.25507      2544.582          42.200    23058238.620    95969459.26507      2544.580          42.750
R23  21407327.740   114514774.34107     -3091.801          46.350
R24  19705665.600   105375109.98808       823.106          53.750    19705667.600    81958459.44408       640.193          49.900    19705667.600    81958451.44808       640.193          50.350
E02  25034391.820   131556630.47548      2078.890          50.150    25034397.140    98240375.84208      1552.520          51.750    25034394.000   106782999.62008      1687.509          51.750    25034393.680   100803154.82108      1592.957          50.650    25034394.780    99521753.63209      1572.769          54.350
E10  24648162.560   129527006.38048     -1740.566          52.400    24648168.280    96724756.45909     -1299.748          54.500    24648165.580   105135579.10509     -1412.773          54.900    24648165.360    99247997.87008     -1333.712          53.700    24648165.840    97986371.96309     -1316.701          57.300
E11  21849239.140   114818570.62248      -296.180          51.600    21849240.860    85741174.32508      -221.192          53.100    21849237.300    93196903.27309      -240.428          54.000    21849237.960    87977884.27808      -226.974          52.300    21849238.820    86859523.59809      -224.059          55.950
E12  26253861.140   137964972.72946     -2571.026          41.150    26253865.700   103025812.50907     -1919.777          44.400    26253861.060   111984561.31507     -2086.808          44.850    26253863.120   105713430.50307     -1969.958          43.800    26253863.420   104369618.30507     -1944.875          47.300
E16  25857223.320   135880606.77447     -2521.624          46.100    25857231.520   101469309.15208     -1883.048          49.150    25857226.200   110292708.14208     -2046.813          48.300    25857228.880   104116323.37208     -1932.167          48.550    25857229.220   102792803.06208     -1907.595          52.000
E25  23302427.780   122455098.27249      -529.194          54.950    23302433.500    91443785.73709      -395.169          55.900    23302428.180    99395391.12709      -429.515          56.850    23302430.620    93829261.21509      -405.501          55.650    23302431.520    92636507.27509      -400.312          59.000
E36  24947284.060   131098914.75348      2217.017          50.750    24947291.560    97898597.15508      1655.596          51.350    24947286.680   106411488.95708      1799.584          51.750    24947288.720   100452458.09808      1698.755          51.200    24947289.520    99175528.42509      1677.188          54.600
C06  40008664.240   210246953.04706      -765.748          38.000    40008665.060   208335626.67906      -758.543          40.500    40008669.600   157002623.42807      -571.576          43.400    40008666.520   169289769.22006      -616.361          39.150    40008667.180   161098325.36106      -586.670          39.000
C09                                                                  38851932.020   202312249.72307        -3.962          44.350                                                                    38851935.900   164395327.22506        -2.930          41.500                                                                    38851937.360   156440728.30607        -2.934          44.100
C19  26026746.760   136771503.51306       348.881          39.250    26026747.660   135528136.97406       346.008          40.100    26026754.280   102134621.86807       260.793          45.300    26026748.480   110127742.85806       281.153          41.150    26026750.840   104798955.55406       267.479          40.000
C22  25476881.880   133881966.93506      2502.250          37.600    25476882.340   132664868.16106      2479.011          41.550    25476887.860    99976859.00607      1868.433          43.200    25476883.540   107801095.47206      2014.664          41.500    25476885.580   102584917.51006      1917.149          38.700
C24  22951612.180   120611526.45608     -2206.376          50.100    22951612.300   119515052.47708     -2186.255          51.650    22951613.700    90067046.32409     -1647.533          54.000    22951613.040    97115769.89808     -1776.442          50.350    22951611.140    92416611.40508     -1690.543          50.200
C25  23158014.700   121696201.94907      1139.105          46.650    23158015.440   120589876.52508      1128.637          48.650    23158017.600    90877057.08308       850.628          49.900    23158015.740    97989161.61507       917.276          46.600    23158015.540    93247750.93607       872.810          47.200
C31  21657135.120   113808947.50308     -1060.265          52.200    21657136.220   112774425.62808     -1050.639          53.900    21657140.000    84987309.51109      -791.660          56.150    21657137.440    91638470.68508      -853.659          52.950    21657137.060    87204352.25708      -812.363          52.100
C34  22389753.620   117659006.07908      1633.334          49.700    22389753.560   116589385.81408      1618.492          51.200    22389758.200    87862306.22508      1219.702          53.050    22389756.160    94738460.98308      1315.136          48.850    22389755.220    90154347.68408      1251.537          49.200
C35  25151942.280   132174370.37606     -2667.203          41.050    25151943.040   130972734.92707     -2643.124          43.000    25151949.440    98701602.71007     -1991.753          45.400    25151947.040   106426075.94007     -2147.741          42.600    25151946.600   101276424.97006     -2043.611          40.600
S21  37763149.440                           5.407          46.300
S36  37791525.020   198595788.99207         1.480          47.850
