     3.04           OBSERVATION DATA    M                   RINEX VERSION / TYPE
Converto v3.5.11    IGN-RGP             20260501 012215 UTC PGM / RUN BY / DATE
SNR is mapped to RINEX snr flag value [1-9]                 COMMENT
LX:     < 12dBHz -> 1; 12-17dBHz -> 2; 18-23dBHz -> 3       COMMENT
       24-29dBHz -> 4; 30-35dBHz -> 5; 36-41dBHz -> 6       COMMENT
       42-47dBHz -> 7; 48-53dBHz -> 8; >= 54dBHz -> 9       COMMENT
SCOA                                                        MARKER NAME
10088M002                                                   MARKER NUMBER
Automatic           IGN                                     OBSERVER / AGENCY
2090134             LEICA GR50          4.83                REC # / TYPE / VERS
1440911777          TRM55971.00     NONE                    ANT # / TYPE
  4639940.8600  -136225.4840  4359551.9950                  APPROX POSITION XYZ
        0.0000        0.0000        0.0000                  ANTENNA: DELTA H/E/N
G   12 C1C L1C D1C S1C C2W L2W D2W S2W C5Q L5Q D5Q S5Q      SYS / # / OBS TYPES
R   12 C1C L1C D1C S1C C2P L2P D2P S2P C2C L2C D2C S2C      SYS / # / OBS TYPES
E   20 C1C L1C D1C S1C C5Q L5Q D5Q S5Q C6C L6C D6C S6C C7Q  SYS / # / OBS TYPES
       L7Q D7Q S7Q C8Q L8Q D8Q S8Q                          SYS / # / OBS TYPES
C   20 C1P L1P D1P S1P C2I L2I D2I S2I C5P L5P D5P S5P C6I  SYS / # / OBS TYPES
       L6I D6I S6I C7I L7I D7I S7I                          SYS / # / OBS TYPES
J   12 C1C L1C D1C S1C C2S L2S D2S S2S C5Q L5Q D5Q S5Q      SYS / # / OBS TYPES
S    4 C1C L1C D1C S1C                                      SYS / # / OBS TYPES
DBHZ                                                        SIGNAL STRENGTH UNIT
    30.000                                                  INTERVAL
  2026    04    30    10    00    0.0000000     GPS         TIME OF FIRST OBS
  2026    04    30    11    59   30.0000000     GPS         TIME OF LAST OBS
     0                                                      RCV CLOCK OFFS APPL
G L1C                                                       SYS / PHASE SHIFT
G L2W                                                       SYS / PHASE SHIFT
G L5Q -0.25000                                              SYS / PHASE SHIFT
R L1C                                                       SYS / PHASE SHIFT
R L2P  0.25000                                              SYS / PHASE SHIFT
R L2C                                                       SYS / PHASE SHIFT
E L1C  0.50000                                              SYS / PHASE SHIFT
E L5Q -0.25000                                              SYS / PHASE SHIFT
E L6C -0.50000                                              SYS / PHASE SHIFT
E L7Q -0.25000                                              SYS / PHASE SHIFT
E L8Q -0.25000                                              SYS / PHASE SHIFT
C L1P  0.25000                                              SYS / PHASE SHIFT
C L2I                                                       SYS / PHASE SHIFT
C L5P  0.25000                                              SYS / PHASE SHIFT
C L6I                                                       SYS / PHASE SHIFT
C L7I                                                       SYS / PHASE SHIFT
J L1C                                                       SYS / PHASE SHIFT
J L2S                                                       SYS / PHASE SHIFT
J L5Q -0.25000                                              SYS / PHASE SHIFT
S L1C                                                       SYS / PHASE SHIFT
 24 R01  1 R02 -4 R03  5 R04  6 R05  1 R06 -4 R07  5 R08  6 GLONASS SLOT / FRQ #
    R09 -2 R10 -7 R11  0 R12 -1 R13 -2 R14 -7 R15  0 R16 -1 GLONASS SLOT / FRQ #
    R17  4 R18 -3 R19  3 R20  2 R21  4 R22 -3 R23  3 R24  2 GLONASS SLOT / FRQ #
 C1C  -71.940 C1P  -71.940 C2C  -71.940 C2P  -71.940        GLONASS COD/PHS/BIS
    18    18  1929     7                                    LEAP SECONDS
                                                            END OF HEADER
> 2026 04 30 10 00  0.0000000  0 40
G02  24527731.196   128894099.65506      3437.159          41.200    24527733.345   100436978.41306      2678.308          36.200
G07  25195375.826   132402588.71906      1902.339          40.300    25195376.874   103170852.88206      1482.344          40.150
G08  22739773.789   119498362.81607      2773.018          42.200    22739776.794    93115623.36407      2160.795          42.250    22739778.542    89235818.19608      2070.698          49.200
G10  23168856.542   121753245.65508      2891.104          48.700    23168860.972    94872710.21808      2252.809          48.750    23168862.330    90919701.16308      2158.986          49.150
G16  20045824.365   105341541.40407      -410.000          46.150    20045822.764    82084315.22807      -319.481          46.200
G18  22255066.238   116951195.22407     -2609.653          43.750    22255066.328    91130814.37507     -2033.499          43.200    22255072.810    87333734.02408     -1948.770          51.800
G23  21928668.940   115236015.72707      1170.746          47.400    21928669.610    89794351.27607       912.270          44.850    21928676.071    86052952.44608       874.192          51.450
G26  21437601.020   112655368.95108     -2489.507          48.750    21437603.753    87783415.56008     -1939.878          48.550    21437605.396    84125779.98309     -1859.011          54.000
G27  20641536.018   108472061.14308      1459.062          49.450    20641536.733    84523713.71508      1136.932          49.650    20641538.839    81001904.96909      1089.545          55.000
G31  24993966.130   131344064.07607     -3530.246          43.350    24993970.306   102346001.98007     -2750.849          42.800
R07  23470836.160   125641259.33506      1000.299          37.600    23470839.877    97721007.80406       778.002          37.400    23470839.969    97720999.80306       778.002          37.700
R08  24127814.049   129203341.86606      3275.155          38.850    24127823.245   100491541.79106      2547.349          39.900    24127823.276   100491538.79606      2547.348          41.100
R13  20593680.598   109969087.86607     -3314.790          43.200
R14  19693712.338   104978604.53607      1223.020          47.050    19693717.679    81650043.20208       951.238          49.800    19693717.611    81650042.20508       951.238          50.400
R15  23209897.547   124026650.60206      4071.324          41.250    23209903.379    96465195.37106      3166.588          40.050    23209903.329    96465198.37906      3166.588          40.350
R17  23627976.119   126438072.41207      3469.773          42.900    23627983.220    98340743.54606      2698.711          41.000    23627983.251    98340745.55406      2698.712          41.800
R22  24135552.903   128837206.83006     -3730.581          40.700    24135559.295   100206748.06305     -2901.558          32.250    24135559.302   100206748.06905     -2901.558          33.150
R23  20904512.849   111825063.97407     -2895.622          44.300
R24  19887063.284   106345207.28508      1294.913          48.700    19887066.973    82712923.04808      1007.155          49.750    19887067.042    82712929.04908      1007.156          50.350
E02  25400598.049   133481060.99747      2238.569          45.450    25400604.180    99677446.52408      1671.707          50.200    25400600.196   108345030.74708      1817.083          49.550    25400599.863   102277708.57508      1715.344          49.450    25400601.997   100977567.85908      1693.546          52.550
E10  24369791.724   128064157.24048     -1463.336          49.750    24369797.152    95632368.79108     -1092.717          52.400    24369794.186   103948200.66209     -1187.740          54.450    24369793.308    98127106.29108     -1121.261          52.400    24369795.047    96879737.85209     -1107.001          55.050
E11  21826897.571   114701167.42247        70.752          46.250    21826899.706    85653500.21308        52.803          50.600    21826895.530    93101610.91308        57.381          53.350    21826895.612    87887927.21708        54.193          50.300    21826897.644    86770705.02308        53.510          53.100
E12  25822230.393   135696758.52046     -2422.135          41.300    25822235.096   101332013.06507     -1808.775          45.000    25822229.793   110143475.28107     -1965.999          46.800    25822230.567   103975452.82107     -1855.850          44.100    25822232.807   102653729.75107     -1832.364          47.200
E16  25448230.046   133731383.69048     -2331.918          49.350    25448237.410    99864391.14708     -1741.354          48.300    25448231.752   108548215.04208     -1892.821          50.400    25448233.526   102469517.46008     -1786.804          48.850    25448235.331   101166951.61508     -1764.117          51.150
E25  23241752.345   122136238.87648      -210.560          49.800    23241757.610    91205671.59708      -157.234          53.100    23241752.562    99136566.64109      -170.896          56.900    23241753.385    93584931.80208      -161.294          53.200    23241755.983    92395295.51109      -159.292          55.850
E36  25348697.503   133208361.43548      2467.667          48.500    25348705.862    99473832.18608      1842.758          48.550    25348699.171   108123684.23408      2003.065          50.650    25348701.574   102068792.33408      1890.872          49.550    25348703.344   100771317.06508      1866.807          51.450
C06  39877425.814   209557301.69106      -616.393          37.150    39877424.432   207652247.08606      -610.698          36.500    39877430.151   156487632.28107      -460.242          42.450    39877427.574   168734462.15206      -496.468          39.950
C09                                                                  38848655.458   202295214.26706       176.430          38.250                                                                    38848659.663   164381472.73907       143.458          42.050    38848660.776   156427527.44507       136.558          42.850
C12  26335142.668   138392115.23405      -496.622          34.600    26335142.473   137133987.63205      -492.823          32.050    26335166.277   103344862.71106      -371.094          39.500    26335146.744   111432637.45906      -400.044          40.700
C19  26101919.418   137166525.08006       806.279          37.600    26101921.763   135919590.30705       798.538          33.500    26101928.399   102429631.61307       602.017          44.400    26101922.410   110445837.93206       649.105          38.800
C20                                                                  27418756.370   142776661.65304     -1265.944          28.150    27418762.404   107597125.50307      -954.232          42.700    27418756.628   116017732.16906     -1029.115          38.750
C22  25890245.384   136054200.10806      2677.128          40.350    25890245.814   134817338.62206      2652.872          41.400    25890255.065   101598961.96307      1999.176          43.100    25890248.674   109550161.32406      2155.810          38.300
C24  22628547.380   118913824.90508     -1822.108          48.300    22628547.626   117832790.71907     -1805.494          47.950    22628549.146    88799288.52608     -1360.677          53.200    22628548.177    95748789.14208     -1467.182          52.000
C25  23393738.142   122934938.78307      1573.343          45.550    23393738.857   121817354.12107      1559.101          45.850    23393741.670    91802085.75708      1174.908          48.700    23393739.913    98986589.25608      1266.872          48.650
C26  25431759.576   133644753.09507     -3437.413          42.600    25431759.905   132429803.90006     -3405.981          41.550    25431770.330    99799662.85007     -2566.786          43.600    25431766.437   107610065.44007     -2767.698          44.300
C31  21495261.668   112958410.89607      -811.363          47.150    21495263.078   111931525.19707      -803.958          47.550    21495267.221    84352108.52709      -605.880          54.250    21495264.320    90953553.72608      -653.257          52.800
C34  22693249.149   119253882.39007      1862.545          45.650    22693249.271   118169756.21707      1845.560          45.900    22693254.351    89053285.56608      1390.820          50.150    22693252.215    96022640.99008      1499.673          48.850
C35  24694055.404   129768137.11106     -2617.949          40.050    24694056.823   128588431.23607     -2593.847          43.650    24694062.818    96904799.59407     -1954.810          45.950    24694059.420   104488641.19907     -2107.892          44.900
S21  37771605.244                           5.531          45.600
S36  37795352.054   198615900.79007         1.498          47.050
> 2026 04 30 10 00 30.0000000  0 40
G02  24508123.501   128791061.16306      3432.477          37.400    24508125.690   100356688.66506      2674.663          37.000
G07  25184555.060   132345724.72806      1888.829          39.800    25184556.106   103126543.28206      1471.815          39.700
G08  22723956.463   119415242.40707      2768.417          42.350    22723959.449    93050854.25907      2157.209          42.650    22723961.076    89173747.80508      2067.419          49.200
G10  23152376.679   121666644.20107      2882.414          45.000    23152380.664    94805228.61407      2246.041          44.850    23152382.011    90855031.33308      2152.433          49.150
G16  20048216.236   105354110.15707      -427.806          45.950    20048214.605    82094109.03807      -333.356          46.150
G18  22269989.278   117029616.83107     -2618.425          45.350    22269989.377    91191922.07207     -2040.334          44.550    22269996.256    87392295.53108     -1955.278          51.250
G23  21922037.315   115201166.59107      1152.525          46.600    21922037.985    89767196.12907       898.072          45.300    21922044.617    86026928.75708       860.796          51.500
G26  21451849.826   112730246.62708     -2502.437          48.300    21451852.605    87841761.72808     -1949.953          48.000    21451854.178    84181695.04608     -1868.606          53.850
G27  20633236.038   108428444.60008      1448.859          49.200    20633236.760    84489726.80608      1128.981          49.050    20633238.832    80969334.18509      1081.920          54.850
G31  25014113.950   131449940.98906     -3527.809          40.250    25014118.689   102428503.14806     -2748.956          40.500
R07  23465294.348   125611594.21905       977.850          32.200    23465297.427    97697934.95206       760.541          39.250    23465297.601    97697926.95306       760.542          40.100
R08  24109487.506   129105204.65606      3267.277          36.900    24109496.348   100415213.01805      2541.219          35.750    24109496.348   100415210.06206      2541.229          37.400
R13  20612352.898   110068796.06707     -3332.089          43.500
R14  19686899.428   104942287.71807      1198.298          47.050    19686904.802    81621796.78408       932.009          49.700    19686904.699    81621795.79008       932.010          50.300
R15  23187061.411   123904621.70006      4064.038          41.100    23187067.080    96370284.01406      3160.920          39.550    23187067.043    96370287.01806      3160.921          39.950
R17  23608540.954   126334070.98306      3463.973          39.650    23608547.780    98259853.53306      2694.202          41.450    23608548.006    98259855.53907      2694.203          42.000
R22  24156511.111   128949082.35406     -3727.776          36.600    24156517.672   100293762.25506     -2899.388          37.500    24156517.703   100293762.25306     -2899.387          37.900
R23  20920772.904   111912044.52607     -2903.104          42.100
R24  19879843.222   106306598.15608      1279.228          48.800    19879846.869    82682893.74408       994.956          49.750    19879846.923    82682899.74608       994.955          50.400
E02  25387831.107   133413970.47847      2234.129          45.050    25387837.251    99627346.47308      1668.402          50.150    25387833.338   108290574.17408      1813.404          49.350    25387832.925   102226301.56808      1711.901          49.600    25387835.068   100926814.33208      1690.133          52.650
E10  24378173.679   128108204.63548     -1473.019          49.250    24378179.092    95665261.30808     -1100.004          52.400    24378176.185   103983953.40409     -1195.622          54.350    24378175.237    98160856.87408     -1128.714          52.550    24378176.999    96913059.40009     -1114.342          55.150
E11  21826530.282   114699237.44247        58.202          45.900    21826532.436    85652058.98408        43.433          50.550    21826528.285    93100044.35908        47.224          53.300    21826528.348    87886448.39708        44.516          50.350    21826530.381    86769244.99708        44.003          53.200
E12  25836074.562   135769507.21446     -2427.639          40.500    25836079.131   101386338.32407     -1812.825          44.650    25836074.007   110202524.51307     -1970.527          46.650    25836074.596   104031195.27407     -1860.151          44.400    25836076.558   102708763.60607     -1836.472          47.200
E16  25461562.333   133801445.31147     -2338.739          47.150    25461569.442    99916709.75007     -1746.404          47.900    25461564.513   108605083.13308     -1898.331          50.800    25461566.149   102523200.90708     -1791.960          48.700    25461567.656   101219952.63708     -1769.195          50.950
E25  23242984.786   122142715.44948      -221.022          49.500    23242990.063    91210507.98508      -165.096          53.000    23242985.043    99141823.59309      -179.439          56.850    23242985.912    93589894.36308      -169.422          53.350    23242988.451    92400194.98509      -167.265          55.950
E36  25334632.539   133134449.76448      2459.907          48.100    25334640.623    99418638.47807      1836.865          47.900    25334634.184   108063691.04708      1996.640          50.850    25334636.859   102012158.79908      1884.779          49.750    25334638.458   100715403.44408      1860.825          51.400
C06  39880958.715   209575870.91605      -621.624          35.700    39880958.703   207670647.47306      -615.772          36.100    39880963.443   156501498.87207      -464.032          42.550    39880960.468   168749413.95606      -500.273          39.100
C09                                                                  38847655.784   202290008.96206       170.289          39.200                                                                    38847660.075   164377243.01607       138.439          42.050    38847661.259   156423502.41307       131.789          42.800
C12  26338023.666   138407256.16505      -512.915          34.250    26338022.994   137148998.86715      -508.530          30.500    26338047.978   103356169.19806      -382.771          40.400    26338028.172   111444828.79906      -412.562          40.900
C19  26097360.282   137142567.62506       790.976          37.800    26097361.736   135895850.60606       783.871          36.350    26097370.183   102411741.32107       590.770          44.400    26097362.758   110426547.49906       636.907          39.000
C20                                                                  27426094.932   142814888.55614     -1280.317          29.300    27426099.549   107625918.38007      -965.156          43.800    27426093.678   116048778.39406     -1040.600          39.550
C22  25874974.856   135973952.66906      2672.738          38.850    25874975.481   134737820.75306      2648.492          41.550    25874984.130   101539037.19506      1995.959          41.450    25874977.449   109485546.68206      2152.224          40.200
C24  22638989.328   118968697.54307     -1836.060          47.700    22638989.507   117887164.51908     -1819.269          48.200    22638991.282    88840264.78108     -1370.997          53.200    22638990.219    95792972.25608     -1478.271          51.650
C25  23384797.512   122887955.27807      1559.238          45.050    23384798.232   121770797.75107      1544.879          45.650    23384800.914    91767000.67508      1164.286          48.700    23384799.203    98948758.38808      1255.348          48.700
C26  25451389.705   133747909.19406     -3439.644          41.000    25451389.753   132532022.23607     -3408.463          42.850    25451399.983    99876694.74807     -2568.602          43.700    25451396.812   107693125.97706     -2769.675          40.850
C31  21499917.677   112982878.38207      -819.634          46.900    21499919.087   111955770.24707      -812.216          47.650    21499923.258    84370379.68909      -612.103          54.150    21499920.340    90973254.81508      -659.999          52.600
C34  22682637.322   119198116.87007      1855.237          45.550    22682637.379   118114497.66307      1838.363          45.950    22682642.460    89011642.51308      1385.405          50.000    22682640.295    95977738.89808      1493.927          48.850
C35  24709005.675   129846697.86907     -2619.439          42.100    24709005.842   128666277.83806     -2595.736          40.600    24709012.583    96963464.97007     -1956.145          45.050    24709009.603   104551897.80707     -2109.092          44.150
S21  37771572.821                           6.063          45.250
S36  37795340.975   198615844.93907         2.021          46.900
> 2026 04 30 10 01  0.0000000  0 41
G02  24488546.076   128688180.88706      3426.780          39.650    24488548.218   100276522.29406      2670.218          37.950
G07  25173809.875   132289258.68306      1875.296          39.250    25173811.125   103082543.78606      1461.270          39.500
G08  22708165.303   119332259.64007      2763.741          42.700    22708168.322    92986192.40607      2153.566          42.350    22708169.793    89111780.21408      2063.889          49.300
G10  23135947.467   121580309.27008      2873.389          48.000    23135951.917    94737954.74507      2239.007          47.800    23135953.227    90790560.56408      2145.674          50.350
G16  20050711.133   105367220.59407      -445.888          46.450    20050709.464    82104324.94107      -347.446          46.550
G18  22284962.658   117108302.58607     -2626.973          45.850    22284962.833    91253235.58607     -2046.994          44.800    22284969.703    87451054.33908     -1961.891          51.000
G23  21915509.383   115166862.57407      1134.371          47.150    21915510.153    89740465.75707       883.926          45.200    21915516.927    86001312.16708       847.113          51.850
G26  21466172.284   112805511.43208     -2515.232          48.700    21466175.143    87900409.55008     -1959.924          48.600    21466176.612    84237899.20409     -1878.251          54.000
G27  20624994.755   108385136.28608      1438.562          49.550    20624995.451    84455980.06608      1120.957          49.700    20624997.456    80936993.56009      1074.225          55.050
G31  25034248.261   131555747.09107     -3525.492          43.350    25034253.298   102510949.17407     -2747.138          42.950
R07  23459880.774   125582622.05905       954.337          32.700    23459885.240    97675401.12006       742.263          39.650    23459885.530    97675393.12606       742.263          40.350
R08  24091206.794   129007313.87006      3258.793          37.550    24091215.592   100339075.89306      2534.627          38.250    24091215.601   100339072.87106      2534.625          37.400
R13  20631123.008   110169026.66707     -3349.570          43.100
R14  19680226.058   104906714.87007      1173.409          47.350    19680231.464    81594129.00708       912.651          49.650    19680231.417    81594128.01108       912.651          50.350
R15  23164266.126   123782810.63606      4056.937          41.600    23164271.439    96275542.09006      3155.392          37.600    23164271.382    96275545.09506      3155.392          37.500
R17  23589139.847   126230254.04106      3457.685          40.650    23589147.374    98179107.15407      2689.316          43.300    23589147.493    98179109.15807      2689.316          43.850
R22  24177454.643   129060881.44105     -3725.132          35.300    24177461.779   100380716.84406     -2897.333          36.650    24177461.836   100380716.83606     -2897.333          36.750
R23  20937074.350   111999245.88506     -2910.359          41.600
R24  19872711.766   106268462.86108      1263.376          48.750    19872715.383    82653232.96908       982.627          49.800    19872715.429    82653238.97208       982.626          50.350
E02  25375090.936   133347020.42847      2229.403          45.600    25375097.114    99577351.33108      1664.791          50.200    25375093.124   108236231.61408      1809.574          48.850    25375092.844   102175002.20308      1708.177          49.750    25375094.888   100876167.07708      1686.469          52.950
E10  24386611.955   128152547.95048     -1482.989          49.750    24386617.352    95698374.80108     -1107.414          52.600    24386614.469   104019946.34509     -1203.737          54.350    24386613.481    98194834.19908     -1136.302          52.600    24386615.263    96946604.81009     -1121.868          55.450
E11  21826234.703   114697684.06347        45.551          46.300    21826236.830    85650898.99408        33.970          50.750    21826232.707    93098783.50208        36.899          53.200    21826232.752    87885258.14208        34.841          50.550    21826234.782    86768069.87808        34.392          53.650
E12  25849950.061   135842423.14746     -2432.989          38.200    25849954.524   101440788.44807     -1817.063          44.050    25849949.812   110261709.43707     -1974.990          45.150    25849950.551   104087065.81407     -1864.326          44.000    25849952.051   102763923.94307     -1840.669          47.050
E16  25474933.449   133871712.94647     -2345.664          47.900    25474940.935    99969182.16908     -1751.573          48.650    25474936.398   108662118.40208     -1903.933          50.200    25474937.573   102577042.18008     -1797.319          48.350    25474939.174   101273109.48308     -1774.426          51.400
E25  23244278.115   122149511.97448      -231.743          49.650    23244283.409    91215583.29008      -173.128          53.250    23244278.388    99147340.23709      -188.174          56.700    23244279.307    93595102.07008      -177.653          53.550    23244281.798    92405336.48909      -175.369          56.300
E36  25320613.272   133060778.72848      2451.856          48.050    25320621.085    99363624.45408      1830.803          48.100    25320615.233   108003893.17708      1990.045          51.400    25320617.737   101955709.63308      1878.544          49.600    25320619.447   100659671.85008      1854.674          51.750
C06  39884521.784   209594598.54605      -626.836          34.550    39884522.913   207689204.80606      -621.206          38.550    39884527.342   156515483.73607      -467.954          43.350    39884523.743   168764493.31606      -504.828          38.700
C09                                                                  38846692.473   202284991.42606       164.266          39.400                                                                    38846696.788   164373165.86907       133.410          42.050    38846697.470   156419622.53007       127.048          43.100
C12                                                                                                                                  26341019.989   103367829.45206      -394.524          41.800    26340999.621   111457401.59306      -425.585          40.800
C19  26092888.801   137119068.50106       775.660          38.700    26092889.528   135872565.04806       768.874          36.700    26092898.824   102394193.26807       579.306          44.900    26092890.513   110407626.09306       624.667          39.250
C20  27433513.291   144164085.11514     -1308.365          28.750    27433515.973   142853503.97515     -1295.025          30.750    27433520.214   107655039.40907      -976.209          43.000    27433514.528   116080178.43406     -1052.405          39.900
C22  25859729.936   135893842.15606      2668.177          38.650    25859730.790   134658438.53506      2644.035          39.550    25859738.876   101479214.66606      1992.455          41.500    25859733.257   109421042.37207      2148.339          43.150
C24  22649510.883   119023988.89007     -1849.931          47.800    22649511.171   117941953.21008     -1833.007          48.650    22649512.989    88881553.70408     -1381.450          53.300    22649511.753    95837492.51108     -1489.589          51.600
C25  23375939.298   122841405.24007      1544.392          45.450    23375940.131   121724670.89007      1530.439          45.950    23375942.828    91732239.29208      1153.299          48.950    23375940.962    98911276.54308      1243.560          48.700
C26  25471034.010   133851140.17106     -3442.003          41.750    25471034.452   132634314.71707     -3410.960          43.650    25471044.739    99953782.49607     -2570.482          45.200    25471040.311   107776246.83906     -2771.567          41.900
C31  21504621.706   113007598.21907      -827.991          47.200    21504623.135   111980265.36407      -820.464          47.750    21504627.312    84388839.29609      -618.429          54.400    21504624.388    90993159.09608      -666.808          52.800
C34  22672067.580   119142572.39907      1847.761          45.750    22672067.565   118059458.12507      1831.128          46.100    22672072.644    88970164.52108      1379.897          50.250    22672070.471    95933014.80108      1487.882          48.950
C35  24723965.721   129925312.66706     -2621.462          38.450    24723965.281   128744177.96207     -2597.377          43.700    24723971.917    97022170.72807     -1957.401          44.500    24723969.023   104615197.97707     -2110.611          42.950
S21  37771539.094                           6.044          45.900
S23  38245398.553   200980923.93717        -1.168          46.350
S36  37795329.615   198615785.57707         2.004          47.150
> 2026 04 30 10 01 30.0000000  0 40
G02  24468999.981   128585465.03306      3420.927          41.750    24469001.798   100196483.96606      2665.654          39.800
G07  25163141.484   132233196.84806      1862.271          39.050    25163142.755   103038859.27606      1451.122          38.700
G08  22692401.483   119249419.88107      2759.220          43.050    22692404.395    92921641.98807      2150.043          42.900    22692405.817    89049919.40608      2060.310          49.300
G10  23119570.846   121494248.36207      2864.276          47.550    23119575.484    94670894.37207      2231.905          47.350    23119576.824    90726294.39308      2138.898          49.850
G16  20053309.767   105380876.44607      -464.056          46.450    20053308.103    82114965.84307      -361.603          46.300
G18  22299986.795   117187254.98207     -2636.065          45.400    22299987.071    91314756.88607     -2054.073          44.350    22299993.731    87510012.21308     -1968.507          50.950
G23  21909086.452   115133109.83507      1115.902          47.700    21909087.174    89714164.94007       869.537          44.650    21909094.068    85976107.22908       833.347          51.550
G26  21480569.019   112881166.25108     -2528.340          48.900    21480571.850    87959361.28208     -1970.138          48.950    21480573.257    84294394.59608     -1887.935          53.900
G27  20616813.123   108342141.43008      1428.164          49.550    20616813.811    84422477.58308      1112.855          49.550    20616815.726    80904887.02509      1066.395          54.900
G31  25054369.817   131661484.35606     -3523.103          41.200    25054374.340   102593341.60207     -2745.289          42.100
R07  23454596.919   125554349.76605       930.818          33.450    23454604.392    97653411.60906       723.961          39.850    23454604.481    97653403.60806       723.961          40.200
R08  24072974.310   128909679.11106      3250.199          39.250    24072982.959   100263137.89106      2527.941          40.200    24072982.915   100263134.86606      2527.935          40.350
R13  20649991.157   110269780.80707     -3366.905          43.250
R14  19673693.473   104871892.58307      1148.275          47.450    19673698.820    81567044.99208       893.102          49.700    19673698.813    81567043.99408       893.102          50.300
R15  23141512.988   123661226.15106      4049.240          39.800    23141518.952    96180976.43406      3149.415          41.700    23141518.997    96180979.43807      3149.416          42.300
R17  23569775.031   126126627.80007      3451.273          42.900    23569782.241    98098508.99406      2684.324          41.650    23569782.394    98098511.00107      2684.325          42.400
R22  24198384.865   129172606.93506     -3722.935          39.900    24198391.768   100467614.40405     -2895.615          30.700    24198391.677   100467614.39805     -2895.615          31.100
R23  20953417.500   112086670.75106     -2917.632          41.850
R24  19865669.618   106230805.66608      1247.250          48.950    19865673.309    82623944.05508       970.084          50.000    19865673.381    82623950.05808       970.084          50.600
E02  25362378.598   133280216.77547      2224.346          45.600    25362384.744    99527465.49908      1661.101          50.100    25362380.779   108182007.87308      1805.587          49.050    25362380.494   102123814.99908      1704.457          49.750    25362382.587   100825630.56008      1682.774          52.500
E10  24395107.162   128197190.29948     -1492.986          49.800    24395112.536    95731711.59408     -1114.894          52.550    24395109.668   104056181.99409     -1211.831          54.350    24395108.638    98229040.64608     -1143.967          52.650    24395110.425    96980376.42909     -1129.427          55.200
E11  21826011.519   114696511.23947        32.647          46.200    21826013.655    85650023.18108        24.412          50.700    21826009.517    93097831.52908        26.542          53.150    21826009.575    87884359.48008        25.037          50.700    21826011.600    86767182.64008        24.741          53.250
E12  25863857.600   135915509.22346     -2438.705          37.500    25863861.902   101495365.63707     -1821.140          43.800    25863857.141   110321032.50307     -1979.721          44.950    25863858.107   104143066.78307     -1868.859          44.100    25863859.805   102819213.02107     -1845.046          46.600
E16  25488345.395   133942190.48448     -2352.698          49.900    25488352.852   100021811.37108     -1756.796          48.800    25488347.506   108719324.11608     -1909.630          49.350    25488348.883   102631044.34408     -1802.702          48.450    25488350.801   101326425.16808     -1779.724          51.150
E25  23245633.281   122156633.58548      -242.809          49.600    23245638.630    91220901.35108      -181.276          53.150    23245633.591    99153120.74309      -197.036          56.650    23245634.554    93600558.86208      -185.947          53.650    23245637.006    92410723.91809      -183.611          56.000
E36  25306640.766   132987353.77547      2443.552          47.650    25306648.532    99308794.19508      1824.606          48.200    25306643.292   107944295.06408      1983.293          51.750    25306645.150   101899449.01908      1872.230          49.250    25306647.240   100604126.41308      1848.428          51.350
C06  39888116.207   209613488.53105      -632.518          35.200    39888118.271   207707923.13106      -626.392          37.650    39888122.358   156529589.88107      -472.142          42.900    39888117.847   168779703.42406      -509.091          38.350
C09                                                                  38845765.688   202280166.14806       157.535          41.300                                                                    38845770.094   164369244.91807       128.234          42.900    38845770.788   156415891.31207       121.981          42.050
C12                                                                  26344058.504                        -539.416          33.650    26344082.798   103379846.66407      -406.497          44.000    26344061.968   111470359.26806      -438.291          41.050
C19  26088505.807   137096033.41306       760.332          37.150    26088506.345   135849739.43705       753.163          35.100    26088515.671   102376991.80007       567.709          44.650    26088506.996   110389078.43406       612.194          39.400
C20  27441017.951   144203524.50515     -1322.077          31.550    27441020.258   142892584.88105     -1310.131          33.300    27441025.236   107684490.85907      -987.180          42.400    27441019.708   116111934.80406     -1064.523          39.850
C22  25844512.552   135813875.81006      2663.227          40.150    25844513.225   134579199.15806      2639.337          40.050    25844521.473   101419499.85707      1988.758          42.150    25844516.405   109356654.13307      2144.306          42.400
C24  22660112.716   119079702.02307     -1863.948          47.850    22660113.187   117997159.86208     -1847.069          48.650    22660114.884    88923157.60208     -1391.972          53.150    22660113.404    95882352.39308     -1500.915          51.000
C25  23367164.710   122795294.68907      1529.726          45.300    23367165.567   121678979.51607      1515.922          45.700    23367168.194    91697806.08608      1142.303          48.950    23367166.467    98874148.56708      1231.719          48.400
C26  25490693.309   133954448.46607     -3444.475          42.200    25490693.428   132736683.86407     -3413.436          42.350    25490704.229   100030927.98007     -2572.428          43.650    25490700.058   107859429.90307     -2773.775          43.700
C31  21509374.482   113032574.15607      -836.740          47.150    21509375.934   112005014.23507      -829.047          47.850    21509380.092    84407490.12609      -624.789          54.300    21509377.153    91013269.55908      -673.706          52.600
C34  22661540.757   119087253.65907      1840.304          45.400    22661540.760   118004642.29207      1823.599          46.100    22661545.770    88928855.09508      1374.194          50.100    22661543.618    95888472.45508      1481.758          48.900
C35  24738936.285   130003985.29406     -2623.408          38.900    24738936.989   128822135.33507     -2599.102          43.350    24738942.762    97080919.63407     -1958.978          44.650    24738939.608   104678544.66507     -2112.235          43.100
S21  37771505.785                           5.813          45.650
S36  37795317.991   198615724.72107         2.118          47.100
> 2026 04 30 10 02  0.0000000  0 39
G02  24449484.870   128482914.52206      3415.505          40.550    24449487.091   100116574.51806      2661.432          39.800
G07  25152550.380   132177540.87606      1848.561          39.150    25152551.388   102995490.96606      1440.436          39.000
G08  22676665.029   119166723.77807      2754.053          42.700    22676667.831    92857203.50007      2146.016          42.950    22676669.251    88988165.85408      2056.641          49.250
G10  23103246.456   121408464.05107      2854.722          47.050    23103250.978    94604049.55807      2224.463          47.000    23103252.331    90662234.79008      2131.816          48.850
G16  20056012.407   105395078.16207      -482.526          46.350    20056010.638    82126032.09607      -375.995          46.650
G18  22315061.307   117266471.61807     -2645.022          45.500    22315061.443    91376484.09007     -2061.053          44.850    22315068.320    87569167.41708     -1975.151          51.700
G23  21902768.723   115099909.73907      1097.388          47.250    21902769.402    89688294.75807       855.109          45.500    21902776.214    85951314.97108       819.498          51.400
G26  21495039.628   112957209.21408     -2541.400          48.650    21495042.381    88018615.46708     -1980.314          48.600    21495043.819    84351179.84108     -1897.716          53.900
G27  20608691.244   108299460.52608      1417.353          49.350    20608691.894    84389219.73708      1104.431          49.400    20608693.745    80873014.91009      1058.449          54.850
G31  25074477.244   131767150.15906     -3521.214          40.150    25074482.342   102675678.30206     -2743.819          40.500
R07  23449445.413   125526778.91605       907.753          32.650    23449454.393    97631967.79006       706.038          41.350    23449454.501    97631959.79306       706.038          41.750
R08  24054789.901   128812304.07305      3241.152          33.750    24054798.883   100187402.04306      2520.914          37.550    24054798.812   100187399.05306      2520.915          39.100
R13  20668956.600   110371054.99507     -3384.634          43.000
R14  19667302.111   104837822.72607      1122.953          47.400    19667307.329    81540546.20408       873.407          49.450    19667307.309    81540545.20908       873.407          50.100
R15  23118803.114   123539871.72706      4041.273          41.400    23118808.831    96086589.64606      3143.206          37.750    23118808.936    96086592.65306      3143.206          38.100
R17  23550445.347   126023192.83906      3444.340          39.400    23550452.575    98018059.62006      2678.935          41.200    23550452.715    98018061.62607      2678.935          42.200
R23  20969801.572   112174315.77307     -2925.254          43.000
R24  19858716.836   106193626.09608      1231.181          49.000    19858720.555    82595026.62708       957.586          49.800    19858720.634    82595032.63008       957.586          50.400
E02  25349694.382   133213560.67347      2219.300          45.750    25349700.523    99477689.85208      1657.344          50.200    25349696.637   108127903.90708      1801.401          48.650    25349696.218   102072740.85708      1700.511          49.600    25349698.342   100775205.66608      1678.916          52.700
E10  24403658.965   128242130.03048     -1503.000          49.400    24403664.311    95765270.46108     -1122.300          52.450    24403661.457   104092659.03409     -1219.923          54.100    24403660.397    98263474.97308     -1151.622          52.500    24403662.185    97014373.02509     -1136.962          55.250
E11  21825860.631   114695718.17047        19.907          46.100    21825862.736    85649430.95808        14.949          50.650    21825858.604    93097187.81208        16.193          52.900    21825858.681    87883751.80508        15.337          50.600    21825860.679    86766582.69308        15.120          53.400
E12  25877797.722   135988763.56346     -2444.638          40.100    25877801.963   101550068.52507     -1825.520          45.200    25877797.076   110380492.19607     -1984.274          46.300    25877797.721   104199196.71807     -1873.234          43.850    25877799.736   102874629.42907     -1849.328          47.300
E16  25501796.978   134012877.16948     -2359.715          49.700    25501804.377   100074596.76208     -1762.194          48.800    25501798.684   108776699.62408     -1915.337          49.150    25501800.324   102685206.76808     -1808.045          48.800    25501802.187   101379899.07708     -1785.198          51.500
E25  23247050.389   122164080.65748      -253.685          49.400    23247055.814    91226462.46408      -189.484          53.200    23247050.714    99159165.43409      -205.918          56.450    23247051.709    93606265.05108      -194.412          53.600    23247054.150    92416357.56409      -191.953          56.150
E36  25292715.235   132914175.66047      2435.164          47.850    25292723.185    99254148.25908      1818.410          48.750    25292718.195   107884897.29708      1976.503          51.450    25292719.388   101843377.52508      1865.892          48.950    25292721.887   100548767.70708      1842.131          51.700
C06  39891741.748   209632540.41505      -637.639          34.050    39891744.375   207726801.78706      -631.993          39.000    39891748.157   156543816.90107      -476.249          43.000    39891743.273   168795043.89206      -513.535          38.250
C09                                                                  38844875.798   202275532.64606       151.142          38.550                                                                    38844880.270   164365479.81106       122.799          41.900    38844880.973   156412308.39007       116.967          42.850
C12                                                                  26347211.125   137196824.69915      -555.767          30.650    26347236.288   103392220.53307      -418.421          43.300    26347215.225   111483701.52906      -451.147          41.050
C19  26084211.334   137073463.56606       744.349          37.800    26084212.218   135827374.74506       737.696          37.350    26084220.766   102360137.72307       555.938          44.800    26084212.449   110370905.29706       599.378          39.950
C20  27448607.204   144243405.37005     -1336.944          31.550    27448609.032   142932103.21705     -1324.921          32.850    27448614.414   107714272.01906      -998.191          39.600    27448608.857   116144046.66406     -1076.398          37.000
C22  25829323.421   135734056.32006      2657.937          39.100    25829324.093   134500105.27407      2633.850          42.200    25829332.323   101359894.66507      1984.942          43.600    25829326.716   109292384.07206      2140.426          38.500
C24  22670794.559   119135835.33507     -1878.203          47.800    22670795.082   118052782.85308     -1861.105          48.300    22670796.665    88965075.25708     -1402.498          53.050    22670795.083    95927550.58808     -1512.270          51.000
C25  23358474.041   122749625.00307      1514.861          45.300    23358474.971   121633725.01607      1501.148          45.700    23358477.560    91663702.10308      1131.252          49.100    23358475.854    98837375.56308      1219.876          48.450
C26  25510366.692   134057831.95206     -3447.419          41.600    25510366.973   132839127.48307     -3416.202          43.350    25510377.078   100108129.63407     -2574.190          42.150    25510373.595   107942673.50207     -2775.895          42.050
C31  21514175.769   113057805.10307      -845.430          46.950    21514177.271   112030015.82307      -837.714          47.750    21514181.390    84426331.40309      -631.230          54.250    21514178.445    91033585.37408      -680.648          52.550
C34  22651056.867   119032160.63207      1832.488          45.250    22651056.939   117950050.10407      1815.879          46.250    22651061.866    88887714.21008      1368.556          50.150    22651059.746    95844111.84308      1475.611          48.950
C35  24753918.580   130082714.67907     -2625.505          42.000    24753918.245   128900149.11606     -2601.550          40.050    24753925.165    97139710.93607     -1960.520          45.600    24753922.142   104741937.06207     -2113.913          44.350
S21  37771472.853                           5.679          45.400
S36  37795308.034   198615671.78607         1.762          46.800
> 2026 04 30 10 02 30.0000000  0 39
G02  24430000.934   128380525.36906      3409.720          40.500    24430003.368   100036790.86006      2656.930          39.350
G07  25142035.922   132122286.26606      1834.709          39.950    25142036.529   102952435.41606      1429.643          40.300
G08  22660954.840   119084166.19207      2749.414          42.650    22660957.597    92792872.95107      2142.402          42.650    22660959.116    88926515.75808      2053.046          49.050
G10  23086974.168   121322953.51108      2845.313          48.550    23086978.393    94537418.05408      2217.130          48.550    23086979.578    90598379.59308      2124.756          49.000
G16  20058817.728   105409820.03307      -500.836          46.200    20058815.934    82137519.24807      -390.263          46.400
G18  22330184.607   117345944.50107     -2653.750          43.050    22330184.760    91438410.95107     -2067.861          43.150    22330191.532    87628513.97708     -1981.647          50.750
G23  21896555.282   115067257.93707      1078.863          47.200    21896555.978    89662851.81707       840.674          45.500    21896562.720    85926932.16108       805.658          51.250
G26  21509582.637   113033632.78908     -2554.062          48.550    21509585.351    88078166.23308     -1990.180          48.650    21509586.864    84408249.30808     -1907.273          53.700
G27  20600628.071   108257088.34208      1406.803          49.200    20600628.712    84356202.45008      1096.210          48.900    20600630.560    80841373.34909      1050.554          54.700
G31  25094569.962   131872735.74106     -3518.300          41.500    25094575.249   102757952.49207     -2741.545          42.050
R07  23444425.367   125499905.40805       883.736          35.100    23444434.463    97611066.20807       687.354          42.350    23444434.524    97611058.21307       687.355          42.850
R08  24036654.236   128715187.39106      3232.647          39.850    24036662.431   100111866.85206      2514.276          36.450    24036662.379   100111863.85105      2514.279          35.700
R13  20688017.705   110472840.15007     -3401.638          42.800
R14  19661051.289   104804502.14107      1097.673          47.400    19661056.416    81514630.18408       853.745          49.650    19661056.424    81514629.18708       853.746          50.200
R15  23096135.975   123418745.24806      4033.396          40.150    23096141.810    95992380.25106      3137.089          40.600    23096141.851    95992383.25606      3137.089          41.100
R17  23531150.786   125919944.42507      3438.147          42.200    23531158.314    97937755.34907      2674.117          43.550    23531158.334    97937757.35107      2674.117          44.250
R22  24240202.211   129395837.21016     -3717.950          40.050    24240209.160   100641234.11216     -2891.741          37.800    24240209.254   100641233.10616     -2891.742          37.800
R23  20986225.492   112262172.73307     -2932.171          43.950
R24  19851852.256   106156917.77108      1215.468          48.850    19851855.881    82566475.71508       945.364          49.950    19851855.948    82566481.71708       945.364          50.700
E02  25337037.380   133147047.61847      2214.315          45.800    25337043.528    99428021.03408      1653.609          49.950    25337039.500   108073916.04708      1797.391          48.600    25337039.250   102021776.32808      1696.745          49.600    25337041.315   100724888.99208      1675.162          52.650
E10  24412265.961   128287359.85048     -1512.823          49.250    24412271.277    95799045.96308     -1129.703          52.250    24412268.416   104129371.54409     -1227.967          54.100    24412267.361    98298131.57608     -1159.203          52.400    24412269.154    97048589.08009     -1144.468          55.150
E11  21825780.758   114695298.32847         7.338          45.950    21825782.852    85649117.43608         5.572          50.500    21825778.682    93096847.02508         6.028          52.900    21825778.793    87883430.10508         5.711          50.550    21825780.783    86766265.08108         5.622          53.350
E12  25891767.849   136062178.91046     -2450.458          38.500    25891772.802   101604891.54607     -1829.737          44.150    25891767.883   110440082.45807     -1988.851          45.450    25891768.538   104255449.90307     -1877.365          44.250    25891770.332   102930167.53207     -1853.569          47.050
E16  25515286.736   134083766.69047     -2366.703          47.800    25515294.075   100127533.57407     -1767.353          47.900    25515289.087   108834239.67308     -1921.039          50.450    25515290.443   102739524.54108     -1813.439          48.550    25515292.044   101433526.36508     -1790.376          51.000
E25  23248528.404   122171847.90748      -264.610          49.250    23248533.929    91232262.65908      -197.611          52.950    23248528.767    99165470.00309      -214.790          56.350    23248529.771    93612216.55808      -202.728          53.450    23248532.228    92422233.42009      -200.199          56.000
E36  25278835.847   132841239.41647      2426.707          47.700    25278843.995    99199682.94708      1812.213          48.800    25278838.870   107825695.84708      1969.802          51.100    25278839.776   101787491.36008      1859.534          48.950    25278842.451   100493591.96508      1835.864          51.700
C06  39895397.312   209651747.88406      -642.947          37.950    39895399.811   207745834.53306      -636.981          38.150    39895403.613   156558160.08607      -480.298          44.400    39895398.812   168810509.61606      -517.959          40.500
C09                                                                  38844021.554   202271085.03406       144.624          38.850                                                                    38844026.039   164361865.76806       117.651          41.750    38844026.905   156408869.20407       112.042          43.350
C12  26350454.010   138472570.31814      -575.729          28.250    26350455.485   137213711.39905      -571.724          33.800    26350479.412   103404946.43207      -430.291          43.750    26350458.153   111497423.36006      -464.111          40.400
C19  26080004.492   137051354.23506       728.912          37.350    26080005.712   135805466.35206       722.447          39.050    26080013.577   102343627.54607       544.322          44.550    26080005.637   110353102.98606       586.853          40.900
C22  25814161.415   135654380.24206      2653.137          38.650    25814162.262   134421153.57806      2628.893          40.900    25814170.352   101300396.63707      1981.190          42.000    25814163.791   109228229.51606      2136.110          39.800
C24  22681555.023   119192381.44907     -1892.211          47.800    22681555.452   118108814.91508     -1874.934          48.100    22681557.000    89007301.19408     -1412.937          52.800    22681555.445    95973081.18108     -1523.498          51.000
C25  23349866.391   122704391.75007      1500.065          45.100    23349867.421   121588902.97507      1486.559          45.800    23349870.000    91629924.02608      1120.263          48.750    23349868.310    98800953.99208      1207.890          48.300
C26  25530053.064   134161282.63007     -3449.703          42.000    25530053.179   132941637.67207     -3418.435          42.200    25530063.566   100185381.49607     -2576.184          44.200    25530059.353   108025971.28606     -2777.769          41.550
C31  21519024.313   113083284.39707      -853.747          46.750    21519025.883   112055263.48507      -846.035          47.700    21519029.945    84445358.13009      -637.576          54.000    21519026.990    91054101.16108      -687.518          52.300
C34  22640614.787   118977287.53107      1825.189          45.100    22640614.994   117895675.85807      1808.513          46.150    22640619.860    88846737.57608      1362.913          50.000    22640617.807    95799928.33508      1469.555          48.850
C35  24768909.506   130161494.27406     -2627.107          38.300    24768909.677   128978212.52007     -2603.312          43.150    24768916.519    97198539.72307     -1961.886          43.850    24768913.527   104805369.88007     -2115.410          42.400
S21  37771438.611                           5.723          45.250
S36  37795295.896   198615609.42307         1.335          46.750
> 2026 04 30 10 03  0.0000000  0 39
G02  24410550.001   128278308.86005      3404.558          35.100    24410552.022    99957141.56805      2652.912          35.850
G07  25131599.906   132067444.43106      1821.343          41.050    25131600.332   102909701.49506      1419.227          41.050
G08  22645273.010   119001757.89207      2744.268          42.700    22645275.782    92728658.74007      2138.392          42.200    22645277.469    88864977.14208      2049.357          49.350
G10  23070756.822   121237729.34908      2836.157          48.350    23070760.929    94471009.68608      2209.998          48.400    23070761.814    90534738.29708      2117.791          48.550
G16  20061727.719   105425111.97907      -518.856          46.450    20061725.907    82149435.03007      -404.304          46.250
G18  22345357.827   117425681.36907     -2662.160          44.850    22345358.582    91500543.47607     -2074.414          44.700    22345364.535    87688057.67708     -1988.052          51.350
G23  21890448.352   115035165.80407      1060.609          46.800    21890449.096    89637844.96907       826.448          45.350    21890455.654    85902967.27308       791.883          51.400
G26  21524199.586   113110445.17608     -2566.834          48.950    21524202.313    88138019.96608     -2000.133          49.000    21524203.929    84465609.11708     -1916.770          53.900
G27  20592625.662   108215035.41808      1396.613          49.300    20592626.300    84323433.94008      1088.270          49.400    20592628.173    80809970.19609      1042.829          54.800
G31  25114648.460   131978248.53406     -3515.463          39.200    25114653.427   102840170.00906     -2739.332          39.300
R07  23439538.810   125473741.00206       860.521          38.400    23439547.127    97590716.17707       669.298          42.400    23439547.093    97590708.17907       669.298          43.000
R08  24018569.389   128618343.58706      3223.879          37.800    24018577.644   100036544.08606      2507.474          39.400    24018577.468   100036541.07006      2507.468          40.350
R13  20707175.773   110575143.03107     -3418.564          42.650
R14  19654943.326   104771942.70707      1072.755          47.300    19654948.382    81489306.17208       834.365          49.400    19654948.364    81489305.17708       834.365          49.950
R15  23073514.020   123297860.54806      4025.414          41.750    23073519.938    95898358.87206      3130.880          41.200    23073519.929    95898361.87606      3130.880          41.500
R17  23511893.401   125816893.57106      3431.698          41.450    23511900.954    97857604.71307      2669.102          43.100    23511901.105    97857606.71807      2669.103          43.750
R23  21002690.910   112350249.07406     -2939.306          41.200
R24  19845077.587   106120690.23408      1199.706          48.800    19845081.143    82538298.75108       933.105          49.900    19845081.203    82538304.75308       933.104          50.550
E02  25324409.824   133080688.88947      2209.387          46.400    25324415.839    99378467.46008      1649.851          50.000    25324411.888   108020053.45308      1793.376          48.900    25324411.533   101970930.04508      1692.916          49.600    25324413.667   100674689.06408      1671.383          52.850
E10  24420929.757   128332888.21848     -1522.463          49.650    24420935.042    95833044.39208     -1136.951          52.400    24420932.223   104166326.36409     -1235.824          54.150    24420931.113    98333016.92208     -1166.681          52.600    24420932.931    97083030.96809     -1151.816          55.400
E11  21825773.648   114695261.03347        -4.970          46.150    21825775.760    85649089.59008        -3.746          50.600    21825771.569    93096816.75608        -4.044          53.100    21825771.710    87883401.53308        -3.788          50.700    21825773.683    86766236.87108        -3.762          53.650
E12  25905770.370   136135763.40946     -2455.571          40.900    25905775.148   101659840.96507     -1833.668          43.700    25905770.201   110499810.11307     -1993.111          44.950    25905771.558   104311832.78307     -1881.527          43.800    25905773.019   102985833.68007     -1857.608          46.800
E16  25528817.276   134154868.15847     -2373.470          47.800    25528824.457   100180628.70508     -1772.456          48.900    25528819.276   108891951.83208     -1926.620          49.600    25528820.517   102794004.79508     -1818.752          48.400    25528822.310   101487314.05708     -1795.590          51.600
E25  23250069.290   122179945.75748      -275.383          49.250    23250074.947    91238309.73408      -205.639          53.100    23250069.709    99172042.92209      -223.518          56.450    23250070.772    93618421.38508      -211.008          53.700    23250073.222    92428359.37009      -208.330          56.350
E36  25265004.571   132768555.78647      2418.654          47.800    25265012.971    99145406.28408      1806.167          49.200    25265007.442   107766699.44408      1963.135          50.900    25265008.440   101731798.76708      1853.226          49.350    25265011.031   100438607.33408      1829.701          52.200
C06  39899084.500   209671120.32606      -648.160          38.400    39899086.071   207765030.87806      -642.487          37.700    39899090.672   156572626.48907      -484.333          44.850    39899086.003   168826108.18206      -522.068          40.600
C09                                                                  38843204.738   202266832.82206       138.556          38.650                                                                    38843209.254   164358410.50506       112.616          41.700    38843210.379   156405581.13207       107.080          43.100
C12  26353788.858   138490090.92915      -591.518          30.800    26353790.085   137231074.64605      -586.795          35.700    26353814.035   103418031.51607      -442.162          44.300    26353792.514   111511532.47406      -476.673          39.750
C19  26075887.437   137029716.45305       713.781          35.900    26075888.687   135784025.32006       707.097          39.250    26075895.960   102327469.52907       532.696          43.650    26075888.699   110335680.38907       574.538          42.000
C22  25799028.898   135574860.32806      2648.232          40.150    25799029.649   134342356.55406      2624.026          40.400    25799037.576   101241015.19506      1977.431          41.050    25799031.679   109164200.76107      2132.109          42.250
C24  22692395.648   119249348.79308     -1905.839          48.100    22692395.938   118165264.37608     -1888.458          48.250    22692397.582    89049841.67908     -1423.255          52.900    22692396.152    96018950.94508     -1534.575          51.400
C25  23341343.965   122659606.30707      1485.620          45.250    23341345.117   121544524.66907      1472.143          45.800    23341347.710    91596480.36308      1109.239          48.950    23341345.920    98764892.99808      1196.007          48.400
C26  25549753.574   134264808.34006     -3451.663          41.600    25549753.578   133044222.27507     -3420.778          43.100    25549764.537   100262689.31707     -2577.797          43.700    25549760.473   108109329.41307     -2779.597          43.250
C31  21523921.858   113109021.07507      -862.102          47.150    21523923.459   112080766.18707      -854.224          47.600    21523927.463    84464577.05309      -643.761          54.050    21523924.527    91074824.17608      -694.143          52.350
C34  22630216.466   118922644.42907      1817.623          45.400    22630216.803   117841529.50107      1801.248          45.850    22630221.622    88805932.68708      1357.296          50.150    22630219.624    95755930.00608      1463.541          48.950
C35  24783912.017   130240333.21506     -2628.938          39.450    24783912.948   129056334.63707     -2604.894          42.900    24783918.491    97257412.82307     -1963.123          43.500    24783915.182   104868850.50006     -2116.771          41.650
S21  37771404.874                           5.722          45.400
S23  38245430.362   200981092.47917        -1.194          46.950
S36  37795285.914   198615558.17907         1.926          46.900
> 2026 04 30 10 03 30.0000000  0 40
G02  24391130.663   128176259.44106      3398.047          38.700    24391132.412    99877622.45906      2647.823          36.350
G07  25121241.625   132013010.17206      1807.243          40.650    25121242.073   102867285.18406      1408.241          40.500
G08  22629618.371   118919492.68507      2739.219          42.700    22629621.184    92664556.02607      2134.457          42.650    22629623.119    88803545.37608      2045.583          49.300
G10  23054592.940   121152787.67107      2826.067          46.650    23054597.030    94404821.47407      2202.134          46.350    23054597.952    90471307.91308      2110.466          49.400
G16  20064741.128   105440947.55707      -537.426          46.150    20064739.327    82161774.42307      -418.774          46.050
G18  22360579.903   117505673.08507     -2671.061          44.250    22360580.429    91562874.61207     -2081.351          44.300    22360586.599    87747791.67808     -1994.640          51.100
G23  21884446.850   115003627.92807      1041.530          47.250    21884447.647    89613270.02107       811.583          45.950    21884453.970    85879416.27608       777.760          50.900
G26  21538888.964   113187637.69308     -2579.959          48.700    21538891.658    88198169.90508     -2010.360          48.450    21538893.298    84523252.79308     -1926.572          53.650
G27  20584682.850   108173295.53308      1385.706          49.000    20584683.452    84290909.35208      1079.771          48.900    20584685.352    80778800.79709      1034.746          54.600
G31  25134711.402   132083679.19906     -3513.478          40.950    25134716.326   102922323.51406     -2737.784          41.650
R07  23434783.822   125448280.89106       836.738          38.650    23434791.061    97570913.92707       650.799          42.100    23434791.053    97570905.92507       650.798          42.800
R08  24000534.833   128521770.30806      3213.896          37.150    24000543.411    99961431.82706      2499.704          39.850    24000543.304    99961428.85706      2499.710          41.550
R13  20726428.848   110677953.58707     -3435.937          42.650
R14  19648977.122   104740139.64107      1046.960          47.250    19648982.284    81464570.44308       814.302          49.450    19648982.242    81464569.44608       814.303          50.050
R15  23050936.474   123177214.47606      4016.840          39.250    23050942.304    95804523.05706      3124.210          39.050    23050942.414    95804526.05906      3124.209          39.750
R17  23492671.472   125714034.42106      3424.929          40.600    23492679.058    97777603.17906      2663.836          41.650    23492679.179    97777605.18307      2663.836          42.100
R22  24281959.743   129618737.12316     -3712.633          37.250    24281967.066   100814599.70615     -2887.609          35.550    24281967.339   100814610.70616     -2887.607          36.850
R23  21019194.868   112438535.01407     -2946.914          42.300
R24  19838391.440   106084936.53208      1183.468          48.750    19838395.013    82510490.32708       920.476          49.700    19838395.076    82510496.33008       920.476          50.250
E02  25311810.546   133014478.90047      2204.017          46.250    25311816.557    99329024.95908      1645.824          50.000    25311812.567   107966311.59608      1788.978          48.900    25311812.195   101920197.73908      1688.761          49.800    25311814.289   100624601.66008      1667.267          52.650
E10  24429648.777   128378706.72048     -1532.540          49.600    24429654.041    95867259.48008     -1144.459          52.250    24429651.211   104203516.68809     -1243.962          54.450    24429650.085    98368124.58008     -1174.320          52.550    24429651.916    97117692.34009     -1159.371          55.100
E11  21825837.895   114695598.69747       -17.895          45.800    21825840.019    85649341.74108       -13.378          50.500    21825835.802    93097090.83208       -14.498          53.150    21825835.960    87883660.25908       -13.653          50.800    21825837.938    86766492.31108       -13.538          53.300
E12  25919804.216   136209508.57346     -2461.377          41.000    25919807.914   101714910.35207     -1837.936          43.350    25919802.947   110559668.17207     -1997.842          44.850    25919804.508   104368338.75607     -1885.908          43.350    25919806.225   103041621.35707     -1861.866          46.200
E16  25542386.749   134226174.14547     -2380.811          47.400    25542393.844   100233876.54108     -1777.836          48.700    25542388.259   108949829.98208     -1932.441          49.550    25542389.517   102848641.73108     -1824.269          48.400    25542391.555   101541256.44208     -1801.012          51.250
E25  23251671.872   122188367.87148      -286.649          49.000    23251677.654    91244598.95208      -214.033          52.950    23251672.362    99178879.04009      -232.658          56.600    23251673.477    93624874.67608      -219.635          53.800    23251675.924    92434730.62509      -216.838          56.050
E36  25251220.168   132696118.77147      2410.010          47.650    25251228.849    99091313.77808      1799.690          49.000    25251222.867   107707903.20308      1956.188          50.700    25251224.191   101676295.13708      1846.598          49.850    25251226.554   100383809.26808      1823.105          52.050
C06  39902801.543   209690650.35606      -653.798          38.250    39902802.207   207784383.40905      -648.331          35.750    39902807.756   156587210.57607      -488.418          45.200    39902803.151   168841833.65906      -526.782          41.650
C09                                                                  38842424.303   202262768.94606       131.680          39.300                                                                    38842428.802   164355108.26807       107.152          42.250    38842430.080   156402438.71007       101.983          43.250
C12  26357214.230   138508087.34705      -607.938          32.250    26357214.808   137248907.43306      -602.941          36.550    26357238.686   103431470.39307      -454.154          44.000    26357216.835   111526023.10406      -489.763          39.800
C19  26071858.924   137008544.53005       697.284          35.500    26071860.188   135763045.86006       691.211          38.850    26071866.930   102311659.35007       520.987          43.800    26071860.247   110318632.90007       561.581          42.400
C22  25783925.574   135495492.37306      2642.683          40.300    25783926.293   134263710.12107      2618.460          42.350    25783933.722   101181747.18507      1973.254          42.200    25783928.679   109100294.33607      2127.736          42.450
C24  22703314.797   119306728.91107     -1919.990          47.900    22703315.024   118222122.84808     -1902.502          48.300    22703316.764    89092690.39508     -1433.775          52.800    22703315.493    96065153.06508     -1545.976          51.600
C25  23332905.679   122615263.24107      1470.425          45.150    23332906.942   121500584.73807      1456.787          45.850    23332909.465    91563367.03908      1097.922          48.900    23332907.752    98729188.18708      1183.901          48.650
C26  25569466.642   134368400.20206     -3454.651          41.350    25569466.792   133146872.32607     -3423.185          42.800    25569477.036   100340046.57306     -2579.732          41.200    25569473.450   108192740.77606     -2781.676          41.000
C31  21528866.911   113135007.36007      -870.936          46.800    21528868.486   112106516.23107      -862.931          47.650    21528872.477    84483982.37608      -650.283          53.950    21528869.563    91095748.18208      -701.139          52.500
C34  22619860.602   118868224.48207      1809.805          45.000    22619861.089   117787604.30307      1793.361          46.100    22619865.921    88765294.44108      1351.399          50.050    22619863.895    95712111.36608      1457.317          49.250
C35  24798924.808   130319223.63806     -2631.166          40.300    24798924.791   129134508.00206     -2607.364          40.600    24798931.050    97316324.42307     -1964.717          45.300    24798927.876   104932372.58707     -2118.419          44.600
S21  37771371.351                           5.449          45.400
S23  38245436.973   200981126.81117        -1.742          45.450
S36  37795274.086   198615496.81707         1.709          46.600
> 2026 04 30 10 04  0.0000000  0 39
G02  24371744.374   128074381.94206      3393.063          40.200    24371746.212    99798237.46006      2643.941          39.250
G07  25110961.697   131958988.77106      1793.810          40.350    25110962.377   102825190.60606      1397.774          40.050
G08  22613991.822   118837375.21107      2734.808          42.800    22613994.674    92600568.43407      2131.021          42.550    22613996.737    88742223.95208      2042.335          49.350
G10  23038484.137   121068135.01208      2817.150          48.450    23038487.867    94338858.40408      2195.177          48.400    23038488.723    90408093.34308      2103.681          48.650
G16  20067858.709   105457330.56107      -555.321          46.200    20067856.936    82174540.38207      -432.719          46.150
G18  22375850.695   117585921.29907     -2679.155          44.000    22375851.130    91625405.66907     -2087.651          43.750    22375857.654    87807717.23408     -2000.621          51.550
G23  21878551.850   114972649.53007      1023.394          46.550    21878552.645    89589131.02107       797.450          45.350    21878558.856    85856283.06508       764.233          50.950
G26  21553651.171   113265212.45508     -2591.843          48.850    21553653.779    88258617.70008     -2019.620          49.200    21553655.404    84581181.92508     -1935.608          53.600
G27  20576800.431   108131873.12008      1375.514          48.850    20576801.025    84258632.14908      1071.829          48.700    20576802.947    80747868.47209      1027.235          54.500
G31  25154759.254   132189028.69906     -3510.068          40.850    25154764.317   103004413.76406     -2735.126          41.200
R07  23430161.558   125423530.71606       813.287          40.000    23430167.413    97551663.83706       632.560          41.950    23430167.494    97551655.83707       632.559          42.450
R08  23982552.649   128425475.87006      3205.300          40.300    23982560.598    99886536.23105      2493.005          35.100    23982560.615    99886533.18105      2492.998          33.250
R13  20745777.162   110781271.89907     -3452.282          42.450
R14  19643153.893   104709098.53307      1022.102          47.550    19643159.096    81440427.34808       794.968          49.400    19643159.072    81440426.35308       794.968          49.900
R15  23028405.551   123056814.85807      4009.336          42.300    23028411.432    95710878.96307      3118.374          42.150    23028411.537    95710881.96707      3118.374          42.550
R17  23473486.740   125611371.91507      3418.817          42.550    23473494.103    97697754.57407      2659.080          43.400    23473494.183    97697756.57707      2659.079          44.150
R22  24302816.682   129730070.44005     -3709.769          33.850    24302824.086   100901192.20606     -2885.381          37.650    24302824.331   100901203.20406     -2885.381          37.800
R23  21035738.201   112527032.17807     -2953.414          43.400
R24  19831794.456   106049659.58508      1167.975          49.100    19831797.988    82483052.71208       908.425          49.650    19831798.060    82483058.71408       908.425          50.200
E02  25299240.525   132948422.84747      2199.441          46.350    25299246.492    99279697.40408      1642.408          49.800    25299242.439   107912694.67808      1785.257          48.900    25299242.226   101869583.37908      1685.259          49.300    25299244.221   100574630.70108      1663.823          52.800
E10  24438423.448   128424817.71448     -1541.771          49.250    24438428.717    95901692.99308     -1151.316          52.200    24438425.833   104240944.42209     -1251.408          54.450    24438424.710    98403456.35408     -1181.310          52.150    24438426.565    97152574.98409     -1166.329          55.300
E11  21825974.064   114696314.43247       -29.877          45.900    21825976.213    85649876.22208       -22.354          50.350    21825971.985    93097671.79108       -24.301          53.250    21825972.162    87884208.68808       -22.947          50.350    21825974.138    86767033.76508       -22.649          53.600
E12  25933868.236   136283416.66946     -2466.224          38.800    25933872.486   101770101.41607     -1841.580          43.850    25933867.676   110619658.47407     -2001.741          45.850    25933868.423   104424969.60407     -1889.638          42.750    25933870.565   103097532.31307     -1865.572          46.600
E16  25555995.303   134297687.83848     -2387.050          48.050    25556002.701   100287279.49908     -1782.560          48.550    25555996.930   109007876.71808     -1937.599          49.500    25555998.361   102903437.81707     -1829.116          47.700    25556000.387   101595355.97208     -1805.856          51.350
E25  23253336.955   122197118.57948      -297.024          48.900    23253342.886    91251133.55208      -221.795          52.950    23253337.564    99185981.87309      -241.121          56.650    23253338.729    93631579.74708      -227.611          53.350    23253341.152    92441350.45709      -224.710          56.300
E36  25237483.573   132623933.02947      2402.137          47.450    25237492.402    99037408.90908      1793.773          48.900    25237486.023   107649310.92208      1949.766          50.850    25237487.902   101620984.05208      1840.554          49.700    25237489.949   100329201.28908      1817.144          52.300
C06  39906549.084   209710341.44306      -658.891          38.200    39906548.733   207803895.46906      -653.258          36.200    39906555.237   156601914.89607      -492.078          44.750    39906550.881   168857688.75006      -530.450          41.100
C09                                                                  38841680.810   202258897.07006       125.970          40.300                                                                    38841685.197   164351962.06307       102.364          42.300    38841686.574   156399444.73907        97.420          42.350
C12  26360730.029   138526560.87305      -623.208          34.850    26360730.279   137267213.00406      -618.240          37.250    26360754.090   103445265.63507      -465.756          43.900    26360732.008   111540897.97406      -502.285          38.450
C19  26067919.576   136987843.39805       682.222          34.950    26067921.163   135742532.92606       676.328          39.350    26067926.982   102296200.76607       509.617          43.100    26067921.495   110301964.50307       549.287          42.650
C22  25768852.317   135416282.78206      2638.048          37.850    25768853.351   134185220.65807      2613.862          42.250    25768860.619   101122597.50607      1969.688          43.100    25768855.166   109036515.42606      2124.011          40.800
C24  22714312.939   119364524.12707     -1933.202          47.900    22714313.162   118279392.65508     -1915.716          48.300    22714314.899    89135849.09308     -1443.681          52.650    22714313.747    96111689.42308     -1556.677          51.350
C25  23324552.608   122571367.79207      1455.594          44.850    23324553.901   121457088.31207      1442.611          45.650    23324556.427    91530587.95208      1087.180          48.850    23324554.769    98693843.79208      1172.258          48.400
C26  25589192.676   134472059.91406     -3456.275          41.600    25589192.600   133249589.69006     -3424.948          41.600    25589203.097   100417454.52107     -2581.024          43.550    25589199.087   108276206.86306     -2783.117          41.950
C31  21533860.037   113161246.19407      -878.627          46.800    21533861.582   112132516.52807      -870.621          47.650    21533865.567    84503576.30208      -656.185          53.800    21533862.650    91116875.55108      -707.533          52.300
C34  22609547.958   118814031.65707      1802.842          45.250    22609548.568   117733904.13707      1786.356          46.050    22609553.442    88724825.79508      1346.246          49.950    22609551.399    95668475.60708      1451.634          49.200
C35  24813947.329   130398168.72806     -2632.384          39.250    24813947.536   129212735.39506     -2608.251          41.900    24813954.598    97375276.79307     -1965.636          45.250    24813951.569   104995938.66907     -2119.417          44.250
S21  37771338.679                           5.760          45.100
S36  37795264.298   198615444.90507         1.727          46.700
> 2026 04 30 10 04 30.0000000  0 39
G02  24352390.825   127972678.31706      3387.355          40.700    24352392.658    99718987.89706      2639.499          39.600
G07  25100760.566   131905382.06706      1780.193          39.450    25100761.482   102783419.17506      1387.164          38.600
G08  22598393.646   118755406.45207      2729.900          42.750    22598396.394    92536696.71707      2127.197          42.300    22598398.614    88681013.57208      2038.577          49.400
G10  23022430.849   120983774.45307      2807.180          47.950    23022434.614    94273122.99807      2187.415          47.900    23022435.109    90345096.92508      2096.319          48.750
G16  20071080.453   105474260.95907      -573.333          46.050    20071078.732    82187732.88107      -446.753          46.400
G18  22391169.885   117666424.09007     -2687.364          42.750    22391170.484    91688135.03207     -2094.051          42.800    22391176.945    87867832.88908     -2006.867          51.450
G23  21872763.597   114942232.22607      1004.590          47.150    21872764.372    89565429.24307       782.798          45.700    21872770.583    85833568.86408       750.275          51.150
G26  21568485.757   113343167.94408     -2604.612          48.750    21568488.348    88319362.16308     -2029.570          48.750    21568489.929    84639395.34508     -1945.049          53.650
G27  20568978.546   108090769.00708      1364.893          48.700    20568979.182    84226602.97008      1063.553          48.950    20568981.120    80717173.84609      1019.315          54.650
G31  25174790.399   132294294.77806     -3507.308          39.350    25174796.067   103086438.90306     -2732.973          39.200
R07  23425671.596   125399491.77506       789.517          39.800    23425676.639    97532966.93806       614.070          41.250    23425676.688    97532958.94106       614.070          41.900
R08  23964622.996   128329464.74605      3195.727          35.850    23964630.537    99811861.15606      2485.584          38.450    23964630.513    99811858.16406      2485.583          39.800
R13  20765220.027   110885095.06207     -3468.883          42.550
R14  19637474.106   104678822.00607       996.717          47.800    19637479.282    81416878.93308       775.224          49.550    19637479.245    81416877.93808       775.224          50.150
R15  23005920.917   122936665.54806      4000.947          41.100    23005927.188    95617429.58007      3111.851          42.200    23005927.269    95617432.58507      3111.851          42.900
R17  23454338.959   125508907.27506      3412.267          41.200    23454346.190    97618059.90007      2653.990          43.350    23454346.297    97618061.89907      2653.990          43.900
R22  24323657.084   129841334.37115     -3706.962          33.300    24323665.171   100987737.01815     -2883.189          32.300    24323665.699   100987737.00215     -2883.191          32.950
R23  21052320.658   112615737.79207     -2960.122          44.700
R24  19825286.742   106014859.61208      1152.150          49.100    19825290.162    82455986.07808       896.117          49.900    19825290.270    82455992.08108       896.117          50.550
E02  25286700.074   132882522.27647      2194.316          46.400    25286705.945    99230485.96208      1638.525          49.950    25286702.015   107859203.96908      1781.095          49.050    25286701.643   101819088.14808      1681.381          49.350    25286703.746   100524777.36708      1659.938          52.500
E10  24447253.528   128471219.92548     -1551.504          49.200    24447258.801    95936343.96608     -1158.533          52.300    24447255.910   104278608.53209     -1259.246          54.450    24447254.759    98439011.27008     -1188.733          52.300    24447256.632    97187677.92809     -1173.625          55.050
E11  21826182.136   114697407.81547       -42.457          45.800    21826184.270    85650692.69808       -31.695          50.550    21826180.041    93098559.26908       -34.505          53.200    21826180.221    87885046.46508       -32.569          50.550    21826182.204    86767860.89308       -32.125          53.300
E12  25947962.907   136357486.26846     -2471.555          39.250    25947967.819   101825413.04907     -1845.535          43.250    25947963.060   110679779.85807     -2006.097          44.800    25947963.502   104481724.15907     -1893.777          43.250    25947965.650   103153565.41307     -1869.595          46.150
E16  25569643.424   134369408.80948     -2394.018          49.800    25569650.692   100340837.22707     -1787.728          47.900    25569645.410   109066091.65808     -1943.128          50.350    25569646.740   102958392.70307     -1834.353          47.850    25569648.557   101649612.27208     -1810.998          50.700
E25  23255064.708   122206198.58348      -308.034          48.750    23255070.765    91257914.04808      -229.979          53.050    23255065.451    99193351.98409      -249.988          56.650    23255066.662    93638537.12708      -235.988          53.650    23255069.039    92448219.39809      -232.997          56.100
E36  25223794.940   132551999.61547      2393.628          47.250    25223803.738    98983692.45408      1787.536          48.600    25223797.342   107590923.44008      1942.951          51.200    25223799.662   101565866.29608      1834.159          50.050    25223801.461   100274784.18008      1810.879          52.000
C06  39910327.014   209730193.15906      -664.051          37.750    39910325.681   207823566.75805      -658.256          34.800    39910332.929   156616739.19407      -495.952          44.750    39910329.014   168873673.24307      -534.907          42.050
C09                                                                  38840974.543   202255217.11606       119.658          40.800                                                                    38840978.735   164348971.78507        97.309          42.750    38840979.678   156396599.09707        92.535          42.550
C12  26364336.403   138545511.40305      -639.406          34.650    26364336.217   137285991.26206      -633.468          37.150    26364360.170   103459417.07107      -477.493          43.850    26364338.000   111556156.89706      -514.889          38.550
C19  26064069.429   136967614.23705       667.216          30.150    26064071.743   135722487.82906       660.749          37.000    26064076.890   102281094.71306       497.713          41.150    26064072.322   110285676.25507       536.739          43.500
C22  25753809.322   135337234.44006      2632.469          40.000    25753810.597   134106890.94606      2608.447          39.350    25753818.306   101063568.26407      1965.763          42.150    25753811.954   108972866.30006      2119.598          41.150
C24  22725389.806   119422733.03907     -1946.914          47.650    22725389.972   118337072.39807     -1929.286          47.850    22725391.686    89179316.72908     -1453.921          52.600    22725390.583    96158558.89208     -1567.696          51.350
C25  23316285.011   122527921.55107      1440.973          45.000    23316286.310   121414037.04007      1427.944          45.650    23316288.932    91498144.34308      1076.013          48.900    23316287.269    98658861.11108      1160.223          48.650
C26  25608931.137   134575785.59306     -3458.484          40.850    25608931.164   133352372.37907     -3426.959          42.400    25608942.314   100494911.62007     -2582.572          43.650    25608938.252   108359725.93307     -2784.629          43.350
C31  21538901.090   113187736.95107      -887.018          46.700    21538902.569   112158766.46607      -878.967          47.250    21538906.593    84523358.34608      -662.388          53.950    21538903.676    91138205.75808      -714.210          52.550
C34  22599278.624   118760066.20607      1795.289          44.850    22599279.255   117680429.29107      1778.819          45.900    22599284.206    88684526.94808      1340.555          50.150    22599282.139    95625022.92508      1445.576          49.350
C35  24828979.722   130477167.85506     -2634.077          41.600    24828981.271   129291016.27206     -2610.076          39.200    24828987.894    97434269.50907     -1967.022          43.200    24828984.807   105059548.27607     -2120.957          42.450
S21  37771306.520                           6.006          45.250
S36  37795254.218   198615392.59707         2.162          46.700
> 2026 04 30 10 05  0.0000000  0 40
G02  24333069.505   127871143.67807      3381.552          43.300    24333070.904    99639869.92406      2634.970          40.000
G07  25090637.523   131852185.24906      1766.074          40.000    25090638.572   102741967.13306      1376.162          39.950
G08  22582822.739   118673580.85007      2724.720          43.350    22582825.447    92472936.54607      2123.160          43.600    22582827.642    88619910.08708      2034.877          49.500
G10  23006432.225   120899702.46207      2797.255          47.800    23006436.508    94207612.49707      2179.685          47.700    23006437.021    90282316.05008      2088.861          50.100
G16  20074405.132   105491732.56307      -591.699          46.350    20074403.467    82201347.09707      -461.065          46.300
G18  22406535.985   117747173.02607     -2696.119          44.400    22406536.466    91751056.21307     -2100.875          44.350    22406543.029    87928132.30808     -2013.303          50.950
G23  21867081.190   114912371.06107       985.809          46.800    21867081.950    89542160.81707       768.164          45.350    21867088.230    85811269.95708       736.162          51.650
G26  21583391.127   113421496.03308     -2617.388          48.900    21583393.795    88380396.96608     -2039.525          49.000    21583395.333    84697887.01308     -1954.569          53.850
G27  20561216.155   108049977.51208      1354.146          48.950    20561216.813    84194817.39508      1055.179          48.650    20561218.782    80686712.67209      1011.219          54.900
G31  25194804.811   132399468.46507     -3504.637          43.000    25194809.903   103168392.23007     -2730.894          42.750
R07  23421313.399   125376159.45506       765.465          39.900    23421317.798    97514819.65506       595.363          41.500    23421317.866    97514811.65207       595.362          42.050
R08  23946745.789   128233734.82206      3186.061          38.800    23946753.759    99737404.78006      2478.055          40.150    23946753.876    99737401.79106      2478.062          40.300
R13  20784755.610   110989413.39107     -3485.883          42.350
R14  19631936.932   104649305.58807       970.912          47.400    19631942.021    81393921.71008       755.154          49.400    19631941.978    81393920.71308       755.154          50.050
R15  22983483.120   122816764.12306      3992.079          41.800    22983489.000    95524172.92206      3104.949          41.300    22983488.985    95524175.92506      3104.949          41.850
R17  23435226.823   125406635.00306      3405.336          41.600    23435233.997    97538514.85407      2648.596          42.000    23435234.087    97538516.86307      2648.597          42.700
R22  24344482.382   129952498.76905     -3704.201          35.600    24344490.186   101074198.25805     -2881.043          35.350    24344490.488   101074198.25405     -2881.043          35.550
R23  21068940.692   112704643.26306     -2967.113          41.700
R24  19818866.866   105980529.29808      1136.099          49.100    19818870.162    82429284.73108       883.632          49.850    19818870.282    82429290.73408       883.633          50.350
E02  25274188.270   132816772.21747      2188.883          47.000    25274194.192    99181386.91308      1634.527          50.200    25274190.157   107805835.42908      1776.684          48.950    25274189.914   101768708.26308      1677.168          49.700    25274191.893   100475037.89808      1655.821          52.550
E10  24456137.547   128517905.52648     -1561.239          49.600    24456142.817    95971206.56408     -1165.818          52.700    24456139.859   104316502.67209     -1267.194          54.300    24456138.749    98474783.33408     -1196.245          52.400    24456140.629    97222995.25709     -1181.021          55.100
E11  21826460.741   114698871.81247       -55.283          46.200    21826462.871    85651785.94708       -41.332          50.850    21826458.651    93099747.58108       -44.923          53.200    21826458.811    87886168.23208       -42.391          50.700    21826460.791    86768968.39808       -41.879          53.400
E12  25962087.314   136431709.53546     -2477.092          40.550    25962092.035   101880839.38907     -1849.643          44.600    25962087.074   110740025.89407     -2010.653          45.550    25962088.052   104538596.42707     -1897.932          44.200    25962089.925   103209714.71907     -1873.752          46.950
E16  25583329.740   134441330.04548     -2401.095          49.150    25583336.873   100394544.51408     -1792.953          48.550    25583331.588   109124469.19408     -1948.870          49.750    25583332.772   103013501.06207     -1839.743          47.650    25583334.777   101704020.09908     -1816.388          50.700
E25  23256854.067   122215602.07548      -319.089          49.100    23256860.199    91264936.11908      -238.311          53.350    23256854.914    99200984.67809      -259.050          56.650    23256856.159    93645742.38308      -244.523          53.800    23256858.478    92455333.05809      -241.411          56.100
E36  25210153.407   132480313.03947      2385.058          47.950    25210161.937    98930160.33208      1781.052          48.800    25210155.925   107532736.33708      1935.944          51.550    25210158.197   101510937.68208      1827.560          50.050    25210160.025   100220553.81208      1804.317          51.950
C06  39914133.788   209750198.79606      -669.735          36.950    39914132.071   207843390.57005      -663.473          34.600    39914139.748   156631678.43707      -500.090          44.950    39914136.222   168889781.64707      -539.161          42.100
C09                                                                  38840303.821   202251722.52506       113.152          40.750                                                                    38840307.779   164346132.15607        91.872          42.900    38840308.406   156393896.91307        87.502          42.700
C12  26368032.118   138564932.24606      -655.684          36.200    26368031.557   137305235.51106      -649.396          37.400    26368055.675   103473919.66807      -489.489          44.200    26368033.381   111571794.46106      -527.692          38.750
C19  26060307.961   136947843.19315       650.146          32.450    26060311.003   135702905.29106       644.787          38.700    26060315.728   102266337.29907       485.870          42.700    26060311.770   110269763.86007       523.961          43.600
C22  25738796.712   135258343.75106      2626.516          40.550    25738797.491   134028717.43906      2602.885          40.000    25738805.576   101004656.69907      1961.394          42.300    25738799.469   108909344.16206      2114.885          41.800
C24  22736543.883   119481347.82508     -1960.943          48.200    22736544.002   118395154.31908     -1943.050          48.250    22736545.683    89223087.44308     -1464.313          52.850    22736544.634    96205755.16108     -1578.908          51.550
C25  23308102.013   122484919.60507      1425.717          45.250    23308103.152   121371426.02207      1412.807          45.750    23308105.928    91466032.50708      1064.612          49.300    23308104.267    98624236.17708      1147.896          48.900
C26  25628680.649   134679568.82006     -3460.622          41.700    25628680.634   133455212.13007     -3429.101          42.000    25628691.503   100572411.78006     -2584.394          41.700    25628687.754   108443291.42106     -2786.599          41.400
C31  21543988.690   113214472.42707      -895.556          47.050    21543990.140   112185258.88407      -887.364          47.400    21543994.185    84543323.12609      -668.727          54.250    21543991.278    91159733.00908      -721.077          52.750
C34  22589051.372   118706321.92007      1787.585          45.400    22589052.065   117627173.58607      1771.339          46.000    22589057.013    88644393.24708      1334.787          50.450    22589054.933    95581748.32608      1439.228          49.700
C35  24844022.112   130556213.84006     -2635.878          40.850    24844022.525   129369343.73006     -2612.062          39.800    24844029.240    97493297.27207     -1968.484          43.900    24844026.006   105123195.62507     -2122.487          43.400
S21  37771273.555                           5.580          45.600
S23  38245461.844   200981257.99217        -1.636          45.450
S36  37795242.967   198615333.34707         1.695          47.000
> 2026 04 30 10 05 30.0000000  0 40
G02  24313782.164   127769787.92206      3375.077          41.200    24313783.551    99560891.47706      2629.926          39.700
G07  25080594.361   131799408.08606      1751.946          39.850    25080595.169   102700842.07406      1365.153          40.050
G08  22567280.842   118591907.58507      2719.492          43.800    22567283.578    92409295.08307      2119.086          43.800    22567285.538    88558920.35208      2030.880          49.300
G10  22990490.815   120815930.28308      2787.103          48.900    22990495.061    94142335.57308      2171.771          48.850    22990496.006    90219759.01408      2081.326          49.750
G15  25319297.815   133053805.34716      1488.835          38.500    25319301.631   103678307.14216      1160.131          38.250
G16  20077834.438   105509753.93207      -610.284          46.350    20077832.792    82215389.70307      -475.546          46.000
G18  22421950.074   117828174.10307     -2704.548          42.900    22421950.589    91814173.88607     -2107.441          43.050    22421957.209    87988620.05508     -2019.607          51.750
G23  21861506.498   114883075.80707       966.754          47.300    21861507.271    89519333.35507       753.315          45.750    21861513.442    85789393.64008       721.927          51.100
G26  21598368.556   113500203.30808     -2630.218          48.400    21598371.359    88441727.22608     -2049.523          48.300    21598372.905    84756661.83208     -1964.115          53.700
G27  20553514.942   108009507.60608      1343.313          48.850    20553515.653    84163282.41008      1046.738          48.700    20553517.619    80656491.64109      1003.113          54.750
G31  25214802.551   132504555.58606     -3501.730          38.650    25214807.973   103250277.98106     -2728.631          38.650
R07  23417088.843   125353544.55006       741.463          39.800    23417092.875    97497230.36006       576.699          41.200    23417093.010    97497222.36306       576.699          41.700
R08  23928923.643   128138298.81306      3175.995          38.800    23928931.702    99663176.94406      2470.226          37.250    23928931.783    99663173.91806      2470.222          36.600
R13  20804384.806   111094232.06907     -3502.596          42.300
R14  19626544.207   104620559.56707       944.874          47.500    19626549.336    81371563.68608       734.903          49.150    19626549.307    81371562.69108       734.902          49.800
R15  22961093.638   122697122.62706      3983.315          40.600    22961100.080    95431118.54707      3098.140          42.750    22961100.028    95431121.55307      3098.140          43.250
R17  23416152.629   125304564.92407      3398.613          42.550    23416159.680    97459127.02907      2643.366          42.550    23416159.753    97459129.03407      2643.366          43.350
R22  24365292.026   130063582.40705     -3701.340          33.650    24365300.219   101160596.41206     -2878.834          37.800    24365300.225   101160596.41106     -2878.833          38.200
R23  21085599.006   112793754.77207     -2974.308          43.500
R24  19812536.382   105946677.05608      1120.117          49.150    19812539.594    82402955.22208       871.203          49.550    19812539.666    82402961.22608       871.204          50.050
E02  25261706.906   132751182.37347      2183.396          47.550    25261712.797    99132407.50708      1630.359          49.950    25261708.842   107752596.93308      1772.137          49.050    25261708.599   101718451.13208      1672.878          49.300    25261710.574   100425419.62908      1651.627          52.400
E10  24465076.773   128564881.37948     -1570.948          49.600    24465082.075    96006285.91308     -1173.151          52.450    24465079.056   104354632.40909     -1275.150          54.300    24465077.990    98510777.79708     -1203.723          52.200    24465079.866    97258532.16309     -1188.407          55.100
E11  21826811.297   114700713.96147       -68.225          46.200    21826813.428    85653161.57308       -50.850          50.650    21826809.204    93101242.82708       -55.301          53.050    21826809.356    87887579.74008       -52.163          50.600    21826811.341    86770361.96508       -51.507          53.350
E12  25976241.605   136506092.97146     -2482.482          37.150    25976246.524   101936385.43807     -1853.830          43.650    25976241.746   110800402.05507     -2014.941          45.600    25976242.483   104595591.49107     -1902.170          42.800    25976244.635   103265985.27507     -1878.013          46.100
E16  25597055.122   134513459.33248     -2408.104          48.400    25597063.116   100448407.10508     -1798.267          49.000    25597057.058   109183015.58108     -1954.632          49.850    25597058.379   103068768.80708     -1845.174          48.000    25597060.721   101758585.26708     -1821.749          51.250
E25  23258706.694   122225337.91148      -330.397          49.250    23258712.874    91272206.36308      -246.716          53.200    23258707.639    99208887.12209      -268.174          56.600    23258708.896    93653202.28708      -253.154          53.750    23258711.154    92462698.13409      -249.958          56.200
E36  25196560.714   132408882.49148      2376.410          48.400    25196568.916    98876819.38508      1774.567          48.650    25196563.319   107474757.03908      1928.900          51.750    25196565.214   101456205.23708      1820.838          49.450    25196567.314   100166517.12108      1797.713          51.800
C06  39917970.837   209770366.23905      -674.739          35.150    39917969.678   207863374.69906      -669.199          36.500    39917977.294   156646738.48007      -504.232          44.200    39917973.974   168906020.32006      -543.876          41.150
C09                                                                  38839669.898   202248421.54506       106.607          38.500                                                                    38839673.741   164343449.82906        86.606          41.850    38839674.522   156391344.36107        82.423          43.300
C12  26371818.663   138584831.19806      -671.783          36.050    26371817.900   137324953.53806      -665.358          36.200    26371842.147   103488779.34907      -501.548          43.200    26371819.700   111587817.08006      -540.691          37.050
C19  26056637.096   136928557.30805       633.954          32.600    26056640.532   135683794.74206       628.677          38.100    26056645.487   102251935.54107       473.818          42.700    26056641.747   110254235.01507       510.983          43.000
C22  25723816.521   135179621.72306      2620.798          40.300    25723817.215   133950711.05307      2597.218          42.250    25723824.444   100945871.01706      1957.228          41.250    25723819.430   108845957.82507      2110.390          42.400
C24  22747776.453   119540375.20108     -1974.768          48.000    22747776.596   118453645.08108     -1956.773          48.550    22747778.227    89267166.25808     -1474.627          52.700    22747777.193    96253283.64508     -1590.026          51.250
C25  23300005.454   122442371.71407      1410.336          45.400    23300006.383   121329264.93307      1397.488          45.950    23300009.342    91434259.72908      1053.200          49.100    23300007.647    98589976.82608      1135.651          48.600
C26  25648442.283   134783415.95806     -3463.017          41.700    25648442.293   133558115.17707     -3431.596          42.000    25648452.922   100649959.66807     -2585.930          43.050    25648449.080   108526908.38406     -2788.454          41.950
C31  21549124.249   113241460.07707      -904.135          47.050    21549125.704   112212001.19807      -895.934          47.600    21549129.767    84563476.23209      -675.148          54.000    21549126.861    91181463.31608      -727.961          52.350
C34  22578867.800   118652807.24807      1779.741          45.400    22578868.556   117574145.41307      1763.487          46.050    22578873.462    88604431.01208      1328.960          50.300    22578871.392    95538658.60208      1433.042          49.350
C35  24859074.082   130635314.43206     -2637.934          37.600    24859075.142   129447725.11807     -2613.994          43.100    24859081.835    97552365.70807     -1969.907          45.300    24859078.906   105186886.83607     -2124.092          43.850
S21  37771241.531                           5.413          45.550
S36  37795232.763   198615278.32507         1.038          47.000
> 2026 04 30 10 06  0.0000000  0 40
G02  24294528.396   127668610.42006      3369.754          41.850    24294530.453    99482051.94506      2625.785          38.200
G07  25070630.983   131747050.37306      1738.743          40.800    25070631.386   102660043.83206      1354.863          40.000
G08  22551767.776   118510385.69507      2714.973          43.750    22551770.529    92345771.58007      2115.565          44.300    22551772.169    88498043.67008      2027.513          49.350
G10  22974606.763   120732459.01107      2777.535          47.200    22974610.628    94077293.07707      2164.313          47.050    22974611.587    90157426.65008      2074.212          49.100
G15  25310838.568                        1474.835          28.650    25310842.585                        1149.225          27.500
G16  20081368.080   105528323.31407      -627.728          46.250    20081366.412    82229859.32907      -489.140          46.300
G18  22437411.488   117909423.58407     -2712.212          44.600    22437412.010    91877485.11007     -2113.416          44.100    22437418.521    88049293.28808     -2025.308          51.500
G23  21856039.346   114854346.04407       948.634          46.900    21856040.102    89496946.55207       739.196          45.650    21856046.321    85767939.62808       708.344          51.550
G26  21613417.437   113579286.30108     -2641.860          48.250    21613420.359    88503350.25708     -2058.596          48.600    21613422.010    84815717.22108     -1972.912          53.800
G27  20545874.740   107969358.21208      1333.308          48.800    20545875.480    84131997.17208      1038.942          48.800    20545877.425    80626509.96209       995.628          54.850
G31  25234782.717   132609551.92906     -3497.832          40.600    25234788.513   103332092.90906     -2725.599          40.300
R07  23412997.929   125331646.44106       718.410          37.800    23413001.850    97480198.54606       558.766          40.200    23413002.005    97480190.54806       558.766          41.000
R08  23911156.559   128043160.04505      3166.698          32.600    23911164.779    99589180.26606      2462.990          36.750    23911164.931    99589177.27706      2462.991          38.050
R13  20824106.759   111199545.98507     -3518.210          42.250
R14  19621296.089   104592584.13607       919.990          47.550    19621301.239    81349805.00708       715.547          49.150    19621301.212    81349804.01208       715.548          49.850
R15  22938753.733   122577743.30207      3975.227          42.300    22938759.466    95338267.94906      3091.842          41.150    22938759.507    95338270.95306      3091.842          41.700
R17  23397115.852   125202695.95806      3392.601          40.700    23397123.233    97379895.70907      2638.696          43.300    23397123.273    97379897.70907      2638.695          44.000
R22  24386085.885   130174581.42205     -3698.252          34.550    24386094.142   101246928.86505     -2876.419          34.050    24386094.001   101246928.84305     -2876.421          33.800
R23  21102295.190   112883067.47806     -2979.981          41.700
R24  19806294.786   105913300.45208      1104.951          48.950    19806297.974    82376995.65508       859.408          49.450    19806298.063    82377001.65708       859.408          50.050
E02  25249255.984   132685752.39147      2178.691          47.400    25249261.821    99083547.47808      1626.878          50.100    25249257.955   107699488.19108      1768.340          48.950    25249257.512   101668316.48508      1669.305          49.200    25249259.641   100375922.29108      1648.088          52.400
E10  24474070.628   128612144.30348     -1579.886          49.450    24474075.922    96041579.63108     -1179.861          52.550    24474072.909   104392995.15109     -1282.410          54.100    24474071.840    98546992.22308     -1210.601          52.050    24474073.735    97294286.23709     -1195.247          55.000
E11  21827233.376   114702931.98447       -80.016          46.050    21827235.501    85654817.88708       -59.725          50.700    21827231.277    93103043.17408       -64.970          53.000    21827231.447    87889279.26408       -61.287          50.550    21827233.420    86772039.88808       -60.536          53.300
E12  25990426.008   136580633.49546     -2487.001          37.150    25990431.345   101992048.75107     -1857.169          43.950    25990426.807   110860905.68307     -2018.708          45.800    25990426.882   104652706.89007     -1905.639          42.450    25990429.290   103322374.63207     -1881.394          46.100
E16  25610820.247   134585794.20248     -2414.312          48.950    25610828.254   100502423.26408     -1802.869          48.850    25610822.315   109241728.85408     -1959.638          50.200    25610823.759   103124194.10908     -1849.952          48.300    25610825.796   101813305.99708     -1826.384          51.250
E25  23260622.368   122235404.86248      -340.770          49.200    23260628.574    91279723.87508      -254.509          53.250    23260623.362    99217058.33709      -276.627          56.550    23260624.642    93660915.91108      -261.132          53.700    23260626.842    92470313.70209      -257.829          56.150
E36  25183016.608   132337707.09748      2368.489          48.300    25183024.586    98823668.97208      1768.697          48.900    25183019.189   107416984.83608      1922.486          51.650    25183020.672   101401668.28308      1814.829          49.300    25183023.079   100112673.43608      1791.753          51.800
C06  39921838.276   209790693.28605      -680.120          35.700    39921838.172   207883516.92506      -673.622          36.000    39921845.085   156661917.71107      -507.742          44.400    39921841.892   168922387.50106      -547.415          41.350
C09                                                                  38839072.344   202245312.14906       100.646          39.650                                                                    38839076.309   164340923.18307        81.863          42.300    38839077.625   156388939.97907        77.927          42.800
C12  26375695.644   138605206.22806      -686.744          36.400    26375694.793   137345143.37706      -680.561          36.500    26375719.235   103503994.52807      -512.861          43.300    26375696.542   111604222.99106      -552.997          36.850
C19  26053056.826   136909747.06505       618.902          32.300    26053060.420   135665155.51306       613.740          37.700    26053065.696   102237888.95707       462.597          42.000    26053062.154   110239089.14007       498.741          42.700
C22  25708868.189   135101069.24906      2616.035          36.600    25708869.311   133872872.79706      2592.121          41.250    25708876.159   100887212.03607      1953.371          43.050    25708871.234   108782708.09106      2106.197          40.800
C24  22759086.895   119599811.89808     -1987.750          48.100    22759087.194   118512541.42008     -1969.445          48.350    22759088.738    89311550.73808     -1484.381          52.900    22759087.691    96301141.71008     -1600.517          51.200
C25  23291995.278   122400277.48307      1396.013          45.700    23291995.917   121287553.37407      1383.326          45.550    23291998.977    91402825.73308      1042.389          49.150    23291997.319    98556082.78208      1123.922          48.400
C26  25668215.385   134887323.17106     -3464.206          41.700    25668215.426   133661077.75607     -3432.506          42.250    25668226.712   100727552.35107     -2586.893          44.550    25668222.721   108610573.65507     -2789.429          43.300
C31  21554307.305   113268697.37807      -911.815          46.900    21554308.754   112238990.88607      -903.456          47.250    21554312.866    84583815.76409      -680.895          54.050    21554309.938    91203394.63808      -734.172          52.300
C34  22568727.627   118599520.56307      1772.788          45.450    22568728.406   117521343.15007      1756.725          45.900    22568733.279    88564639.03208      1323.812          50.400    22568731.218    95495752.46108      1427.359          49.300
C35  24874136.381   130714466.98906     -2638.731          39.550    24874138.144   129526158.08407     -2614.836          42.350    24874144.724    97611473.00807     -1970.706          45.550    24874141.633   105250619.97107     -2124.973          43.650
S21  37771209.935                           5.876          45.700
S36  37795224.002   198615230.21707         1.963          47.000
> 2026 04 30 10 06 30.0000000  0 40
G02  24275308.072   127567605.96506      3363.927          40.650    24275309.782    99403347.11606      2621.243          36.800
G07  25060746.506   131695107.19006      1724.358          40.800    25060746.771   102619568.58006      1343.653          40.600
G08  22536282.285   118429009.22307      2710.426          43.800    22536285.131    92282361.38907      2112.022          43.600    22536286.543    88437275.59208      2023.941          49.300
G10  22958778.994   120649284.59008      2767.721          48.800    22958782.964    94012481.99108      2156.676          48.900    22958783.643    90095316.02108      2066.826          50.200
G15  25302463.359   132965340.39515      1459.669          32.500    25302466.315   103609369.84815      1137.412          33.500
G16  20085004.622   105547433.87407      -645.689          46.100    20085002.987    82244750.65807      -503.135          45.700
G18  22452918.277   117990912.48907     -2719.982          42.900    22452918.850    91940982.89407     -2119.469          42.750    22452925.085    88110145.34908     -2031.220          51.000
G23  21850678.770   114826176.31107       929.959          47.250    21850679.552    89474996.12407       724.643          46.100    21850685.811    85746903.80808       694.374          51.600
G26  21628536.314   113658736.44008     -2654.204          48.550    21628539.224    88565259.38208     -2068.213          48.250    21628540.982    84875046.77608     -1982.050          53.800
G27  20538294.358   107929523.20908      1322.685          48.450    20538295.119    84100956.91908      1030.664          48.450    20538297.079    80596763.04809       987.811          54.950
G31  25254744.531   132714448.13907     -3494.602          42.050    25254749.604   103413830.05606     -2723.075          41.650
R07  23409039.810   125310459.89606       694.611          36.550    23409043.766    97463720.19606       540.257          39.600    23409043.993    97463712.19206       540.256          40.150
R08  23893444.819   127948315.85006      3156.710          40.500    23893453.114    99515412.73706      2455.221          39.200    23893453.307    99515409.73406      2455.223          39.200
R13  20843919.554   111305344.59707     -3534.457          42.300
R14  19616191.652   104565374.71807       894.351          47.700    19616196.857    81328642.11708       695.606          49.100    19616196.833    81328641.12208       695.606          49.750
R15  22916461.749   122458623.11106      3966.644          41.650    22916467.699    95245618.98107      3085.171          43.200    22916467.755    95245621.98507      3085.171          43.750
R17  23378115.909   125101022.41207      3385.973          42.650    23378123.173    97300816.33507      2633.535          42.500    23378123.223    97300818.33407      2633.534          43.350
R22  24406862.815   130285488.57105     -3695.355          31.650    24406870.827   101333189.95105     -2874.165          30.500    24406870.362   101333189.94105     -2874.165          30.650
R23  21119026.934   112972572.33406     -2986.530          41.950
R24  19800140.735   105880391.96608      1089.370          49.050    19800143.880    82351400.17708       847.288          49.400    19800143.947    82351406.17908       847.288          50.000
E02  25236834.435   132620476.84347      2173.570          47.250    25236840.343    99034802.77708      1623.027          50.300    25236836.335   107646504.80708      1764.206          49.150    25236836.076   101618300.18208      1665.400          49.150    25236838.088   100326541.78908      1644.209          52.600
E10  24483117.492   128659685.99448     -1589.038          49.350    24483122.835    96077081.51908     -1186.688          52.700    24483119.827   104431584.18009     -1289.903          54.050    24483118.722    98583420.25208     -1217.613          52.000    24483120.651    97330251.19609     -1202.172          55.150
E11  21827725.507   114705518.27947       -92.279          45.900    21827727.653    85656749.21108       -68.856          50.750    21827723.426    93105142.43608       -74.828          53.000    21827723.619    87891260.96708       -70.590          50.400    21827725.580    86773996.40008       -69.764          53.450
E12  26004639.734   136655322.67946     -2491.763          39.800    26004644.879   102047823.06207     -1860.858          44.600    26004639.867   110921529.95107     -2022.543          44.950    26004640.291   104709936.22007     -1909.406          43.850    26004642.298   103378876.45507     -1885.156          47.050
E16  25624623.024   134658327.25648     -2420.848          49.350    25624630.632   100556587.42108     -1807.720          48.350    25624625.300   109300602.99208     -1964.932          50.550    25624626.699   103179771.25908     -1854.899          48.250    25624628.457   101868176.64908     -1831.276          51.100
E25  23262599.859   122245796.64848      -351.617          49.000    23262606.123    91287483.95108      -262.592          53.350    23262600.878    99225493.20809      -285.383          56.550    23262602.181    93668878.42608      -269.416          53.650    23262604.338    92478174.99809      -266.016          56.300
E36  25169519.818   132266780.88448      2360.187          48.100    25169527.789    98770704.64008      1762.524          49.300    25169522.379   107359414.89408      1915.779          51.450    25169523.587   101347322.26408      1808.488          49.200    25169526.203   100059018.26208      1785.501          52.050
C06  39925734.681   209811172.71805      -684.978          33.500    39925736.141   207903810.14206      -678.936          37.500    39925741.714   156677210.70807      -511.498          43.650    39925738.615   168938877.34906      -551.621          40.150
C09                                                                  38838510.449   202242387.41606        94.394          38.900                                                                    38838514.490   164338546.58206        76.829          41.600    38838516.058   156386678.34807        73.153          43.200
C12  26379661.675   138626050.03205      -702.453          34.700    26379660.777   137365797.70405      -695.829          33.400    26379685.554   103519559.78106      -524.396          41.800    26379662.787   111621006.38606      -565.264          36.650
C19  26049566.288   136891406.65705       604.078          33.350    26049569.946   135646981.99505       598.263          35.000    26049575.501   102224193.31606       450.822          41.800    26049571.750   110224321.69407       486.231          42.200
C22  25693951.068   135022682.31006      2610.600          37.900    25693952.268   133795198.48906      2586.713          39.250    25693959.760   100828676.68807      1949.265          43.750    25693953.876   108719591.57206      2101.738          39.150
C24  22770473.675   119659649.52208     -2000.992          48.000    22770474.038   118571835.06808     -1982.742          48.300    22770475.689    89356234.60808     -1494.272          53.100    22770474.520    96349322.60808     -1611.226          50.950
C25  23284070.462   122358631.52807      1380.832          45.450    23284070.882   121246286.02407      1368.362          45.650    23284074.066    91371726.47908      1031.243          49.250    23284072.307    98522549.66408      1111.918          48.200
C26  25687998.225   134991281.65106     -3465.906          41.300    25687998.249   133764091.16407     -3434.421          42.300    25688009.429   100805183.33206     -2588.171          41.500    25688005.359   108694280.23006     -2790.775          40.100
C31  21559536.404   113296176.65007      -919.853          46.650    21559537.869   112266220.35007      -911.423          47.250    21559542.007    84604335.98109      -686.866          54.100    21559539.068    91225520.79308      -740.605          52.100
C34  22558629.651   118546455.18107      1765.329          45.550    22558630.266   117468760.17507      1749.362          45.900    22558635.197    88525012.30308      1318.318          50.500    22558633.135    95453024.50208      1421.507          49.250
C35  24889207.809   130793663.96206     -2640.582          41.400    24889207.901   129604635.20006     -2616.349          39.050    24889215.314    97670613.50807     -1971.670          43.250    24889211.668   105314388.94206     -2126.154          41.200
S21  37771177.030                           6.144          45.450
S36  37795213.976   198615178.65507         1.939          46.850
> 2026 04 30 10 07  0.0000000  0 39
G02  24256121.013   127466778.36506      3357.609          40.500    24256122.938    99324780.19906      2616.324          38.650
G07  25050941.705   131643581.80606      1710.500          40.500    25050942.093   102579418.91506      1332.858          40.300
G08  22520825.052   118347781.32507      2704.887          43.550    22520827.994    92219066.97207      2107.706          43.150    22520829.239    88376618.44708      2019.728          49.000
G10  22943008.844   120566412.28208      2756.996          48.200    22943012.925    93947906.24308      2148.309          48.050    22943013.717    90033430.96908      2058.752          49.600
G16  20088744.543   105567087.74607      -664.320          46.150    20088742.943    82260065.34107      -517.653          46.050
G18  22468470.662   118072641.02907     -2728.763          43.750    22468470.979    92004667.41107     -2126.311          43.400    22468477.622    88171176.32008     -2037.521          50.950
G23  21845425.512   114798570.25507       910.550          47.500    21845426.303    89453484.92107       709.519          46.150    21845432.623    85726288.91208       679.865          51.350
G26  21643725.282   113738554.23708     -2666.999          48.650    21643728.112    88627454.99308     -2078.184          48.600    21643729.910    84934650.88408     -1991.652          53.400
G27  20530774.385   107890005.55908      1311.812          48.450    20530775.170    84070163.95508      1022.191          48.600    20530777.139    80567253.13309       979.447          54.700
G31  25274686.401   132819244.03106     -3491.715          37.000    25274692.096   103495488.82705     -2720.834          35.650
R07  23405214.446   125289988.64805       670.039          34.050    23405218.877    97447798.18806       521.146          38.250    23405219.160    97447790.18406       521.146          38.650
R08  23875789.826   127853773.03706      3146.148          40.000    23875798.039    99441879.63206      2447.014          39.550    23875798.129    99441876.62806      2447.012          40.050
R13  20863823.035   111411626.94107     -3551.130          42.350
R14  19611231.737   104538935.15307       868.298          47.950    19611236.872    81308078.00108       675.342          48.900    19611236.852    81308077.00508       675.343          49.600
R15  22894220.028   122339768.44307      3957.132          42.300    22894225.901    95153176.52206      3077.770          41.250    22894225.966    95153179.52706      3077.770          41.700
R17  23359152.958   124999547.55206      3378.922          40.900    23359159.939    97221891.45907      2628.052          42.500    23359160.104    97221893.46307      2628.052          43.050
R22  24427622.601   130396304.86005     -3692.953          35.700    24427630.352   101419380.28005     -2872.304          35.500    24427630.048   101419380.28105     -2872.302          35.650
R23  21135794.775   113062269.20706     -2993.328          41.500
R24  19794074.665   105847953.89408      1073.244          49.300    19794077.813    82326170.57908       834.745          49.300    19794077.867    82326176.58208       834.746          49.850
E02  25224443.015   132555359.43947      2167.639          47.700    25224448.895    98986176.16108      1618.704          49.850    25224444.906   107593649.78108      1759.417          49.500    25224444.597   101568405.04508      1660.897          48.800    25224446.627   100277280.91208      1639.819          52.600
E10  24492217.591   128707507.36748     -1599.024          49.750    24492223.000    96112792.25408     -1194.099          52.300    24492219.959   104470400.20209     -1297.909          54.050    24492218.866    98620062.57608     -1225.235          51.900    24492220.785    97366427.72509     -1209.683          55.250
E11  21828288.042   114708474.50347      -104.985          46.250    21828290.185    85658956.77408       -78.433          50.500    21828285.955    93107541.96208       -85.234          53.050    21828286.186    87893526.12108       -80.422          50.300    21828288.136    86776232.75808       -79.452          53.600
E12  26018881.175   136730161.21946     -2497.466          39.100    26018886.254   102103708.90107     -1864.945          44.000    26018880.666   110982275.47107     -2027.100          44.550    26018882.051   104767279.96007     -1913.549          43.650    26018883.675   103435491.23907     -1889.219          46.950
E16  25638463.423   134731060.19747     -2428.112          46.800    25638471.242   100610900.86407     -1813.234          47.500    25638465.698   109359639.36008     -1970.822          49.900    25638467.112   103235501.57207     -1860.510          47.550    25638469.152   101923198.52508     -1836.865          50.750
E25  23264639.660   122256516.06148      -363.075          49.050    23264646.022    91295488.69008      -271.180          53.050    23264640.721    99234194.01909      -294.759          56.600    23264642.034    93677091.98408      -278.230          53.550    23264644.186    92486284.14509      -274.710          56.400
E36  25156070.950   132196107.00448      2351.299          48.000    25156079.096    98717928.74208      1755.817          49.200    25156073.537   107302049.77308      1908.455          51.400    25156074.635   101293169.59308      1801.591          49.100    25156077.306   100005553.97908      1778.675          52.300
C06  39929660.820   209831806.32005      -690.450          34.700    39929663.273   207924256.15006      -684.513          37.850    39929667.913   156692618.86407      -515.832          43.250    39929664.676   168955491.36706      -556.027          39.950
C09                                                                  38837984.407   202239649.32606        87.533          39.250                                                                    38837988.641   164336321.66607        71.207          42.050    38837990.320   156384561.11907        67.945          42.700
C12  26383717.177   138647364.52605      -718.824          34.500    26383716.175   137386918.42705      -712.222          32.700    26383741.287   103535476.48706      -536.605          41.350    26383718.660   111638168.73706      -578.744          37.000
C19  26046166.223   136873539.65405       587.082          35.550    26046168.857   135629277.34605       582.161          34.150    26046175.688   102210851.08807       438.545          42.100    26046171.346   110209935.28806       472.941          41.750
C22  25679067.004   134944466.00806      2603.877          40.200    25679067.849   133717693.14106      2580.687          41.650    25679075.536   100770268.70507      1944.552          42.550    25679069.345   108656612.33806      2096.738          41.200
C24  22781936.941   119719888.80608     -2014.964          48.550    22781937.196   118631526.72908     -1996.646          48.350    22781939.086    89401218.41708     -1504.729          52.850    22781937.698    96397826.91408     -1622.472          51.000
C25  23276231.607   122317437.53407      1365.303          45.750    23276231.918   121205466.52807      1352.864          46.400    23276235.061    91340964.74108      1019.521          49.000    23276233.355    98489380.48808      1099.201          48.550
C26  25707790.874   135095291.67906     -3468.375          41.250    25707790.885   133867155.61906     -3436.547          41.600    25707801.669   100882852.84907     -2589.849          42.750    25707797.806   108778028.32607     -2792.548          42.700
C31  21564811.815   113323899.38707      -928.480          46.750    21564813.297   112293691.06307      -919.996          47.400    21564817.484    84625038.01208      -693.328          53.800    21564814.530    91247842.98708      -747.584          52.350
C34  22548574.243   118493613.49907      1757.464          45.450    22548574.719   117416398.87907      1741.479          46.150    22548579.692    88485552.62908      1312.301          50.150    22548577.661    95410476.67408      1415.040          49.600
C35  24904287.161   130872907.06306     -2642.696          39.200    24904287.530   129683157.92306     -2618.489          41.900    24904294.104    97729788.45507     -1973.216          42.700    24904290.643   105378195.00807     -2127.776          42.400
S21  37771143.969                           5.484          45.700
S36  37795202.628   198615120.27107         1.725          47.050
> 2026 04 30 10 07 30.0000000  0 39
G02  24236969.206   127366134.89306      3351.730          41.650    24236971.100    99246356.73006      2611.736          39.600
G07  25041217.638   131592481.79606      1696.200          40.500    25041218.521   102539600.73606      1321.716          40.550
G08  22505397.473   118266708.84507      2699.866          43.500    22505400.379    92155893.65907      2103.793          43.100    22505401.603    88316077.36608      2016.090          49.150
G10  22927297.907   120483850.88808      2746.850          48.650    22927301.722    93883572.79608      2140.407          48.750    22927302.889    89971778.10208      2051.180          50.100
G16  20092589.129   105587291.37207      -682.542          46.150    20092587.555    82275808.40707      -531.852          46.050
G18  22484069.679   118154613.08707     -2736.382          43.350    22484069.887    92068541.70107     -2132.249          43.150    22484076.664    88232389.16308     -2043.449          50.350
G23  21840280.858   114771535.23707       891.771          47.000    21840281.693    89432418.70007       694.888          46.050    21840288.097    85706100.44508       665.819          51.250
G26  21658984.981   113818743.99308     -2679.119          48.550    21658987.811    88689940.44308     -2087.628          48.400    21658989.554    84994532.75308     -2000.639          53.300
G27  20523316.024   107850811.95308      1301.061          48.250    20523316.883    84039623.49308      1013.814          48.400    20523318.861    80537985.18609       971.570          54.800
G31  25294610.168   132923943.06107     -3488.264          42.350    25294616.214   103577072.15807     -2718.135          42.400
R07  23401524.008   125270240.74105       646.149          30.550    23401529.325    97432438.80006       502.567          38.750    23401529.409    97432430.79906       502.566          38.700
R08  23858192.290   127759542.01305      3135.918          35.300    23858200.791    99368589.04906      2439.053          37.150    23858200.928    99368586.06706      2439.057          38.400
R13  20883817.473   111518395.73606     -3566.971          41.850
R14  19606417.701   104513273.65207       842.411          47.400    19606422.817    81288119.04508       655.209          49.350    19606422.801    81288118.05008       655.209          49.950
R15  22872029.348   122221189.22507      3947.919          42.850    22872035.013    95060948.26507      3070.607          43.850    22872035.046    95060951.26507      3070.606          44.600
R17  23340228.120   124898278.58906      3372.208          41.700    23340235.252    97143126.81607      2622.833          42.800    23340235.459    97143128.82407      2622.834          43.600
R22  24448366.236   130507034.80105     -3689.311          35.200    24448373.832   101505503.43306     -2869.470          36.000    24448373.699   101505503.42406     -2869.472          36.050
R23  21152599.275   113152161.88606     -2999.608          41.550
R24  19788097.701   105815991.71608      1057.554          49.200    19788100.729    82301311.11708       822.542          49.650    19788100.750    82301317.11908       822.542          50.250
E02  25212083.073   132490407.61447      2162.344          47.750    25212088.864    98937673.19908      1614.676          49.900    25212085.010   107540929.15808      1755.089          49.200    25212084.596   101518636.78308      1656.824          48.650    25212086.675   100228145.30108      1635.738          51.900
E10  24501371.787   128755612.93248     -1608.228          49.700    24501377.212    96148715.21008     -1200.964          52.400    24501374.143   104509446.90008     -1305.360          53.700    24501373.088    98656922.65508     -1232.291          51.650    24501375.008    97402819.24409     -1216.633          54.650
E11  21828922.026   114711805.92947      -117.138          46.250    21828924.116    85661444.52608       -87.557          50.550    21828919.909    93110246.04408       -95.152          52.750    21828920.131    87896078.77008       -89.731          50.100    21828922.089    86778752.96108       -88.707          52.900
E12  26033151.336   136805153.65146     -2502.240          40.100    26033156.328   102159709.67007     -1868.598          43.850    26033151.079   111043145.88807     -2031.085          46.050    26033152.359   104824741.61707     -1917.390          42.350    26033154.260   103492222.44707     -1892.943          45.750
E16  25652343.202   134803998.42848     -2434.682          48.850    25652351.305   100665367.55508     -1818.099          48.550    25652345.213   109418842.38408     -1976.242          49.850    25652346.724   103291389.17507     -1865.478          47.750    25652349.058   101978375.67408     -1841.792          50.700
E25  23266743.061   122267569.68748      -374.027          48.950    23266749.519    91303742.98908      -279.329          53.200    23266744.127    99243166.09309      -303.597          56.250    23266745.464    93685561.61508      -286.587          53.250    23266747.633    92494646.11009      -282.957          55.800
E36  25142671.413   132125692.35348      2342.856          48.050    25142679.771    98665346.42508      1749.585          49.400    25142673.905   107244895.05208      1901.696          50.950    25142675.119   101239215.55108      1795.214          49.250    25142677.721    99952285.80008      1772.355          51.900
C06  39933618.125   209852599.75006      -695.961          36.750    39933620.550   207944860.49206      -689.414          38.750    39933624.451   156708146.36807      -519.570          42.750    39933620.622   168972234.08706      -560.063          37.900
C09                                                                  38837495.635   202237103.86006        81.732          41.300                                                                    38837499.815   164334253.23406        66.427          41.950    38837501.513   156382592.72907        63.196          42.450
C12  26387863.177   138669155.21605      -734.032          32.050    26387862.301   137408511.08905      -727.799          32.000    26387887.543   103551748.82006      -548.358          41.200    26387865.241   111655714.51606      -591.301          38.300
C19  26042857.874   136856153.03406       571.517          36.800    26042859.197   135612048.71305       566.456          32.650    26042867.332   102197867.58407       426.871          42.950    26042862.294   110195935.69406       460.253          40.600
C22  25664217.010   134866428.89306      2598.059          36.400    25664218.019   133640365.53406      2574.406          41.550    25664224.917   100711994.52406      1940.264          41.600    25664219.615   108593777.53207      2092.126          42.350
C24  22793477.471   119780534.19808     -2028.062          48.350    22793477.543   118691620.80408     -2009.787          48.400    22793479.678    89446505.48908     -1514.586          52.850    22793478.065    96446658.21408     -1633.087          50.700
C25  23268480.152   122276702.90907      1350.096          45.650    23268480.479   121165102.21307      1337.925          46.500    23268483.496    91310546.02608      1008.218          49.150    23268481.763    98456581.17808      1087.097          48.600
C26  25727594.031   135199357.20906     -3469.433          40.700    25727593.957   133970275.13007     -3438.204          42.250    25727605.528   100960563.72907     -2590.865          44.000    25727601.627   108861821.06507     -2793.884          42.050
C31  21570134.549   113351870.80107      -936.520          46.700    21570136.095   112321408.18307      -927.833          47.700    21570140.270    84645925.74008      -699.334          53.850    21570137.344    91270365.41608      -754.053          52.300
C34  22538562.570   118441001.68907      1749.904          45.250    22538562.970   117364265.35507      1734.022          46.300    22538567.959    88446264.61008      1306.725          50.400    22538565.902    95368113.93108      1409.057          49.500
C35  24919376.424   130952201.64306     -2643.974          40.650    24919377.694   129761731.46906     -2619.831          41.950    24919383.659    97789001.76607     -1974.357          44.800    24919380.749   105442042.40507     -2128.933          43.800
S21  37771111.588                           5.658          45.750
S36  37795192.972   198615067.89607         1.498          47.100
> 2026 04 30 10 08  0.0000000  0 41
G02  24217852.350   127265675.21306      3345.768          39.600    24217854.130    99168076.47405      2607.091          35.050
G07  25031574.516   131541807.21906      1682.087          40.050    25031575.725   102500114.06106      1310.717          39.900
G08  22489999.184   118185790.78007      2694.654          43.750    22490002.069    92092840.67807      2099.732          43.750    22490003.464    88255651.60008      2012.267          49.100
G10  22911645.995   120401601.38307      2736.332          47.150    22911649.825    93819482.36907      2132.210          47.300    22911650.709    89910358.13408      2043.407          49.100
G15  25277849.273   132836012.63015      1413.877          33.050    25277853.567   103508575.51915      1101.712          33.900
G16  20096537.957   105608042.51407      -700.815          46.250    20096536.374    82291978.10607      -546.091          46.150
G18  22499714.073   118236824.72507     -2744.569          43.150    22499714.609    92132602.67707     -2138.622          43.100    22499720.804    88293780.89908     -2049.367          50.200
G23  21835244.832   114745070.64107       872.526          47.400    21835245.681    89411796.94707       679.890          45.750    21835252.210    85686337.94008       651.610          51.250
G26  21674314.694   113899302.02308     -2691.321          48.350    21674317.603    88752712.84908     -2097.137          48.050    21674319.188    85054689.63108     -2009.778          53.000
G27  20515919.160   107811941.20808      1290.180          48.250    20515920.034    84009334.61208      1005.335          48.100    20515922.010    80508958.34009       963.501          54.750
G31  25314514.987   133028540.72406     -3484.982          40.400    25314520.470   103658576.60506     -2715.574          40.000
R07  23397968.376   125251215.65805       621.834          33.650    23397975.188    97417641.58306       483.647          38.900    23397975.141    97417633.58306       483.648          39.050
R08  23840653.763   127665625.38306      3125.240          40.950    23840661.886    99295542.90406      2430.744          38.050    23840662.012    99295539.88206      2430.740          37.500
R13  20903901.989   111625645.83807     -3583.102          42.250
R14  19601749.487   104488389.90407       816.295          47.850    19601754.695    81268765.00508       634.895          49.350    19601754.653    81268764.01108       634.896          50.000
R15  22849890.888   122102887.40507      3938.806          42.950    22849896.762    94968935.80507      3063.517          43.200    22849896.694    94968938.81107      3063.517          43.800
R17  23321342.001   124797214.94307      3365.261          43.000    23321349.005    97064521.82707      2617.427          42.950    23321349.147    97064523.82807      2617.427          43.850
R22  24469092.802   130617675.24105     -3686.705          33.750    24469100.461   101591557.08105     -2867.428          31.900    24469100.390   101591557.06405     -2867.429          32.950
R23  21169439.864   113242245.98207     -3005.958          43.500
R24  19782209.206   105784502.90008      1041.774          49.550    19782212.100    82276819.82208       810.268          49.600    19782212.132    82276825.82208       810.268          50.200
E02  25199754.588   132425620.94648      2156.734          48.100    25199760.424    98889293.56008      1610.579          49.900    25199756.463   107488342.58008      1750.589          49.550    25199756.113   101468995.06308      1652.548          48.750    25199758.147   100179134.62108      1631.546          52.300
E10  24510579.417   128803999.37548     -1617.531          49.350    24510584.850    96184847.91408     -1207.967          52.250    24510581.814   104548721.59408     -1312.987          53.900    24510580.724    98693997.96008     -1239.485          51.750    24510582.686    97439423.24709     -1223.740          55.000
E11  21829626.964   114715510.02147      -129.528          46.200    21829628.971    85664210.55608       -96.719          50.350    21829624.761    93113252.60208      -105.144          52.850    21829625.000    87898916.96508       -99.263          50.250    21829626.961    86781555.06908       -98.012          53.250
E12  26047451.127   136880296.53046     -2507.241          40.700    26047455.564   102215822.78807     -1872.289          44.050    26047450.903   111104138.43507     -2035.146          46.050    26047451.221   104882318.58007     -1921.119          42.800    26047453.543   103549067.49207     -1896.790          46.350
E16  25666261.937   134877139.43747     -2441.518          46.650    25666269.937   100719985.68607     -1823.198          47.600    25666264.004   109478209.95708     -1981.726          50.250    25666265.517   103347432.13108     -1870.682          48.250    25666267.578   102033706.22308     -1846.953          50.900
E25  23268909.822   122278956.11548      -385.114          49.100    23268916.313    91312245.81808      -287.600          53.050    23268910.870    99252408.31209      -312.636          56.350    23268912.235    93694286.26008      -295.113          53.450    23268914.420    92503259.84909      -291.360          56.150
E36  25129321.057   132055535.89948      2334.095          48.250    25129329.526    98612956.91108      1743.113          49.300    25129323.366   107187949.90908      1894.648          51.100    25129324.910   101185459.35308      1788.527          49.650    25129327.278    99899212.94108      1765.833          52.350
C06  39937605.475   209873550.62506      -700.891          37.450    39937607.626   207965620.91106      -694.805          38.100    39937610.935   156723791.45407      -523.471          42.450    39937606.581   168989103.62106      -564.487          37.900
C09                                                                  38837043.440   202234748.78206        75.467          38.950                                                                    38837047.550   164332339.52406        61.131          41.600    38837049.332   156380771.65007        58.123          42.900
C12  26392099.245   138691419.78405      -749.816          32.550    26392098.596   137430573.28305      -743.917          31.300    26392124.148   103568375.01006      -560.123          41.200    26392102.083   111673641.87106      -603.730          37.700
C19  26039640.966   136839245.91606       555.772          36.550    26039640.936   135595295.40105       550.235          32.650    26039650.367   102185242.20207       414.933          42.950    26039644.686   110182322.22606       447.359          40.600
C22  25649400.776   134788571.82906      2591.935          38.900    25649402.020   133563216.28206      2568.730          38.650    25649408.722   100653854.84407      1935.599          42.700    25649404.063   108531087.72906      2087.219          40.950
C23  27270893.231   143309510.60216      3062.432          36.700    27270897.105                        3034.456          37.450                                                                    27270891.692                        2466.003          34.250
C24  22805094.550   119841582.24508     -2041.733          48.050    22805094.486   118752113.86407     -2023.096          47.850    22805096.758    89492093.24308     -1524.636          52.550    22805095.049    96495813.73508     -1643.966          50.350
C25  23260815.984   122236427.17207      1334.994          45.650    23260816.424   121125192.63207      1322.609          46.350    23260819.243    91280469.98908       996.762          49.000    23260817.447    98424151.36508      1074.712          48.100
C26  25747406.998   135303474.43406     -3471.321          40.850    25747407.181   134073445.80106     -3439.902          41.850    25747419.000   101038313.24306     -2592.312          41.750    25747414.557   108945655.46906     -2795.281          39.250
C31  21575504.109   113380088.21807      -944.728          46.550    21575505.717   112349369.08607      -936.195          47.200    21575509.869    84666997.17108      -705.486          53.750    21575506.971    91293085.91508      -760.663          52.000
C34  22528594.231   118388617.97307      1742.289          45.350    22528594.719   117312357.85907      1726.513          45.950    22528599.668    88407146.92408      1301.012          50.300    22528597.567    95325934.85708      1402.880          49.200
C35  24934475.666   131031544.83406     -2645.598          41.750    24934475.547   129840353.48706     -2621.419          38.050    24934483.004    97848251.45407     -1975.554          44.900    24934479.711   105505929.08407     -2130.222          42.000
S21  37771079.364                           5.685          45.550
S36  37795184.677   198615023.63807         1.323          47.000
> 2026 04 30 10 08 30.0000000  0 41
G02  24198769.812   127165396.41006      3339.670          40.050    24198771.625    99089937.17406      2602.336          38.550
G07  25022011.814   131491555.08506      1667.960          39.700    25022013.040   102460956.56306      1299.709          39.850
G08  22474629.591   118105023.71507      2689.530          43.550    22474632.481    92029905.35307      2095.739          43.050    22474634.066    88195338.59108      2008.410          49.750
G10  22896053.523   120319662.33808      2726.013          48.550    22896057.432    93755633.84608      2124.167          48.850    22896058.004    89849169.99008      2035.550          51.000
G15  25269817.266   132793805.82806      1398.959          36.250    25269821.747   103475687.14405      1090.099          35.700
G16  20100590.179   105629336.88807      -718.940          45.950    20100588.576    82308571.10307      -560.214          46.050
G18  22515403.050   118319269.55407     -2752.226          44.800    22515403.080    92196845.34507     -2144.591          43.700    22515409.482    88355346.77108     -2055.198          51.450
G23  21830316.689   114719173.45607       853.532          47.050    21830317.547    89391617.35107       665.090          45.900    21830324.193    85666999.16108       637.428          51.750
G26  21689713.280   113980222.33608     -2703.486          48.200    21689716.378    88815767.55808     -2106.615          48.600    21689717.828    85115117.03908     -2018.817          53.550
G27  20508582.997   107773389.72207      1279.591          47.850    20508583.935    83979294.50107       997.084          47.850    20508585.913    80480169.90409       955.533          55.350
G31  25334398.779   133133030.93906     -3481.414          40.750    25334404.578   103739997.24306     -2712.794          40.700
R07  23394547.902   125232910.28506       598.254          36.650    23394555.465    97403404.17506       465.315          40.600    23394555.471    97403396.17206       465.315          41.250
R08  23823174.542   127572023.25606      3114.778          40.050    23823182.304    99222741.42206      2422.615          39.800    23823182.577    99222738.44006      2422.617          40.850
R13  20924075.295   111733369.66307     -3598.925          42.000
R14  19597226.722   104464281.44907       790.414          47.600    19597232.041    81250013.97108       614.765          49.500    19597231.941    81250012.97608       614.765          50.100
R15  22827804.042   121984862.76307      3929.297          43.650    22827809.911    94877138.92107      3056.121          43.150    22827809.826    94877141.92607      3056.121          43.600
R17  23302493.385   124696352.86606      3358.640          41.550    23302500.347    96986073.62807      2612.278          42.650    23302500.381    96986075.63607      2612.279          43.000
R22  24489801.764   130728220.82905     -3683.359          34.800    24489809.552   101677536.88705     -2864.837          34.550    24489809.293   101677536.88105     -2864.836          34.950
R23  21186314.803   113332514.44107     -3012.299          44.600
R24  19776408.228   105753482.64908      1026.043          49.150    19776411.103    82252692.97108       798.034          49.700    19776411.184    82252698.97308       798.034          50.200
E02  25187457.005   132360996.55247      2151.210          47.850    25187462.786    98841035.11108      1606.433          50.250    25187458.898   107435887.72908      1746.188          49.900    25187458.419   101419477.68508      1648.425          48.600    25187460.500   100130246.70808      1627.413          52.250
E10  24519839.375   128852660.96048     -1626.706          49.050    24519844.875    96221186.07408     -1214.756          52.900    24519841.821   104588219.60908     -1320.390          53.900    24519840.780    98731284.07508     -1246.426          51.850    24519842.710    97476235.38309     -1230.586          55.200
E11  21830401.827   114719581.74047      -141.881          46.150    21830403.797    85667251.12108      -105.977          51.000    21830399.574    93116557.56408      -115.204          53.000    21830399.819    87902036.84708      -108.741          50.300    21830401.789    86784635.29408      -107.355          53.400
E12  26061777.814   136955584.05946     -2512.269          36.400    26061782.991   102272043.88807     -1875.928          44.800    26061777.696   111165248.35907     -2039.023          44.250    26061778.461   104940006.32607     -1924.895          43.500    26061780.389   103606021.92107     -1900.439          46.950
E16  25680217.365   134950478.28047     -2447.955          46.400    25680225.424   100774751.55808     -1828.054          48.050    25680220.268   109537738.13808     -1987.079          50.300    25680221.875   103403626.71108     -1875.800          48.300    25680223.535   102089186.44108     -1851.921          50.900
E25  23271139.241   122290671.59848      -396.131          48.900    23271145.696    91320994.36808      -295.828          53.650    23271140.217    99261917.61409      -321.537          56.450    23271141.643    93703263.03608      -303.526          53.450    23271143.821    92512122.51009      -299.693          56.300
E36  25116019.208   131985634.19048      2325.668          48.100    25116027.629    98560757.63708      1736.718          49.800    25116021.426   107131211.53608      1887.750          51.500    25116023.267   101131898.34708      1781.980          49.950    25116025.367    99846332.80108      1759.367          52.550
C06  39941622.002   209894654.26306      -706.160          37.650    39941623.296   207986532.64206      -699.295          37.250    39941626.791   156739550.62007      -527.372          43.250    39941622.151   169006096.11906      -568.539          38.500
C09                                                                  38836627.027   202232579.66706        69.129          40.000                                                                    38836630.967   164330576.93006        56.123          41.600    38836632.799   156379094.30107        53.412          43.150
C12  26396424.527   138714153.48405      -765.853          31.200    26396424.445   137453100.31005      -758.763          32.850    26396450.219   103585351.51007      -571.832          42.550    26396428.394   111691946.98406      -616.638          38.250
C19  26036514.859   136822815.11706       539.794          37.850    26036514.215   135579013.84306       535.097          36.300    26036524.112   102172972.47507       402.895          44.800    26036517.603   110169092.23006       434.520          38.850
C22  25634618.907   134710893.38906      2585.947          40.350    25634619.612   133486243.94806      2562.660          41.250    25634627.060   100595848.51307      1931.207          44.650    25634621.667   108468541.62606      2082.223          39.200
C23  27253425.951   143217710.64406      3057.336          36.300    27253427.163   141915747.88016      3029.668          37.650    27253428.072   106948303.08216      2283.115          39.850    27253423.474   115318148.81916      2461.598          38.850
C24  22816787.090   119903027.03408     -2055.018          48.000    22816787.080   118813000.07008     -2036.192          48.550    22816789.201    89537977.27208     -1534.499          52.850    22816787.628    96545288.71708     -1654.629          50.750
C25  23253238.496   122196607.38007      1319.551          45.250    23253239.110   121085734.83607      1307.470          46.750    23253241.859    91250734.43108       985.321          49.600    23253240.021    98392088.66608      1062.477          48.400
C26  25767228.675   135407636.97206     -3473.024          40.750    25767228.750   134176661.44106     -3441.429          40.600    25767240.072   101116096.65607     -2593.513          42.250    25767236.094   109029526.36207     -2796.327          42.050
C31  21580919.513   113408546.52807      -952.648          46.250    21580921.136   112377568.69407      -944.141          47.500    21580925.313    84688248.48909      -711.482          54.350    21580922.459    91316000.39408      -767.147          52.250
C34  22518668.505   118336458.23607      1734.872          45.300    22518669.121   117260672.31007      1719.021          46.350    22518674.015    88368196.49208      1295.435          51.000    22518671.857    95283936.12408      1396.874          49.600
C35  24949582.181   131110931.96406     -2647.165          37.150    24949582.599   129919018.92707     -2623.072          42.300    24949589.901    97907533.90907     -1976.663          43.750    24949585.868   105569851.12106     -2131.383          41.600
S21  37771046.618                           5.651          45.400
S36  37795174.905   198614975.06407         1.722          46.650
> 2026 04 30 10 09  0.0000000  0 41
G02  24179722.148   127065300.09106      3333.103          40.250    24179723.952    99011940.13606      2597.229          38.900
G07  25012529.736   131441727.05906      1653.732          39.000    25012530.608   102422129.52306      1288.623          39.350
G08  22459289.111   118024408.71807      2684.317          43.850    22459291.813    91967088.52307      2091.678          43.350    22459293.642    88135139.13308      2004.555          49.200
G10  22880520.714   120238036.75508      2715.306          48.800    22880524.744    93692029.59708      2115.826          48.550    22880525.603    89788215.94208      2027.679          50.550
G15  25261872.104   132752054.04405      1383.814          32.950    25261876.669   103443153.30905      1078.297          32.900
G16  20104745.792   105651174.76507      -737.537          46.050    20104744.198    82325587.61007      -574.705          45.650
G18  22531135.898   118401945.66107     -2760.022          42.750    22531135.872    92261268.21307     -2150.669          43.000    22531142.581    88417085.33408     -2061.007          50.650
G23  21825496.884   114693845.14707       834.396          46.800    21825497.811    89371881.02707       650.180          45.850    21825504.315    85648085.19208       623.186          51.050
G26  21705180.560   114061503.25308     -2715.619          48.100    21705183.717    88879103.24908     -2116.070          48.300    21705185.117    85175813.74108     -2027.887          52.900
G27  20501307.782   107735158.38307      1268.796          47.950    20501308.772    83949503.86108       988.672          48.000    20501310.758    80451620.53609       947.435          54.850
G31  25354261.940   133237410.53107     -3477.775          42.250    25354267.796   103821331.69307     -2709.960          42.100
R07  23391262.825   125215326.64205       573.702          33.650    23391270.660    97389728.05706       446.211          39.000    23391270.760    97389720.06306       446.212          40.250
R08  23805754.245   127478740.19406      3103.969          37.050    23805762.592    99150188.22506      2414.211          39.200    23805762.750    99150185.20906      2414.209          39.850
R13  20944336.578   111841563.52006     -3614.479          41.600
R14  19592849.892   104440950.57607       764.385          47.400    19592855.286    81231867.72508       594.522          49.650    19592855.238    81231866.73008       594.522          50.150
R15  22805769.967   121867119.32107      3919.829          42.700    22805775.840    94785560.72907      3048.760          45.200    22805775.709    94785563.73307      3048.760          45.800
R17  23283682.647   124595693.69406      3351.783          41.700    23283689.780    96907783.25507      2606.949          43.350    23283689.839    96907785.26007      2606.949          44.150
R22  24510493.007   130838670.59405     -3679.940          33.600    24510500.720   101763442.20705     -2862.176          35.300    24510500.489   101763442.20405     -2862.176          35.550
R23  21203223.942   113422965.46806     -3018.179          40.700
R24  19770694.816   105722930.87608      1010.232          49.050    19770697.729    82228930.49108       785.737          49.800    19770697.791    82228936.49208       785.737          50.350
E02  25175190.582   132296536.04748      2145.657          48.000    25175196.228    98792899.04408      1602.295          49.800    25175192.492   107383565.91508      1741.598          49.950    25175191.878   101370085.89908      1644.089          48.700    25175194.048   100081482.78408      1623.151          52.250
E10  24529151.480   128901596.44348     -1636.084          48.950    24529157.029    96257728.77808     -1221.655          52.250    24529153.941   104627939.95408     -1327.936          53.950    24529152.942    98768780.07208     -1253.564          51.850    24529154.860    97513254.73509     -1237.607          55.050
E11  21831246.557   114724020.65747      -154.272          46.100    21831248.506    85670565.89608      -115.216          50.400    21831244.295    93120160.58408      -125.272          52.950    21831244.512    87905438.09908      -118.283          50.350    21831246.496    86787993.30708      -116.734          53.400
E12  26076131.605   137031014.92546     -2517.084          39.750    26076137.138   102328372.04107     -1879.554          43.050    26076131.304   111226474.68007     -2043.060          44.700    26076132.828   104997803.90307     -1928.529          42.850    26076134.469   103663084.78807     -1904.138          46.100
E16  25694211.035   135024014.56748     -2454.726          48.700    25694218.718   100829664.89408     -1833.147          48.350    25694213.423   109597426.59208     -1992.510          49.200    25694215.165   103459972.56807     -1880.943          47.550    25694217.037   102144816.03608     -1856.995          50.900
E25  23273431.428   122302716.83148      -407.309          48.950    23273437.815    91329989.16508      -304.162          53.050    23273432.350    99271694.57409      -330.606          56.450    23273433.806    93712492.48008      -312.095          53.600    23273435.971    92521234.63209      -308.130          56.300
E36  25102765.999   131915988.27247      2317.062          47.750    25102774.281    98508749.37308      1730.221          49.150    25102768.297   107074680.79608      1880.680          51.650    25102770.206   101078533.34108      1775.374          50.000    25102772.192    99793646.16608      1752.794          52.450
C06  39945667.495   209915910.38006      -711.479          37.300    39945667.734   208007595.63305      -705.088          34.900    39945672.059   156755423.68107      -531.153          44.250    39945667.342   169023211.45006      -572.821          40.200
C09                                                                  38836246.335   202230596.64906        62.846          40.350                                                                    38836250.243   164328965.56406        50.891          41.400    38836251.980   156377560.90107        48.541          43.150
C12  26400839.318   138737347.09315      -781.199          30.750    26400840.011   137476091.94305      -774.872          33.250    26400865.516   103602678.09406      -583.502          41.750    26400844.009   111710629.53006      -629.134          38.300
C19  26033479.540   136806861.81406       523.574          37.500    26033479.251   135563205.57006       518.648          36.100    26033488.490   102161059.34207       390.931          44.300    26033481.131   110156246.73406       421.535          38.750
C22  25619871.844   134633396.43606      2579.893          37.950    25619872.551   133409451.54007      2556.320          42.050    25619879.968   100537977.70207      1926.568          43.300    25619873.807   108406141.63406      2077.316          41.400
C23  27235985.916   143126063.25305      3051.952          35.300    27235986.992   141824933.65805      3024.404          35.900    27235988.316   106879865.06406      2279.143          39.600    27235983.784   115244354.81706      2457.400          38.550
C24  22828554.857   119964867.16407     -2068.141          47.650    22828554.984   118874278.02508     -2049.482          48.250    22828556.845    89584156.52308     -1544.404          52.250    22828555.550    96595082.01608     -1665.274          50.700
C25  23245748.041   122157245.09007      1304.166          44.950    23245748.880   121046730.37907      1292.350          46.450    23245751.498    91221340.50908       973.856          49.050    23245749.660    98360394.36108      1050.033          48.100
C26  25787058.481   135511843.12606     -3474.906          40.250    25787058.748   134279920.20207     -3442.939          42.450    25787070.470   101193912.50407     -2594.567          44.100    25787066.750   109113432.27006     -2797.640          41.500
C31  21586380.666   113437245.14907      -961.032          46.400    21586382.265   112406006.40407      -952.185          47.150    21586386.504    84709679.25608      -717.560          53.800    21586383.671    91339108.35608      -773.750          52.100
C34  22508785.502   118284522.78807      1727.186          45.400    22508786.124   117209209.00507      1711.487          46.050    22508791.045    88329413.56108      1289.730          50.550    22508788.850    95242117.99708      1390.707          49.300
C35  24964697.275   131190362.51406     -2648.568          39.050    24964698.538   129997727.23906     -2624.389          41.800    24964704.380    97966848.80307     -1977.984          42.700    24964701.096   105633808.05707     -2132.683          42.950
S21  37771014.112                           5.356          45.500
S36  37795163.944   198614918.45907         1.457          46.800
> 2026 04 30 10 09 30.0000000  0 41
G02  24160709.775   126965390.30006      3327.663          39.400    24160711.741    98934088.39706      2592.987          38.350
G07  25003129.287   131392327.28106      1639.928          40.100    25003129.374   102383636.15006      1277.862          39.650
G08  22443978.199   117943949.22207      2679.621          43.700    22443980.806    91904392.85707      2088.019          43.750    22443982.749    88075055.80008      2000.976          49.300
G10  22865048.338   120156730.01207      2705.109          47.800    22865052.256    93628673.80708      2107.882          48.000    22865053.502    89727500.02008      2020.013          50.150
G15  25254014.611   132710762.58605      1368.866          34.650    25254018.764   103410978.16206      1066.646          36.050
G16  20109005.384   105673558.71507      -754.874          46.150    20109003.692    82343029.62807      -588.214          46.000
G18  22546912.704   118484853.57807     -2766.972          42.800    22546913.018    92325871.72207     -2156.081          43.200    22546919.438    88478997.01508     -2066.444          50.550
G23  21820786.028   114669089.52007       815.898          47.250    21820786.931    89352590.95107       635.766          45.700    21820793.345    85629598.88008       609.202          51.000
G26  21720716.728   114143145.60408     -2727.236          48.450    21720719.738    88942720.58408     -2125.122          48.600    21720721.213    85236780.33208     -2036.569          52.950
G27  20494094.140   107697250.42908      1258.448          48.250    20494095.151    83919965.20508       980.608          48.100    20494097.115    80423312.65809       939.754          55.000
G31  25374103.881   133341679.90706     -3473.483          37.550    25374109.798   103902580.30406     -2706.613          37.650
R07  23388114.095   125198468.32105       549.710          34.300    23388121.584    97376616.09406       427.554          38.900    23388121.646    97376608.09206       427.553          39.850
R08  23788395.486   127385783.61506      3093.359          41.400    23788403.351    99077888.79006      2405.947          37.050    23788403.389    99077885.78706      2405.946          37.350
R13  20964685.746   111950227.05106     -3629.587          41.600
R14  19588619.705   104418401.33307       738.807          47.650    19588625.102    81214329.40508       574.628          49.250    19588625.050    81214328.41008       574.628          49.900
R15  22783789.660   121749663.71407      3910.858          43.000    22783795.603    94694206.45007      3041.779          43.000    22783795.502    94694209.45307      3041.779          43.100
R17  23264910.679   124495241.15007      3345.206          42.250    23264917.774    96829653.56907      2601.829          43.400    23264917.849    96829655.57007      2601.829          44.150
R22  24531166.427   130949026.04705     -3676.536          34.850    24531174.091   101849274.10605     -2859.532          34.050    24531174.049   101849274.10205     -2859.532          34.500
R23  21220167.271   113513599.30206     -3023.767          41.400
R24  19765069.344   105692849.48508       995.162          49.000    19765072.381    82205533.86208       774.015          49.500    19765072.428    82205539.86208       774.015          50.150
E02  25162956.129   132232243.46548      2140.483          48.350    25162961.821    98744888.36708      1598.390          49.800    25162957.958   107331380.37808      1737.426          49.850    25162957.424   101320822.76208      1640.081          48.650    25162959.520   100032845.87408      1619.215          52.200
E10  24538515.907   128950806.93948     -1644.678          48.950    24538521.521    96294476.84808     -1228.249          52.300    24538518.402   104667883.51808     -1335.040          53.550    24538517.436    98806486.78608     -1260.214          51.900    24538519.343    97550482.12909     -1244.270          55.000
E11  21832161.467   114728828.56547      -166.281          46.150    21832163.446    85674156.21008      -124.177          50.550    21832159.208    93124063.09708      -134.990          52.750    21832159.435    87909122.07008      -127.438          50.400    21832161.410    86791630.44808      -125.804          53.300
E12  26090513.596   137106590.17246     -2521.189          40.300    26090518.099   102384808.04707     -1882.905          42.950    26090513.030   111287818.18407     -2046.574          44.950    26090513.997   105055712.15507     -1931.951          42.300    26090515.992   103720256.91407     -1907.498          45.750
E16  25708242.972   135097750.21047     -2461.018          47.300    25708250.774   100884727.05308     -1837.752          48.550    25708244.715   109657276.83308     -1997.552          49.650    25708246.380   103516471.15908     -1885.672          48.000    25708248.629   102200596.41108     -1861.643          51.050
E25  23275786.937   122315094.87648      -417.999          48.950    23275793.270    91339232.48208      -312.102          53.100    23275787.814    99281741.67109      -339.243          56.200    23275789.294    93721976.93208      -320.207          53.600    23275791.448    92530598.51609      -316.159          56.200
E36  25089561.973   131846601.54747      2308.736          47.650    25089570.291    98456934.65508      1724.101          49.200    25089564.423   107018360.43908      1873.987          51.350    25089566.329   101025366.93708      1769.038          49.950    25089568.335    99741155.60308      1746.562          52.400
C06  39949742.090   209937321.20006      -715.838          37.550    39949741.390   208028811.79705      -709.080          34.250    39949747.094   156771412.23207      -534.653          44.400    39949742.252   169040451.31406      -576.642          39.900
C09                                                                  38835901.905   202228802.04606        57.066          38.800                                                                    38835905.738   164327507.28706        46.295          41.200    38835907.317   156376173.20207        44.064          43.550
C12  26405344.193   138761020.50005      -796.396          31.600    26405345.334   137499550.17005      -789.797          34.700    26405370.519   103620356.35007      -594.987          42.800    26405349.142   111729691.28806      -641.700          38.800
C19  26030535.799   136791389.53806       508.374          37.800    26030535.901   135547873.96305       503.035          34.500    26030544.438   102149505.40307       379.370          43.850    26030536.246   110143788.57906       408.962          38.750
C22  25605159.877   134556086.19006      2573.894          37.000    25605161.051   133332844.15706      2550.511          41.650    25605167.978   100480246.34707      1922.119          43.150    25605162.265   108343892.07106      2072.582          41.600
C23  27218575.882   143034573.56905      3047.201          35.500    27218577.233   141734275.68106      3019.755          36.100    27218578.486   106811544.81406      2275.369          39.000    27218573.959   115170687.75406      2453.477          36.850
C24  22840398.059   120027103.61807     -2080.905          47.850    22840398.266   118935948.67808     -2061.886          48.350    22840400.051    89630631.72408     -1553.944          52.400    22840398.971    96645194.42308     -1675.576          50.550
C25  23238345.337   122118344.19807      1289.358          45.100    23238346.368   121008183.14207      1277.505          46.800    23238348.886    91192291.15108       962.675          49.200    23238347.166    98329071.56808      1038.053          48.100
C26  25806896.948   135616093.34306     -3475.495          41.250    25806897.372   134383222.65206     -3443.859          41.950    25806909.439   101271761.29607     -2595.328          43.150    25806904.959   109197373.75706     -2798.563          39.350
C31  21591887.893   113466185.81707      -968.386          46.550    21591889.455   112434683.98807      -959.676          47.200    21591893.771    84731290.78008      -723.239          53.800    21591890.954    91362411.22708      -779.827          51.850
C34  22498945.752   118232814.33007      1720.022          45.650    22498946.213   117157970.61607      1704.453          45.700    22498951.245    88290800.12508      1284.389          50.550    22498949.067    95200482.63108      1384.968          49.200
C35  24979821.645   131269838.18606     -2649.614          41.350    24979821.503   130076480.48706     -2625.442          37.550    24979828.505    98026197.45607     -1978.768          44.600    24979825.699   105697801.38407     -2133.490          43.300
S21  37770982.581                           5.810          45.250
S36  37795154.403   198614868.11407         1.772          46.750
> 2026 04 30 10 10  0.0000000  0 41
G02  24141733.291   126865667.62206      3321.458          41.000    24141734.828    98856382.41906      2588.149          39.850
G07  24993810.596   131343356.39406      1625.436          41.450    24993810.228   102345476.96606      1266.572          40.700
G08  22428696.906   117863645.44607      2674.552          43.950    22428699.415    91841818.52507      2084.068          43.800    22428701.418    88015088.75308      1997.179          49.400
G10  22849637.218   120075744.37208      2694.585          48.900    22849641.041    93565568.17808      2099.678          49.100    22849642.138    89667023.82208      2012.169          49.650
G15  25246245.189   132669932.95505      1353.597          34.500    25246249.337   103379162.93405      1054.752          34.950
G16  20113368.717   105696487.88607      -772.899          46.600    20113366.922    82360896.49307      -602.259          46.350
G18  22562733.378   118567990.54607     -2774.636          44.800    22562733.224    92390653.68407     -2162.058          42.750    22562739.561    88541079.77208     -2072.034          49.950
G23  21816184.314   114644907.12507       796.819          47.500    21816185.156    89333747.55107       620.899          45.750    21816191.482    85611540.62808       594.996          50.900
G26  21736321.125   114225146.93608     -2738.985          48.200    21736324.096    89006617.64608     -2134.277          48.300    21736325.779    85298014.99708     -2045.375          53.050
G27  20486942.042   107659665.90708      1247.701          48.250    20486943.064    83890678.57208       972.235          48.200    20486945.001    80395246.29809       931.751          55.000
G31  25393924.303   133445836.35706     -3469.797          40.600    25393930.301   103983740.88006     -2703.749          40.400
R07  23385101.366   125182336.40605       525.844          35.800    23385108.111    97364069.10406       408.991          39.900    23385108.171    97364061.10406       408.990          40.650
R08  23771098.539   127293157.10306      3082.089          37.150    23771105.631    99005846.05806      2397.184          39.900    23771105.543    99005843.05206      2397.183          40.250
R13  20985122.208   112059356.14006     -3644.934          41.600
R14  19584536.260   104396634.54607       712.861          47.550    19584541.699    81197399.66608       554.447          49.400    19584541.650    81197398.66908       554.447          50.000
R15  22761863.802   121632499.15506      3900.987          41.950    22761869.645    94603078.49407      3034.106          45.050    22761869.681    94603081.49607      3034.106          45.400
R17  23246177.186   124394995.39806      3338.443          40.500    23246184.491    96751684.75307      2596.570          43.100    23246184.560    96751686.75807      2596.570          43.750
R22  24551821.614   131059285.33405     -3672.783          32.100    24551829.392   101935031.27105     -2856.616          33.900    24551829.392   101935031.26605     -2856.615          34.000
R23  21237144.277   113604412.50007     -3029.831          44.000
R24  19759531.633   105663237.26308       979.557          48.900    19759534.771    82182502.14408       761.879          49.800    19759534.847    82182508.14608       761.878          50.400
E02  25150753.744   132168119.54848      2134.992          48.450    25150759.405    98697003.65108      1594.222          49.600    25150755.671   107279331.76808      1732.865          49.950    25150755.048   101271688.87208      1635.909          48.300    25150757.113    99984336.56908      1615.086          51.900
E10  24547932.255   129000290.35748     -1653.638          48.800    24547937.946    96331428.70808     -1234.914          52.250    24547934.844   104708048.59308     -1342.262          53.400    24547933.844    98844402.61408     -1267.101          51.700    24547935.758    97587915.96909     -1250.970          54.850
E11  21833146.328   114734004.15547      -178.402          46.200    21833148.335    85678021.10108      -133.298          50.500    21833144.111    93128264.06208      -144.865          52.550    21833144.321    87913087.77808      -136.724          50.150    21833146.292    86795545.75208      -135.028          53.100
E12  26104921.877   137182307.61646     -2525.964          37.300    26104926.872   102441350.24307     -1886.246          44.150    26104922.246   111349277.07307     -2050.249          45.200    26104922.391   105113729.38507     -1935.489          42.800    26104924.630   103777536.61707     -1910.808          46.350
E16  25722311.714   135171683.94048     -2467.589          48.000    25722320.343   100939937.10807     -1842.596          47.600    25722314.555   109717287.80208     -2002.836          49.400    25722316.195   103573121.48108     -1890.613          48.100    25722317.964   102256526.60508     -1866.627          50.550
E25  23278205.686   122327805.53748      -428.924          48.950    23278212.032    91348724.19208      -320.322          53.050    23278206.598    99292058.74909      -348.164          55.950    23278208.082    93731716.25208      -328.656          53.400    23278210.220    92540214.03009      -324.473          56.050
E36  25076407.284   131777474.17147      2300.117          47.650    25076415.698    98405313.62208      1717.640          49.150    25076409.905   106962250.59608      1867.011          51.250    25076411.748   100972399.25608      1762.493          49.700    25076413.822    99688861.24908      1740.056          52.200
C06  39953845.553   209958885.60905      -720.836          35.100    39953844.072   208050180.20605      -714.310          35.350    39953851.286   156787515.44507      -538.449          44.600    39953846.750   169057814.78506      -580.560          41.100
C09                                                                  38835593.697   202227194.99506        50.785          40.000                                                                    38835597.175   164326201.39406        41.168          41.300    38835598.655   156374930.48707        39.326          42.850
C12  26409938.644   138785163.68605      -812.775          33.700    26409939.991   137523473.81205      -804.789          35.650    26409965.000   103638385.33107      -606.581          43.450    26409943.513   111749131.21906      -654.016          38.950
C19  26027683.683   136776398.58606       492.554          37.700    26027683.310   135533019.38805       487.358          34.350    26027691.828   102138310.95607       367.283          43.300    26027683.132   110131718.03706       396.084          39.300
C22  25590483.683   134478964.73406      2567.792          40.150    25590484.521   133256423.78706      2544.707          38.650    25590491.589   100422655.92406      1917.530          41.800    25590486.844   108281794.55306      2067.588          41.950
C23  27201196.305   142943243.09206      3041.852          36.750    27201197.676   141643775.49606      3014.260          38.050    27201198.916   106743343.38106      2271.597          39.600    27201194.370   115097148.83206      2449.315          39.000
C24  22852316.228   120089734.08307     -2093.846          47.950    22852316.580   118998009.77408     -2074.800          48.450    22852318.404    89677401.15608     -1563.676          52.700    22852317.309    96695624.08808     -1686.061          50.550
C25  23231030.545   122079905.38007      1273.795          45.100    23231031.641   120970093.75207      1262.329          46.550    23231034.225    91163586.82508       951.187          49.150    23231032.442    98298120.81408      1025.693          48.250
C26  25826743.155   135720385.00506     -3476.566          40.750    25826743.493   134486566.28106     -3445.239          41.650    25826755.129   101349641.13306     -2596.331          40.800    25826751.142   109281348.63306     -2799.385          41.400
C31  21597440.934   113495367.11907      -976.357          46.550    21597442.475   112463600.00007      -967.495          47.150    21597446.849    84753081.99308      -729.150          53.750    21597444.024    91385907.83908      -786.202          52.000
C34  22489149.111   118181332.30707      1712.644          45.750    22489149.361   117106956.60207      1697.116          45.750    22489154.528    88252355.77808      1278.887          50.500    22489152.389    95159029.59408      1378.981          49.350
C35  24994953.427   131349357.89906     -2650.888          39.700    24994953.731   130155277.23506     -2627.144          41.550    24994961.344    98085578.85107     -1979.773          43.150    24994957.844   105761830.14006     -2134.652          41.750
S21  37770951.077                           5.981          45.600
S36  37795145.152   198614819.09207         1.903          46.900
> 2026 04 30 10 10 30.0000000  0 41
G02  24122792.199   126766132.72606      3314.967          38.850    24122794.166    98778822.86806      2583.098          38.650
G07  24984573.819   131294814.92707      1610.969          42.250    24984573.622   102307652.41207      1255.299          42.400
G08  22413445.210   117783497.45507      2669.149          43.550    22413447.757    91779365.59107      2079.859          43.400    22413449.698    87955238.02208      1993.108          49.200
G10  22834287.559   119995081.74207      2683.457          47.700    22834291.613    93502714.29807      2091.012          47.750    22834292.313    89606788.84708      2003.879          50.350
G15  25238563.713                        1337.960          28.100    25238567.907                        1042.572          27.800
G16  20117835.667   105719961.16907      -791.478          46.550    20117833.717    82379187.34007      -616.737          46.900
G18  22578596.769   118651353.63907     -2782.370          42.900    22578596.731    92455611.87807     -2168.079          42.650    22578603.403    88603331.35908     -2077.731          50.550
G23  21811691.678   114621298.31707       777.521          46.800    21811692.574    89315351.10607       605.861          45.800    21811698.687    85593910.69908       580.601          50.600
G26  21751993.317   114307504.56807     -2751.148          47.950    21751996.221    89070792.34008     -2143.755          48.000    21751998.040    85359515.72708     -2054.405          52.850
G27  20479851.443   107622404.63707      1236.841          47.950    20479852.520    83861643.82108       963.772          48.100    20479854.401    80367421.33409       923.551          54.950
G31  25413722.877   133549876.31206     -3465.666          38.550    25413728.850   104064810.71506     -2700.532          38.850
R07  23382224.648   125166931.41506       501.336          39.400    23382230.599    97352087.47406       389.929          41.550    23382230.755    97352079.47707       389.929          42.100
R08  23753863.049   127200864.02406      3071.285          36.950    23753870.616    98934062.84906      2388.783          40.750    23753870.458    98934059.85406      2388.783          41.600
R13  21005644.924   112168945.94006     -3660.681          41.400
R14  19580599.927   104375651.79907       686.491          47.650    19580605.334    81181079.73708       533.936          49.150    19580605.300    81181078.73808       533.936          49.850
R15  22739992.974   121515628.70507      3891.108          43.500    22739998.992    94512179.34007      3026.420          44.550    22739998.990    94512182.34207      3026.420          44.900
R17  23227482.357   124294956.73806      3331.521          41.850    23227489.536    96673877.00907      2591.190          42.650    23227489.694    96673879.01207      2591.190          43.250
R22  24572458.482   131169446.98705     -3670.048          31.000    24572466.504   102020712.45405     -2854.480          32.350    24572466.312   102020712.44605     -2854.481          31.850
R23  21254153.801   113695402.14307     -3035.778          42.400
R24  19754081.427   105634092.75008       963.962          49.150    19754084.595    82159834.19508       749.748          49.500    19754084.661    82159840.19708       749.748          50.100
E02  25138583.593   132104164.90948      2129.101          48.400    25138589.170    98649245.32708      1589.891          49.400    25138585.453   107227420.54208      1728.115          50.100    25138584.730   101222684.67707      1631.394          47.900    25138586.916    99935955.31208      1610.618          51.850
E10  24557400.078   129050044.37848     -1662.850          48.750    24557405.866    96368582.64808     -1241.738          52.050    24557402.773   104748433.32808     -1349.721          53.550    24557401.756    98882525.79508     -1274.135          51.450    24557403.663    97625554.53009     -1257.920          54.850
E11  21834200.850   114739545.72747      -190.889          46.100    21834202.856    85682159.28008      -142.530          50.400    21834198.657    93132762.08708      -154.908          52.650    21834198.838    87917333.91308      -146.200          50.000    21834200.822    86799737.90308      -144.343          53.200
E12  26119356.702   137258164.90846     -2530.612          38.150    26119362.573   102497996.79407     -1889.886          44.200    26119357.232   111410849.46007     -2054.207          44.100    26119358.014   105171853.68507     -1939.097          43.050    26119359.869   103834922.04907     -1914.550          46.600
E16  25736418.683   135245814.16548     -2474.104          49.150    25736426.506   100995293.95507     -1847.611          47.100    25736421.154   109777458.34708     -2008.270          49.100    25736423.021   103629922.43507     -1895.790          47.700    25736424.510   102312605.50108     -1871.650          50.300
E25  23280687.629   122340848.50748      -440.171          48.700    23280694.060    91358464.04608      -328.733          52.950    23280688.618    99302645.55709      -357.301          56.050    23280690.097    93741710.19108      -337.294          53.150    23280692.227    92550080.92809      -333.017          56.050
E36  25063302.031   131708606.12447      2291.394          47.700    25063310.446    98353886.23808      1711.014          49.050    25063304.776   106906351.25308      1859.861          51.450    25063306.530   100919630.29208      1755.665          49.550    25063308.646    99636763.07108      1733.370          52.250
C06  39957977.760   209980602.31306      -726.263          36.350    39957976.357   208071699.48405      -719.711          34.000    39957984.107   156803732.42007      -542.383          44.000    39957980.062   169075300.93106      -584.589          40.550
C09                                                                  38835320.958   202225774.51106        44.398          38.400                                                                    38835324.460   164325047.12206        35.995          40.750    38835325.827   156373832.05607        34.393          43.000
C12  26414622.357   138809775.17505      -827.942          33.600    26414623.616   137547861.57105      -820.395          35.300    26414648.625   103656764.04307      -618.382          43.150    26414626.996   111768948.26806      -666.823          39.650
C19  26024923.175   136761889.23706       476.107          38.200    26024922.953   135518641.83506       471.386          37.100    26024930.838   102127476.04007       355.148          44.400    26024922.201   110120035.11606       382.926          38.250
C22  25575844.389   134402034.05806      2561.324          41.500    25575844.952   133180192.43706      2538.205          41.500    25575851.905   100365207.93207      1912.762          42.850    25575846.941   108219850.55906      2062.272          39.900
C23  27183847.209   142852073.06506      3036.402          37.200    27183848.729   141553434.27206      3009.014          38.400    27183849.810   106675261.80006      2267.494          40.650    27183845.409   115023739.16106      2444.804          40.900
C24  22864308.895   120152756.06307     -2107.054          47.600    22864309.367   119060458.82508     -2087.915          48.200    22864311.304    89724462.94008     -1573.489          52.600    22864310.009    96746369.00608     -1696.691          49.950
C25  23223803.833   122041929.10607      1258.318          44.900    23223804.926   120932462.71707      1246.883          46.150    23223807.686    91135227.91508       939.615          49.050    23223805.844    98267542.51507      1013.159          47.900
C26  25846596.838   135824715.33506     -3478.013          40.850    25846597.424   134589948.07606     -3446.664          41.850    25846608.998   101427549.72807     -2597.263          44.100    25846605.403   109365354.50706     -2800.530          41.300
C31  21603039.435   113524787.39007      -984.393          46.300    21603040.933   112492752.81607      -975.510          46.850    21603045.400    84775051.66208      -735.228          53.700    21603042.567    91409596.88308      -792.756          51.750
C34  22479395.402   118130075.97807      1705.018          45.450    22479395.455   117056166.24307      1689.453          45.450    22479400.719    88214079.97908      1273.100          50.400    22479398.659    95117758.29108      1372.682          49.150
C35  25010093.440   131428920.00106     -2652.654          40.100    25010094.809   130234116.01806     -2628.452          41.150    25010101.602    98144991.99707     -1981.023          42.900    25010097.459   105825893.04906     -2135.963          41.550
S21  37770919.234                           5.835          45.250
S36  37795134.848   198614764.79007         1.692          46.750
> 2026 04 30 10 11  0.0000000  0 41
G02  24103887.736   126666789.64706      3308.094          41.550    24103889.862    98701412.78006      2577.740          37.750
G07  24975419.507   131246706.95006      1596.266          41.750    24975419.522   102270165.66006      1243.843          41.900
G08  22398223.800   117703508.66207      2663.822          43.650    22398226.399    91717036.70007      2075.707          43.400    22398228.318    87895506.19108      1988.968          49.300
G10  22819000.430   119914747.51508      2672.113          49.000    22819004.528    93440116.29808      2082.171          49.050    22819005.341    89546799.12908      1995.369          50.150
G15  25230971.258   132589648.60915      1321.419          30.750    25230975.787   103316626.52715      1029.671          31.600
G16  20122406.686   105743981.18807      -809.911          46.850    20122404.548    82397904.21607      -631.100          47.200
G18  22594503.339   118734943.40507     -2790.019          44.150    22594503.538    92520746.68507     -2174.043          44.100    22594510.170    88665752.18908     -2083.617          49.750
G23  21807308.882   114598266.81907       757.960          47.050    21807309.780    89297404.51407       590.619          45.950    21807315.711    85576711.88908       565.987          50.550
G26  21767733.436   114390219.30508     -2763.215          48.050    21767736.376    89135245.29907     -2153.157          47.750    21767738.228    85421283.12908     -2063.514          52.700
G27  20472823.052   107585469.93508      1225.579          48.300    20472824.105    83832863.54208       954.997          48.400    20472825.934    80339840.22609       915.183          54.950
G31  25433498.687   133653800.05206     -3462.222          37.150    25433505.019   104145789.89906     -2697.852          36.750
R07  23379484.353   125152256.99406       477.010          40.400    23379489.613    97340674.07907       371.007          42.450    23379489.706    97340666.08307       371.007          43.050
R08  23736691.693   127108912.10906      3059.312          41.400    23736699.087    98862544.93806      2379.469          38.350    23736699.025    98862541.92406      2379.467          38.500
R13  21026253.969   112278996.24306     -3675.772          41.600
R14  19576811.389   104355456.58607       659.888          47.700    19576816.716    81165372.33908       513.246          49.150    19576816.700    81165371.34208       513.247          49.800
R15  22718178.384   121399059.16807      3880.362          42.050    22718184.276    94421514.18207      3018.061          43.700    22718184.363    94421517.18407      3018.061          44.000
R17  23208827.421   124195129.10906      3323.997          41.800    23208834.344    96596233.38907      2585.335          43.650    23208834.482    96596235.39107      2585.334          44.400
R22  24593077.207   131279512.59205     -3667.631          35.500    24593085.619   102106318.94405     -2852.606          34.450    24593085.538   102106318.93705     -2852.606          35.500
R23  21271196.594   113786568.64307     -3041.872          42.600
R24  19748719.145   105605418.23008       947.779          48.950    19748722.317    82137531.79908       737.161          49.550    19748722.354    82137537.79908       737.162          50.000
E02  25126446.377   132040383.58248      2123.060          48.450    25126451.969    98601616.43208      1585.402          49.250    25126448.267   107175650.00208      1723.121          50.650    25126447.557   101173813.29208      1626.706          48.000    25126449.675    99887705.17408      1606.015          52.000
E10  24566919.643   129100070.14248     -1672.223          48.900    24566925.515    96405939.51208     -1248.773          52.100    24566922.408   104789038.62708     -1357.304          53.800    24566921.414    98920857.18508     -1281.299          51.650    24566923.279    97663398.66009     -1265.067          55.150
E11  21835325.408   114745455.14847      -203.378          46.350    21835327.375    85686572.16208      -151.846          50.300    21835323.174    93137558.69808      -165.050          52.900    21835323.357    87921861.91708      -155.779          50.100    21835325.352    86804208.34508      -153.776          53.500
E12  26133819.083   137334163.03846     -2535.715          39.750    26133824.659   102554748.58707     -1893.662          42.950    26133818.915   111472536.25807     -2058.281          44.800    26133820.309   105230085.96707     -1943.064          42.400    26133821.903   103892414.08107     -1918.259          46.100
E16  25750563.373   135320142.90048     -2481.023          49.800    25750570.766   101050799.04607     -1852.737          46.850    25750565.101   109837790.02108     -2013.848          48.100    25750566.997   103686875.48807     -1901.069          47.000    25750568.877   102368834.57508     -1876.897          50.200
E25  23283233.372   122354226.84148      -451.704          48.800    23283239.935    91368454.33308      -337.284          53.000    23283234.430    99313504.57209      -366.636          56.300    23283235.924    93751961.09508      -346.093          53.250    23283238.055    92560201.52409      -341.699          56.400
E36  25050246.915   131640000.82448      2282.221          48.050    25050255.206    98302655.06008      1704.256          49.100    25050249.625   106850665.16808      1852.499          51.750    25050251.234   100867062.63808      1748.734          49.600    25050253.468    99584863.65908      1726.506          52.550
C06  39962138.915   210002473.44705      -731.262          34.750    39962138.884   208093371.86505      -725.441          35.200    39962146.343   156820064.71407      -546.430          44.600    39962142.708   169092911.43306      -589.242          41.600
C09                                                                  38835084.517   202224543.00006        37.602          40.800                                                                    38835088.181   164324046.40806        30.565          41.900    38835089.190   156372879.73907        29.199          42.450
C12  26419395.577   138834856.95905      -844.372          33.900    26419396.700   137572715.31005      -836.033          35.700    26419421.609   103675493.95207      -630.284          43.100    26419399.940   111789143.99006      -679.547          39.500
C19  26022254.718   136747864.87206       459.290          36.850    26022255.100   135504744.93806       455.240          39.100    26022262.263   102117003.31507       342.927          45.050    26022253.871   110108742.73106       369.661          39.750
C22  25561242.337   134325299.38306      2554.448          37.350    25561243.109   133104155.43206      2531.069          41.600    25561249.857   100307906.37007      1907.441          44.200    25561244.012   108158064.34206      2056.698          40.500
C23  27166529.513   142761067.81505      3030.775          35.900    27166530.983   141463256.38106      3002.971          37.050    27166531.945   106607303.29806      2263.281          40.150    27166527.804   114950462.18806      2440.286          39.750
C24  22876376.291   120216170.52607     -2120.559          47.750    22876376.870   119123296.77908     -2101.214          48.350    22876378.874    89771817.80908     -1583.520          52.550    22876377.317    96797429.93608     -1707.440          50.300
C25  23216665.921   122004419.26607      1242.291          45.450    23216666.889   120895293.85707      1231.119          46.300    23216669.732    91107217.30308       927.752          48.950    23216667.953    98237339.76708      1000.371          48.400
C26  25866458.167   135929084.79106     -3479.422          40.350    25866458.428   134693368.76606     -3448.358          40.350    25866470.720   101505487.57007     -2598.567          42.050    25866466.196   109449392.05306     -2801.990          39.000
C31  21608683.793   113554448.46607      -992.928          46.650    21608685.268   112522144.23707      -983.804          46.850    21608689.751    84797201.13608      -741.410          53.650    21608686.897    91433479.80308      -799.454          52.200
C34  22469685.139   118079048.11907      1696.896          45.650    22469685.139   117005602.27407      1681.668          45.700    22469690.375    88175974.77908      1267.232          50.500    22469688.389    95076670.93708      1366.429          49.650
C35  25025242.752   131508526.37106     -2654.421          41.150    25025242.897   130312998.79406     -2630.391          37.350    25025249.339    98204438.25507     -1982.101          42.300    25025246.471   105889991.62507     -2137.272          43.650
S21  37770887.826                           5.457          45.550
S36  37795126.101   198614717.52007         1.453          46.750
> 2026 04 30 10 11 30.0000000  0 41
G02  24085019.452   126567635.26506      3301.871          41.800    24085021.227    98624149.64906      2572.885          39.000
G07  24966346.773   131199029.57006      1581.911          40.700    24966347.308   102233014.45306      1232.659          40.500
G08  22383032.107   117623675.61207      2658.292          43.900    22383034.671    91654829.17507      2071.398          44.100    22383036.593    87835890.64008      1985.143          49.500
G10  22803775.598   119834740.05408      2661.263          48.950    22803779.304    93377772.90508      2073.716          49.000    22803780.453    89487053.40308      1987.309          50.550
G15  25223467.645   132550217.77316      1306.402          36.150    25223471.223   103285891.53815      1017.980          35.750
G16  20127080.796   105768543.31807      -827.895          47.300    20127078.577    82417043.51507      -645.113          47.200
G18  22610451.780   118818753.35107     -2797.576          42.750    22610452.149    92586053.07807     -2179.931          42.900    22610458.645    88728337.47408     -2089.051          49.950
G23  21803035.389   114575809.33707       738.876          47.600    21803036.240    89279905.20607       575.747          45.750    21803042.052    85559941.72608       551.746          50.800
G26  21783540.287   114473284.89308     -2774.827          48.550    21783543.390    89199971.63908     -2162.206          48.450    21783545.201    85483312.51608     -2072.137          52.750
G27  20465856.050   107548858.01608      1214.715          48.750    20465857.105    83804334.77908       946.531          48.850    20465858.885    80312500.15409       907.227          55.200
G31  25453251.718   133757600.31806     -3458.199          41.800    25453257.733   104226673.02806     -2694.707          41.750
R07  23376879.749   125138310.04006       452.539          39.300    23376884.520    97329826.50807       351.976          42.100    23376884.514    97329818.50907       351.976          42.700
R08  23719583.985   127017300.70106      3047.875          39.000    23719590.627    98791291.71606      2370.572          37.550    23719590.558    98791288.71006      2370.571          38.000
R13  21046947.733   112389498.99706     -3691.107          41.750
R14  19573170.127   104336046.25707       633.710          47.950    19573175.398    81150275.40908       492.885          49.300    19573175.371    81150274.41208       492.886          49.950
R15  22696420.215   121282789.94707      3870.447          43.750    22696426.345    94331082.64407      3010.350          45.600    22696426.402    94331085.64807      3010.350          45.900
R17  23190210.528   124095508.51406      3316.895          41.150    23190217.800    96518750.82607      2579.812          42.700    23190217.896    96518752.83107      2579.813          43.100
R22  24613677.036   131389476.39105     -3664.362          31.950    24613685.668   102191846.33305     -2850.054          33.650    24613685.501   102191846.32205     -2850.054          33.950
R23  21288271.205   113877905.16706     -3047.655          41.500
R24  19743443.698   105577208.57908       932.479          49.000    19743446.927    82115590.97108       725.262          49.600    19743446.971    82115596.97208       725.262          50.100
E02  25114341.631   131976772.59248      2117.285          49.200    25114347.216    98554114.73608      1581.126          49.400    25114343.596   107124017.71108      1718.631          51.050    25114342.788   101125072.41308      1622.363          48.050    25114344.877    99839583.88508      1601.755          51.750
E10  24576489.804   129150361.75448     -1680.926          49.100    24576495.711    96443494.90308     -1255.246          52.250    24576492.603   104829859.71808     -1364.383          53.850    24576491.619    98959392.29408     -1288.033          51.750    24576493.494    97701443.90709     -1271.610          54.900
E11  21836519.001   114751727.28047      -215.271          46.950    21836520.904    85691255.90008      -160.781          50.400    21836516.705    93142649.71908      -174.750          53.000    21836516.894    87926667.84008      -164.961          50.150    21836518.906    86808953.18108      -162.902          53.200
E12  26148306.992   137410296.15546     -2540.474          37.250    26148311.817   102611601.15207     -1896.975          42.950    26148306.857   111534332.51407     -2061.827          45.950    26148307.671   105288421.62806     -1946.209          41.850    26148309.603   103950008.19907     -1921.644          45.550
E16  25764744.239   135394665.08648     -2487.439          49.850    25764752.488   101106448.54307     -1857.494          47.850    25764746.444   109898278.68408     -2019.038          49.900    25764748.011   103743976.75908     -1905.963          48.000    25764750.217   102425209.96308     -1881.734          50.700
E25  23285842.199   122367936.54948      -462.650          49.150    23285848.895    91378692.07508      -345.519          53.250    23285843.298    99324632.56309      -375.549          56.400    23285844.819    93762465.91608      -354.512          53.350    23285846.944    92570572.80409      -350.026          56.150
E36  25037241.185   131571654.61948      2273.690          48.650    25037249.366    98251617.35208      1697.914          49.550    25037243.674   106795189.38808      1845.530          51.750    25037245.172   100814693.51308      1742.132          49.650    25037247.567    99533160.24208      1720.017          52.400
C06  39966328.696   210024494.26505      -736.498          34.100    39966329.918   208115192.36406      -730.205          37.650    39966337.102   156836508.67707      -550.173          44.750    39966333.537   169110642.31206      -593.087          41.700
C09                                                                  38834883.211   202223495.74806        31.831          40.600                                                                    38834887.159   164323195.41507        25.766          42.000    38834888.021   156372069.92807        24.534          42.900
C12  26424257.394   138860404.12605      -859.438          35.050    26424258.258   137598030.24105      -851.408          35.650    26424283.135   103694571.38007      -641.864          43.000    26424261.434   111809714.42806      -692.117          39.800
C19  26019677.929   136734321.99106       443.254          37.300    26019678.550   135491325.16406       439.370          38.550    26019685.244   102106890.14107       330.965          45.100    26019676.973   110097838.07406       356.829          40.050
C22  25546676.739   134248758.97206      2547.794          39.850    25546677.816   133028310.88406      2524.493          39.850    25546684.713   100250749.89407      1902.534          43.550    25546678.756   108096434.63007      2051.674          42.850
C23  27149242.749   142670224.94206      3025.317          37.850    27149244.284   141373239.33906      2997.540          38.850    27149245.150   106539466.04407      2259.037          42.850    27149240.973   114877315.91306      2435.851          41.850
C24  22888517.283   120279971.37208     -2133.475          48.250    22888517.843   119186517.61008     -2113.964          48.350    22888519.901    89819461.21408     -1593.030          52.450    22888518.176    96848801.98708     -1717.681          50.550
C25  23209616.217   121967372.70107      1227.018          45.700    23209617.100   120858584.09707      1215.863          46.200    23209620.026    91079552.66508       916.295          49.150    23209618.312    98207510.07508       987.994          48.800
C26  25886325.392   136033487.11406     -3480.891          40.550    25886325.774   134796821.94406     -3449.223          41.900    25886337.721   101583449.94406     -2599.301          40.600    25886333.304   109533455.97406     -2802.711          41.300
C31  21614372.970   113584345.08007     -1000.579          46.950    21614374.404   112551769.07607      -991.728          47.000    21614378.918    84819526.51008      -747.234          53.800    21614376.045    91457552.38708      -805.683          52.500
C34  22460017.492   118028244.37707      1689.384          46.050    22460017.571   116955260.38407      1673.996          46.150    22460022.707    88138036.94408      1261.683          50.650    22460020.754    95035764.03908      1360.450          49.950
C35  25040398.322   131588172.02706     -2655.568          38.500    25040399.009   130391920.47006     -2631.549          41.000    25040405.697    98263913.82507     -1983.143          43.800    25040403.255   105954121.80907     -2138.418          43.850
S21  37770855.645                           5.383          45.950
S36  37795116.701   198614668.35607         1.686          47.200
> 2026 04 30 10 12  0.0000000  0 41
G02  24066188.021   126468676.08506      3295.244          41.150    24066189.804    98547038.66906      2567.722          39.750
G07  24957356.764   131151788.89706      1567.470          37.800    24957357.873   102196203.58806      1221.408          38.100
G08  22367871.086   117544004.15307      2652.932          43.450    22367873.758    91592747.56107      2067.221          43.300    22367875.496    87776395.77408      1981.137          49.550
G10  22788614.317   119755067.17807      2650.286          47.650    22788617.888    93315690.21207      2065.161          47.750    22788618.769    89427557.51908      1978.975          49.850
G15  25216053.996   132511258.58305      1290.096          34.550    25216057.911   103255533.84805      1005.274          34.650
G16  20131859.022   105793652.43507      -846.229          47.150    20131856.701    82436609.03807      -659.400          47.400
G18  22626442.587   118902786.42307     -2804.697          42.200    22626442.977    92651533.31206     -2185.482          41.650    22626449.733    88791089.36208     -2094.526          49.900
G23  21798872.212   114553932.00107       719.633          46.750    21798873.117    89262857.96707       560.755          45.450    21798878.808    85543604.79008       537.298          50.550
G26  21799414.652   114556704.51008     -2786.428          48.300    21799417.719    89264973.85008     -2171.245          48.300    21799419.458    85545606.29008     -2080.873          52.700
G27  20458951.542   107512574.58008      1203.893          48.600    20458952.607    83776061.97808       938.099          48.400    20458954.340    80285405.39809       899.020          55.250
G31  25472981.535   133861280.01806     -3454.019          38.400    25472987.967   104307462.14606     -2691.449          39.200
R07  23374412.001   125125096.85706       428.054          38.250    23374416.317    97319549.64406       332.936          40.950    23374416.481    97319541.64406       332.936          41.600
R08  23702540.918   126926039.55106      3036.197          37.900    23702548.098    98720311.07606      2361.495          40.150    23702548.083    98720308.07006      2361.494          40.750
R13  21067726.363   112500455.81306     -3706.094          41.550
R14  19569677.362   104317427.59907       607.417          47.900    19569682.632    81135794.21808       472.435          49.250    19569682.609    81135793.22108       472.435          49.900
R15  22674719.820   121166830.24007      3859.999          43.050    22674725.853    94240891.79907      3002.222          44.350    22674725.938    94240894.80207      3002.222          44.900
R17  23171634.007   123996101.04907      3309.947          42.750    23171640.943    96441433.96607      2574.402          42.250    23171641.010    96441435.97107      2574.402          42.600
R22  24634261.575                       -3661.386          29.150    24634267.770                       -2847.745          31.050    24634269.612                       -2847.745          32.750
R23  21305377.649   113969414.49406     -3053.204          41.100
R24  19738256.082   105549468.26608       916.890          48.900    19738259.353    82094015.18008       713.137          49.500    19738259.420    82094021.18408       713.137          49.950
E02  25102270.473   131913338.38548      2111.422          48.700    25102275.930    98506745.05708      1576.724          49.250    25102272.384   107072528.92108      1713.877          50.900    25102271.478   101076466.99607      1617.896          47.950    25102273.701    99791596.33508      1597.317          51.750
E10  24586111.240   129200922.78748     -1689.820          48.350    24586117.201    96481251.48308     -1261.876          52.100    24586114.046   104870899.49608     -1371.637          53.400    24586113.118    98998133.82908     -1294.788          51.700    24586114.965    97739692.96409     -1278.315          54.850
E11  21837782.426   114758366.40447      -227.349          46.600    21837784.267    85696213.67908      -169.773          50.500    21837780.061    93148038.61008      -184.545          52.800    21837780.271    87931754.95308      -174.180          50.150    21837782.290    86813975.62608      -172.016          53.250
E12  26162820.635   137486567.80846     -2544.822          36.550    26162825.734   102668557.17207     -1900.224          43.100    26162821.320   111596241.25107     -2065.489          45.600    26162821.424   105346863.48506     -1949.823          41.750    26162823.694   104007707.13507     -1924.995          45.550
E16  25778963.320   135469385.01348     -2493.908          49.200    25778971.589   101162245.73207     -1862.330          47.750    25778965.872   109958927.86508     -2024.305          49.750    25778967.482   103801229.54707     -1910.947          47.900    25778969.168   102481734.95208     -1886.656          50.700
E25  23288515.186   122381983.11548      -473.864          49.050    23288521.974    91389181.36408      -353.825          53.200    23288516.262    99336033.97509      -384.584          56.200    23288517.833    93773228.84208      -363.052          53.350    23288519.940    92581198.91309      -358.467          56.200
E36  25024285.813   131503573.34848      2264.977          48.200    25024294.020    98200777.50408      1691.321          49.550    25024288.127   106739928.65408      1838.459          51.650    25024289.610   100762527.38808      1735.477          49.700    25024292.050    99481657.25408      1713.417          52.550
C06  39970548.335   210046669.17405      -741.806          35.350    39970550.252   208137165.64206      -735.335          38.250    39970557.013   156853067.76707      -553.920          44.600    39970553.412   169128497.35906      -597.200          41.150
C09                                                                  38834718.630   202222637.51806        25.212          37.950                                                                    38834722.445   164322498.02606        20.563          41.600    38834723.125   156371406.30207        19.656          42.900
C12  26429208.516   138886421.02605      -874.722          34.050    26429208.905   137623810.65105      -867.026          34.700    26429234.016   103713999.58907      -653.479          42.550    26429212.198   111830663.10006      -704.458          39.300
C19  26017193.865   136721266.46306       427.221          38.050    26017194.305   135478388.36606       422.987          37.350    26017200.868   102097140.93107       318.909          44.500    26017192.800   110087325.90606       343.834          39.400
C22  25532149.868   134172420.61806      2541.168          40.250    25532150.370   132952666.49006      2518.249          39.600    25532157.598   100193744.21007      1897.690          43.400    25532152.518   108034967.57807      2046.146          43.050
C23  27131988.094   142579551.24705      3019.624          35.450    27131989.746   141283389.93306      2992.162          36.900    27131990.605   106471755.11706      2254.987          41.200    27131986.267   114804305.88406      2431.449          40.850
C24  22900732.458   120344161.89308     -2146.150          48.150    22900732.855   119250124.58808     -2126.532          48.300    22900734.890    89867395.62708     -1602.689          52.100    22900733.280    96900487.81808     -1728.123          50.700
C25  23202655.877   121930795.72607      1211.388          45.650    23202656.703   120822339.63107      1200.346          46.500    23202659.588    91052238.68808       904.621          49.100    23202657.885    98178058.48208       975.433          48.750
C26  25906199.725   136137925.18106     -3481.745          41.200    25906200.131   134900310.53706     -3450.269          41.650    25906211.861   101661439.08607     -2600.119          42.600    25906208.060   109617548.62807     -2803.511          42.900
C31  21620107.765   113614481.48507     -1008.626          46.550    21620109.200   112581631.50207      -999.398          47.100    21620113.686    84842030.93708      -753.119          53.750    21620110.820    91481818.04208      -812.072          52.450
C34  22450393.428   117977669.84507      1682.004          45.750    22450393.665   116905145.63007      1666.591          45.950    22450398.667    88100270.28108      1256.016          50.750    22450396.723    94995041.71308      1354.364          49.950
C35  25055562.848   131667861.45706     -2656.926          40.300    25055564.295   130470885.26707     -2632.939          42.000    25055570.925    98323421.92907     -1984.237          44.900    25055567.353   106018287.13606     -2139.320          41.550
S21  37770824.044                           5.438          45.700
S36  37795107.028   198614616.72607         1.571          47.100
> 2026 04 30 10 12 30.0000000  0 41
G02  24047393.884   126369912.03206      3288.763          41.550    24047395.439    98470079.74706      2562.675          40.650
G07  24948449.573   131104984.88806      1552.835          38.200    24948451.334   102159732.99306      1210.001          38.400
G08  22352740.754   117464493.81807      2647.784          44.150    22352743.453    91530791.49707      2063.209          43.950    22352745.027    87717021.21908      1977.213          49.400
G10  22773516.833   119675730.27407      2638.951          47.550    22773520.650    93253869.34107      2056.327          47.650    22773521.230    89368312.53508      1970.690          49.950
G15  25208730.129   132472772.77705      1275.087          33.150    25208733.842   103225544.98605       993.573          34.350
G16  20136741.068   105819307.32907      -864.184          47.300    20136738.679    82456599.84007      -673.391          47.100
G18  22642475.315   118987039.19907     -2812.005          42.400    22642475.923    92717184.74607     -2191.175          42.400    22642482.685    88854005.27908     -2099.852          49.950
G23  21794819.394   114532634.52707       700.291          47.400    21794820.117    89246262.55707       545.681          45.300    21794825.924    85527700.84908       522.969          50.600
G26  21815355.745   114640474.90408     -2798.073          48.250    21815358.779    89330249.39208     -2180.320          48.100    21815360.503    85608161.99908     -2089.496          52.700
G27  20452109.422   107476618.94008      1193.173          48.650    20452110.478    83748044.59808       929.745          48.300    20452112.177    80258555.40609       890.984          55.250
G31  25492687.311   133964835.25206     -3449.685          41.350    25492694.331   104388154.10506     -2688.077          41.350
R07  23372081.035   125112616.91406       403.780          40.650    23372085.130    97309843.04507       314.051          43.150    23372085.263    97309835.04507       314.052          43.750
R08  23685564.439   126835131.58506      3024.514          41.200    23685571.846    98649605.12806      2352.408          40.400    23685571.770    98649602.11506      2352.407          40.200
R13  21088589.145   112611861.46106     -3720.870          41.550
R14  19566333.076   104299600.51407       581.136          47.650    19566338.393    81121928.69008       451.995          49.250    19566338.346    81121927.69408       451.995          49.950
R15  22653077.962   121051182.09007      3849.913          43.800    22653083.777    94150943.27407      2994.377          44.950    22653083.754    94150946.27607      2994.377          45.600
R17  23153097.137   123896906.59006      3302.831          41.250    23153104.176    96364282.84207      2568.875          44.250    23153104.264    96364284.84307      2568.874          44.900
R22  24654822.235   131609099.77215     -3657.273          30.350    24654830.722   102362677.89815     -2844.549          34.700    24654830.760   102362672.89015     -2844.552          35.100
R23  21322515.882   114061092.88406     -3058.576          41.900
R24  19733155.838   105522195.29008       901.428          48.850    19733159.200    82072802.87408       701.110          49.550    19733159.260    82072808.87508       701.110          50.000
E02  25090233.018   131850081.02548      2105.636          48.950    25090238.454    98459507.43308      1572.421          49.200    25090234.935   107021183.67208      1709.154          51.300    25090234.103   101027997.08308      1613.436          48.250    25090236.177    99743742.56708      1592.929          51.850
E10  24595783.422   129251750.39648     -1698.582          48.950    24595789.400    96519207.12108     -1268.494          52.050    24595786.209   104912155.63308     -1378.745          53.600    24595785.335    99037079.61508     -1301.528          51.850    24595787.167    97778143.67909     -1285.044          54.950
E11  21839115.200   114765370.22147      -239.307          46.450    21839117.015    85701443.80708      -178.753          50.300    21839112.827    93153723.53008      -194.280          52.900    21839113.050    87937121.51908      -183.413          50.250    21839115.074    86819273.97008      -181.063          53.300
E12  26177360.871   137562975.07946     -2549.114          39.600    26177366.021   102725614.48707     -1903.532          43.950    26177360.858   111658260.14007     -2068.959          43.800    26177361.672   105405409.27507     -1953.229          43.100    26177363.594   104065508.69107     -1928.431          46.600
E16  25793219.541   135544300.61448     -2500.329          48.050    25793227.273   101218189.08407     -1867.166          46.250    25793221.774   110019735.89507     -2029.511          47.600    25793223.670   103858632.27807     -1915.898          47.000    25793225.169   102538407.99308     -1891.530          49.750
E25  23291252.156   122396365.61048      -484.940          49.250    23291258.946    91399921.51308      -362.112          53.200    23291253.183    99347708.06409      -393.638          56.300    23291254.783    93784249.17508      -371.585          53.550    23291256.862    92592079.15209      -366.837          56.300
E36  25011380.652   131435756.38248      2256.311          48.250    25011388.898    98150135.01808      1684.894          49.600    25011382.968   106684882.45608      1831.387          51.750    25011384.476   100710563.79208      1728.829          49.850    25011386.835    99430354.21008      1706.874          52.700
C06  39974797.473   210068996.34805      -746.550          33.850    39974799.590   208159289.84406      -740.023          38.000    39974805.536   156869740.60007      -557.582          44.600    39974801.882   169146475.06206      -601.378          41.400
C09                                                                  38834589.664   202221966.72006        19.490          41.100                                                                    38834593.808   164321952.95607        15.779          42.700    38834594.166   156370887.57807        15.018          42.200
C12  26434248.571   138912905.74305      -891.087          33.750    26434248.688   137650054.57705      -882.078          32.600    26434273.886   103733777.10607      -664.960          42.600    26434251.927   111851988.44406      -717.058          38.300
C19  26014802.172   136708697.94305       410.983          34.200    26014802.699   135465934.10406       407.256          39.400    26014809.062   102087755.33407       306.971          44.550    26014801.103   110077205.73606       330.635          40.800
C22  25517662.056   134096285.66906      2534.570          38.950    25517662.513   132877223.65607      2511.478          43.000    25517669.029   100136890.34007      1892.710          42.850    25517664.290   107973664.29606      2040.602          39.900
C23  27114765.874   142489047.64006      3013.882          36.750    27114767.577   141193709.06406      2986.569          37.550    27114768.427   106404171.20907      2250.685          42.850    27114763.967   114731432.83207      2426.876          42.200
C24  22913021.161   120408739.07008     -2158.829          48.050    22913021.528   119314114.70708     -2139.182          48.300    22913023.403    89915618.76708     -1612.189          51.950    22913022.093    96952484.96408     -1738.365          50.800
C25  23195784.887   121894688.17307      1195.719          45.800    23195785.656   120786560.33107      1184.958          46.100    23195788.554    91025275.25508       892.992          49.000    23195786.845    98148984.86508       962.857          48.800
C26  25926080.067   136242395.66406     -3482.785          40.000    25926080.317   135003831.29806     -3451.171          41.800    25926092.698   101739452.30907     -2600.884          42.400    25926088.044   109701667.46106     -2804.173          39.600
C31  21625887.776   113644855.47207     -1016.284          46.600    21625889.235   112611729.35907     -1006.971          47.050    21625893.691    84864712.79408      -758.964          53.700    21625890.811    91506275.00008      -818.332          52.400
C34  22440812.765   117927323.29307      1674.481          46.150    22440813.141   116855256.76807      1659.304          46.050    22440818.011    88062673.85408      1250.428          50.750    22440816.074    94954502.95208      1348.296          50.000
C35  25070735.745   131747592.34706     -2658.323          41.650    25070735.605   130549891.35806     -2634.133          37.750    25070743.281    98382961.11907     -1985.153          43.250    25070739.332   106082486.02306     -2140.474          41.900
S21  37770792.163                           5.689          45.600
S36  37795098.708   198614571.73407         1.345          47.100
> 2026 04 30 10 13  0.0000000  0 40
G02  24028636.294   126271340.93106      3282.744          39.250    24028637.791    98393271.15306      2557.986          38.250
G07  24939625.893   131058615.91806      1538.181          39.700    24939627.269   102123601.36806      1198.583          39.700
G08  22337640.653   117385142.13607      2642.619          43.750    22337643.381    91468959.06307      2059.185          43.400    22337644.794    87657765.13808      1973.396          49.700
G10  22758483.247   119596728.75908      2627.931          48.350    22758487.122    93192309.83408      2047.743          48.250    22758487.900    89309318.00608      1962.486          50.550
G15  25201496.507   132434759.49805      1259.983          33.550    25201500.391   103195924.31205       981.803          34.150
G16  20141726.052   105845503.53007      -882.208          47.050    20141723.662    82477012.44107      -687.436          46.900
G18  22658548.860   119071506.21507     -2818.974          42.800    22658549.659    92783003.14807     -2196.611          42.750    22658556.285    88917081.22008     -2105.038          49.950
G23  21790876.513   114511914.57207       681.292          46.650    21790877.145    89230117.16607       530.877          45.100    21790882.887    85512228.18708       508.703          50.650
G26  21831362.554   114724590.86908     -2809.453          48.100    21831365.624    89395794.21508     -2189.188          48.600    21831367.396    85670975.76208     -2097.921          52.850
G27  20445329.196   107440988.39508      1182.442          48.700    20445330.216    83720280.54108       921.384          48.850    20445331.893    80231948.18109       883.028          55.550
G31  25512368.977   134068260.19006     -3445.182          40.800    25512375.219   104468744.77006     -2684.565          40.700
R07  23369886.540   125100868.17106       379.752          41.200    23369890.549    97300705.18307       295.364          42.900    23369890.651    97300697.18107       295.364          43.300
R08  23668654.331   126744578.06806      3012.815          37.150    23668661.420    98579174.79406      2343.306          37.550    23668661.365    98579171.80106      2343.306          38.600
R13  21109534.661   112723709.32606     -3735.308          41.500
R14  19563136.887   104282562.97308       555.002          48.150    19563142.189    81108677.25208       431.668          49.050    19563142.141    81108676.25508       431.667          49.700
R15  22631494.318   120935846.79307      3839.411          43.950    22631500.568    94061238.14707      2986.210          44.650    22631500.539    94061241.15207      2986.210          45.000
R17  23134599.404   123797922.33207      3296.163          42.650    23134606.607    96287295.20907      2563.687          43.000    23134606.731    96287297.21207      2563.688          43.650
R23  21339684.590   114152934.31407     -3063.823          43.000
R24  19728142.346   105495385.77708       886.085          49.000    19728145.704    82051951.03708       689.177          49.400    19728145.770    82051957.03908       689.178          49.950
E02  25078228.808   131786998.58248      2100.009          48.450    25078234.271    98412400.43508      1568.240          49.250    25078230.769   106969980.40408      1704.604          51.550    25078229.876   100979661.20408      1609.083          48.100    25078231.950    99696021.13308      1588.633          51.650
E10  24605505.469   129302839.71948     -1707.220          48.550    24605511.401    96557358.19608     -1274.769          52.100    24605508.190   104953624.21108     -1385.651          53.550    24605507.342    99076225.94308     -1308.009          51.700    24605509.171    97816792.37909     -1291.384          54.800
E11  21840516.595   114772734.70647      -251.077          46.350    21840518.412    85706943.26008      -187.578          50.450    21840514.229    93159701.19508      -203.871          53.000    21840514.472    87942764.43308      -192.389          50.250    21840516.496    86824845.15708      -190.012          53.250
E12  26191925.843   137639513.15346     -2553.224          36.200    26191930.999   102782769.43607     -1906.733          43.200    26191925.245   111720385.12607     -2072.418          45.200    26191926.846   105464055.21207     -1956.357          42.250    26191928.356   104123409.13807     -1931.605          45.750
E16  25807511.775   135619407.95647     -2506.528          47.700    25807519.531   101274275.55207     -1871.812          47.750    25807513.741   110080699.52908     -2034.536          48.750    25807515.751   103916181.90107     -1920.623          46.700    25807517.616   102595226.03508     -1896.226          50.150
E25  23294052.515   122411081.10148      -495.833          49.000    23294059.264    91410910.32808      -370.270          53.400    23294053.471    99359652.43509      -402.497          56.350    23294055.117    93795524.65408      -379.966          53.550    23294057.149    92603211.29809      -375.113          56.300
E36  24998525.325   131368201.13548      2247.762          48.200    24998533.538    98099687.97408      1678.503          49.800    24998527.558   106630048.69108      1824.451          51.800    24998529.146   100658800.73008      1722.271          49.950    24998531.441    99379249.16408      1700.353          52.750
C06  39979075.099   210091472.02606      -751.648          37.600    39979076.888   208181561.16906      -744.945          37.250    39979082.208   156886524.32707      -561.199          43.300    39979078.468   169164572.28906      -604.907          39.300
C09                                                                  38834496.189   202221479.98006        13.231          41.350                                                                    38834500.313   164321557.41007        10.873          42.100    38834500.706   156370511.17207        10.285          42.500
C12  26439376.821   138939854.19205      -905.583          33.150    26439376.663   137676758.03605      -897.344          32.850    26439402.080   103753900.92907      -676.433          42.700    26439379.955   111873687.18306      -729.188          37.750
C19  26012502.480   136696613.71205       394.819          33.650    26012503.373   135453959.74206       391.348          39.200    26012509.117   102078731.42407       294.942          44.700    26012501.780   110067475.58706       318.112          41.100
C22  25503212.543   134020353.30706      2527.894          37.800    25503213.378   132801981.67506      2504.968          41.650    25503219.319   100080187.90007      1887.710          44.050    25503213.894   107912524.11206      2035.583          40.250
C23  27097575.884   142398712.71305      3008.643          34.000    27097577.409   141104195.40405      2981.016          35.150    27097578.295   106336713.30106      2246.653          41.900    27097573.871   114658695.62906      2422.373          40.700
C24  22925382.440   120473697.80807     -2171.379          47.600    22925382.866   119378482.91308     -2151.849          48.350    22925384.609    89964126.83408     -1621.536          52.200    22925383.518    97004789.33008     -1748.415          50.550
C25  23189002.798   121859047.94607      1180.351          45.450    23189003.638   120751244.11007      1169.606          46.350    23189006.375    90998660.80708       881.423          49.200    23189004.703    98120287.54808       950.347          48.600
C26  25945965.494   136346893.16406     -3483.159          40.850    25945965.968   135107378.78007     -3451.865          42.950    25945978.099   101817485.77806     -2601.328          40.350    25945973.235   109785808.02806     -2804.929          41.900
C31  21631712.216   113675462.91207     -1024.007          46.250    21631713.703   112642058.54007     -1014.578          46.950    21631718.094    84887568.96708      -764.635          53.850    21631715.236    91530919.93308      -824.482          52.150
C34  22431274.899   117877201.43307      1667.246          45.900    22431275.317   116805590.57507      1651.986          45.950    22431280.116    88025245.22108      1244.950          50.850    22431278.199    94914145.11708      1342.422          49.750
C35  25085914.681   131827360.88406     -2659.367          36.550    25085915.189   130628934.84506     -2635.117          41.350    25085921.817    98442528.47106     -1985.793          41.950    25085919.394   106146715.15407     -2141.258          43.550
S21  37770759.970                           5.712          45.300
S36  37795090.115   198614528.88707         1.870          46.800
> 2026 04 30 10 13 30.0000000  0 40
G02  24009916.219   126172967.59406      3276.012          40.400    24009917.915    98316616.69706      2552.739          40.000
G07  24930886.263   131012686.94606      1523.752          41.750    24930886.815   102087812.55506      1187.340          41.100
G08  22322571.475   117305953.40607      2636.810          43.300    22322574.331    91407253.60207      2054.658          43.350    22322575.529    87598630.73408      1969.152          49.800
G10  22743514.633   119518068.82107      2616.296          47.500    22743518.382    93131016.45107      2038.674          47.600    22743519.439    89250578.54208      1953.781          50.300
G15  25194353.942   132397224.46305      1243.064          34.100    25194357.764   103166676.33005       968.624          34.850
G16  20146814.708   105872244.53607      -900.379          46.750    20146812.322    82497849.56207      -701.595          46.950
G18  22674663.638   119156188.85607     -2826.152          44.300    22674664.170    92848989.54807     -2202.203          43.000    22674670.923    88980318.19308     -2110.459          50.400
G23  21787044.410   114491776.60607       661.570          46.350    21787044.952    89214425.25607       515.510          45.750    21787050.697    85497190.11508       494.112          50.650
G26  21847435.424   114809053.93107     -2821.178          47.700    21847438.463    89461609.50207     -2198.324          47.800    21847440.333    85734048.71808     -2106.622          52.650
G27  20438611.634   107405687.06308      1171.202          48.650    20438612.585    83692773.01608       912.625          48.750    20438614.258    80205586.80509       874.643          55.600
G31  25532025.508   134171555.93005     -3441.096          33.250    25532032.083   104549234.67005     -2681.381          33.000
R07  23367829.062   125089854.99206       354.913          40.400    23367833.203    97292139.43507       276.047          42.750    23367833.285    97292131.43507       276.047          43.500
R08  23651811.209   126654386.51106      3000.490          38.550    23651818.374    98509026.06106      2333.724          37.900    23651818.384    98509023.04806      2333.723          38.100
R13  21130563.090   112835999.35506     -3750.248          40.950
R14  19560089.868   104266320.13007       528.239          47.950    19560095.037    81096043.91808       410.852          48.950    19560095.001    81096042.92108       410.853          49.550
R15  22609970.815   120820831.23007      3828.582          43.550    22609976.599    93971781.60407      2977.786          44.600    22609976.558    93971784.60907      2977.786          44.900
R17  23116142.060   123699152.95907      3288.786          43.150    23116148.877    96210474.65907      2557.948          42.550    23116149.063    96210476.66207      2557.948          43.050
R23  21356884.293   114244940.23207     -3069.545          43.950
R24  19723215.962   105469042.36208       870.417          48.750    19723219.361    82031461.72108       676.992          49.250    19723219.457    82031467.72408       676.992          49.850
E02  25066258.813   131724095.90848      2093.817          48.400    25066264.099    98365427.67908      1563.563          49.100    25066260.804   106918923.05508      1699.563          51.500    25066259.844   100931463.06508      1604.336          48.200    25066261.936    99648435.68208      1583.948          51.700
E10  24615277.739   129354192.72348     -1716.160          48.450    24615283.585    96595706.17608     -1281.485          52.050    24615280.375   104995306.81108     -1392.915          53.400    24615279.526    99115574.31108     -1314.925          51.700    24615281.353    97855640.55409     -1298.223          54.900
E11  21841987.101   114780462.45247      -263.413          45.950    21841988.940    85712713.97808      -196.717          50.450    21841984.778    93165973.71908      -213.850          52.900    21841985.013    87948685.69308      -201.870          50.150    21841987.043    86830691.14508      -199.256          53.300
E12  26206515.646   137716183.83546     -2558.023          37.700    26206520.421   102840023.42307     -1910.122          42.800    26206515.694   111782617.73307     -2076.177          45.700    26206516.355   105522802.80206     -1959.949          41.600    26206518.381   104181409.91307     -1934.939          45.400
E16  25821841.317   135694709.64448     -2513.271          48.700    25821849.641   101330507.16108     -1876.773          48.200    25821843.652   110141820.90708     -2039.945          49.600    25821845.143   103973880.44207     -1925.666          47.300    25821847.245   102652191.10908     -1901.192          50.650
E25  23296916.969   122426133.42048      -507.333          48.750    23296923.639    91422150.67008      -378.854          53.350    23296917.846    99371870.20409      -411.770          56.250    23296919.554    93807058.22108      -388.696          53.600    23296921.528    92614598.25409      -383.774          56.350
E36  24985720.679   131300911.80748      2238.655          48.200    24985728.747    98049439.50108      1671.722          49.800    24985722.761   106575430.76208      1817.078          51.800    24985724.428   100607241.42308      1715.296          50.000    24985726.653    99328345.27008      1693.528          52.800
C06  39983381.646   210114099.15406      -756.703          37.950    39983382.446   208203982.55805      -749.127          35.700    39983387.572   156903421.16407      -564.979          42.850    39983383.661   169182791.52506      -609.207          39.050
C09                                                                  38834439.062   202221180.36206         6.646          40.700                                                                    38834442.990   164321313.94007         5.486          42.000    38834443.026   156370279.46207         5.391          42.450
C12  26444593.604   138967269.20205      -921.642          30.900    26444593.179   137703923.84105      -913.178          31.200    26444618.949   103774373.15107      -688.179          42.450    26444596.806   111895761.58606      -741.975          37.150
C19  26010295.874   136685018.20005       378.092          33.900    26010296.861   135442469.60506       375.118          38.750    26010302.418   102070072.42407       282.585          44.900    26010295.783   110058138.92706       304.647          41.000
C22  25488802.389   133944629.77906      2520.814          37.900    25488802.990   132726946.55106      2497.800          40.700    25488809.776   100023641.35607      1882.316          44.150    25488803.922   107851552.10606      2029.699          40.700
C23  27080418.914   142308552.20905      3002.167          32.500    27080420.232   141014854.52405      2975.023          33.650    27080421.286   106269385.61606      2242.198          41.650    27080416.939   114586098.81706      2417.645          41.050
C24  22937816.668   120539039.81007     -2184.271          47.400    22937817.182   119443230.88208     -2164.545          48.600    22937818.838    90012921.10208     -1631.197          52.200    22937817.755    97057402.30908     -1758.848          50.500
C25  23182310.504   121823879.62807      1164.561          45.300    23182311.382   120716395.50307      1154.025          46.450    23182314.038    90972398.76308       869.520          49.200    23182312.434    98091970.20108       937.746          48.800
C26  25965856.534   136451419.07206     -3484.651          40.950    25965856.859   135210954.47706     -3453.028          41.150    25965868.746   101895540.49306     -2602.038          41.950    25965864.756   109869971.39807     -2805.628          42.200
C31  21637581.563   113706306.40207     -1032.071          45.900    21637583.100   112672621.63807     -1022.625          47.000    21637587.409    84910601.41608      -770.640          53.800    21637584.580    91555754.93008      -830.941          52.300
C34  22421780.484   117827307.81207      1659.264          45.750    22421780.881   116756150.51407      1644.192          46.150    22421785.644    87987986.99808      1239.147          51.000    22421783.747    94873971.03008      1336.138          49.950
C35  25101101.697   131907169.86906     -2660.796          39.800    25101103.104   130708018.16406     -2636.729          40.550    25101109.139    98502125.95607     -1987.087          44.100    25101106.881   106210976.79507     -2142.670          42.150
S21  37770728.326                           5.551          44.950
S36  37795081.041   198614482.18207         1.842          46.650
> 2026 04 30 10 14  0.0000000  0 40
G02  23991233.646   126074790.04506      3269.092          40.350    23991235.532    98240114.77906      2547.345          40.050
G07  24922229.923   130967195.30807      1508.500          42.350    24922229.249   102052364.47406      1175.455          39.000
G08  22307532.762   117226925.00807      2631.227          43.650    22307535.704    91345673.08107      2050.309          43.600    22307536.828    87539616.08408      1964.721          49.950
G10  22728610.828   119439749.63307      2604.470          47.650    22728614.596    93069988.61507      2029.462          47.800    22728615.457    89192093.55308      1944.844          49.900
G15  25187302.008   132360165.92705      1226.609          32.350    25187305.613   103137799.64105       955.804          32.300
G16  20152006.339   105899526.82507      -918.961          46.800    20152003.970    82519108.46107      -716.074          47.100
G18  22690818.288   119241081.55707     -2833.524          42.000    22690818.924    92915139.63107     -2207.947          42.200    22690825.872    89043712.00008     -2116.158          50.900
G23  21783322.574   114472218.11507       641.854          46.850    21783323.100    89199184.89707       500.147          45.550    21783328.803    85482584.77708       479.243          50.800
G26  21863573.316   114893858.76307     -2833.418          47.800    21863576.324    89527691.10407     -2207.861          47.600    21863578.210    85797376.89608     -2115.598          52.550
G27  20431956.158   107370712.08508      1160.055          48.950    20431957.063    83665519.79208       903.939          48.900    20431958.741    80179469.14209       866.136          55.650
G31  25551656.491   134274716.91806     -3436.879          40.150    25551663.519   104629619.40606     -2678.098          39.900
R07  23365908.619   125079575.50706       329.971          40.750    23365912.894    97284144.31407       256.644          43.300    23365913.127    97284136.31407       256.644          44.050
R08  23635036.715   126564558.12906      2987.807          40.900    23635043.598    98439159.71306      2323.857          40.250    23635043.627    98439156.71706      2323.859          41.100
R13  21151672.990   112948724.41006     -3765.342          41.200
R14  19557191.479   104250869.81907       501.256          47.950    19557196.545    81084026.99208       389.865          49.150    19557196.495    81084025.99708       389.865          49.750
R15  22588507.078   120706136.28707      3817.368          43.600    22588513.214    93882574.51407      2969.066          45.250    22588513.072    93882577.51707      2969.066          45.600
R17  23097724.167   123600595.71306      3280.923          41.150    23097730.840    96133819.12507      2551.834          43.300    23097731.030    96133821.13007      2551.834          43.850
R23  21374113.320   114337105.12006     -3075.344          41.550
R24  19718375.893   105443160.87208       854.420          48.950    19718379.350    82011331.68008       664.550          49.400    19718379.471    82011337.68408       664.550          49.950
E02  25054322.640   131661370.97448      2087.420          48.600    25054327.958    98318587.64208      1558.706          49.100    25054324.636   106868009.97208      1694.241          51.800    25054323.750   100883401.11108      1599.435          48.400    25054325.759    99600984.68608      1579.084          51.600
E10  24625099.193   129405804.41648     -1725.243          48.800    24625104.986    96634247.35008     -1288.317          52.150    24625101.797   105037199.41008     -1400.346          53.600    24625100.938    99155120.91308     -1321.946          51.800    24625102.772    97894684.44409     -1305.163          54.750
E11  21843525.953   114788549.15647      -276.033          46.250    21843527.779    85718752.74208      -206.110          50.400    21843523.660    93172537.59508      -224.004          52.900    21843523.855    87954881.99208      -211.472          50.250    21843525.897    86836808.67908      -208.824          53.150
E12  26221130.387   137792982.06646     -2562.416          38.650    26221134.564   102897372.72907     -1913.597          44.150    26221130.155   111844953.94407     -2080.105          43.750    26221130.387   105581648.18107     -1963.374          42.950    26221132.708   104239507.26507     -1938.514          46.200
E16  25836207.268   135770201.50447     -2520.071          47.800    25836215.664   101386880.79707     -1881.870          47.750    25836209.881   110203096.65308     -2045.534          49.200    25836211.581   104031724.72407     -1931.020          47.850    25836213.059   102709300.07508     -1906.474          50.400
E25  23299844.967   122441519.50448      -518.986          49.150    23299851.517    91433640.25308      -387.528          53.400    23299845.737    99384358.89109      -421.248          56.200    23299847.510    93818847.53708      -397.665          53.650    23299849.416    92626237.70309      -392.596          56.300
E36  24972966.122   131233885.65648      2229.297          48.550    24972974.060    97999387.55508      1664.723          49.800    24972968.071   106521026.45608      1809.426          51.950    24972969.772   100555883.76708      1708.202          50.200    24972971.949    99277640.46708      1686.447          52.700
C06  39987716.080   210136873.80806      -762.195          37.750    39987715.608   208226550.23505      -755.308          35.350    39987720.906   156920428.18207      -568.995          42.600    39987716.732   169201129.55706      -613.739          38.450
C09                                                                  38834417.105   202221064.11806          .471          41.300                                                                    38834420.711   164321219.47607          .227          42.600    38834420.655   156370189.58907          .158          42.450
C12  26449898.278   138995153.69915      -938.142          30.500    26449897.605   137731547.84305      -928.737          32.150    26449923.751   103795190.64806      -700.085          41.550    26449901.656   111918208.32306      -754.854          36.900
C19  26008181.621   136673908.60805       361.885          34.700    26008182.707   135431461.07806       358.234          39.200    26008188.424   102061776.32307       270.058          44.950    26008182.145   110049193.56406       291.321          41.000
C22  25474432.361   133869114.31506      2513.228          41.400    25474432.415   132652117.47307      2490.456          42.300    25474439.698    99967250.13807      1876.754          43.650    25474434.204   107790747.58507      2023.594          43.500
C23  27063294.926   142218564.53005      2996.748          34.500    27063296.095   140925684.97505      2968.764          35.150    27063297.242   106202187.04707      2237.348          43.700    27063292.893   114513641.23507      2412.402          42.550
C24  22950322.879   120604759.84707     -2197.315          47.750    22950323.385   119508353.45508     -2177.442          48.300    22950325.114    90061997.67208     -1640.967          52.350    22950323.831    97110319.68608     -1769.394          50.250
C25  23175707.551   121789181.00607      1148.386          45.300    23175708.524   120682012.31907      1137.940          46.350    23175711.175    90946487.46208       857.450          49.200    23175709.526    98064031.06308       924.556          48.900
C26  25985751.672   136555967.96806     -3485.432          39.750    25985752.024   135314552.89607     -3454.140          42.600    25985764.546   101973612.26607     -2603.014          43.300    25985759.747   109954153.35206     -2806.729          38.950
C31  21643495.037   113737381.66807     -1040.096          46.150    21643496.582   112703414.41407     -1030.738          47.150    21643500.835    84933806.96308      -776.805          53.750    21643498.024    91580776.57208      -837.625          52.300
C34  22412328.879   117777638.97607      1651.360          46.050    22412329.133   116706933.21107      1636.394          46.250    22412333.976    87950896.65508      1233.134          51.050    22412332.058    94833977.96308      1329.638          49.950
C35  25116296.345   131987015.01506     -2662.677          39.750    25116296.423   130787137.54506     -2638.031          38.850    25116304.083    98561750.45907     -1988.375          44.050    25116300.253   106275267.66506     -2143.930          41.250
S21  37770697.046                           5.250          45.450
S36  37795071.778   198614431.01007         1.220          46.850
> 2026 04 30 10 14 30.0000000  0 40
G02  23972589.179   125976813.13106      3262.235          40.350    23972590.992    98163769.21406      2542.003          39.350
G07  24913657.623   130922146.26506      1493.952          41.800    24913656.570   102017261.29906      1164.120          40.250
G08  22292525.429   117148061.69707      2625.797          43.850    22292528.419    91284221.19607      2046.078          43.850    22292529.573    87480724.69908      1960.856          50.100
G10  22713773.253   119361777.84008      2593.113          48.950    22713777.199    93009231.45708      2020.610          48.800    22713777.522    89133867.94808      1936.393          50.350
G15  25180341.802   132323590.11405      1211.678          33.250    25180345.561   103109299.09604       944.172          29.650
G16  20157301.576   105927353.84507      -936.778          46.700    20157299.319    82540791.82707      -729.957          46.700
G18  22707013.132   119326186.13207     -2840.509          44.150    22707014.024    92981454.80007     -2213.385          42.900    22707020.773    89107264.01908     -2121.174          50.000
G23  21779711.950   114453243.93207       622.665          46.500    21779712.376    89184399.85507       485.196          45.900    21779718.172    85468415.77808       464.850          50.900
G26  21879776.657   114979007.19008     -2844.137          48.050    21879779.677    89594040.43908     -2216.214          48.250    21879781.514    85860961.67708     -2123.907          52.450
G27  20425363.615   107336067.98108      1148.960          49.150    20425364.499    83638524.39508       895.294          49.200    20425366.182    80153598.54109       858.046          55.750
G31  25571262.505   134377744.13206     -3432.326          40.600    25571269.336   104709900.06806     -2674.552          40.350
R07  23364125.935   125070033.81806       305.658          40.650    23364130.465    97276723.04707       237.735          43.350    23364130.611    97276715.04507       237.734          43.950
R08  23618331.144   126475101.02706      2975.305          36.550    23618338.036    98369582.17906      2314.136          39.800    23618338.040    98369579.18406      2314.136          40.750
R13  21172864.329   113061884.45106     -3779.312          41.600
R14  19554442.636   104236217.39607       474.831          47.950    19554447.829    81072630.65008       369.313          49.350    19554447.776    81072629.65408       369.313          49.950
R15  22567104.924   120591769.74007      3806.504          43.150    22567110.756    93793622.79407      2960.615          44.200    22567110.717    93793625.79907      2960.615          44.550
R17  23079346.929   123502255.45107      3274.105          42.650    23079353.638    96057332.36607      2546.529          43.650    23079353.807    96057334.36607      2546.529          44.400
R23  21391372.473   114429429.96707     -3080.219          43.250
R24  19713622.913   105417744.47708       839.260          49.050    19713626.276    81991563.37808       652.758          49.500    19713626.398    81991569.37908       652.758          50.050
E02  25042421.283   131598829.02548      2081.510          48.800    25042426.606    98271884.24708      1554.361          49.000    25042423.306   106817245.41008      1689.495          51.650    25042422.381   100835479.36108      1594.962          48.650    25042424.389    99553672.11308      1574.666          51.650
E10  24634970.311   129457677.15848     -1733.547          48.800    24634976.083    96672983.45108     -1294.554          52.150    24634972.934   105079303.88108     -1407.134          53.200    24634971.987    99194867.52308     -1328.348          51.950    24634973.858    97933925.79609     -1311.450          54.800
E11  21845133.698   114796997.70547      -287.830          46.500    21845135.489    85725061.73108      -215.014          50.550    21845131.386    93179395.19008      -233.639          52.650    21845131.562    87961355.56208      -220.613          50.400    21845133.608    86843199.95608      -217.801          53.300
E12  26235769.145   137869910.45145     -2566.966          35.300    26235774.164   102954819.10907     -1916.578          44.200    26235768.552   111907395.74007     -2083.287          43.700    26235769.948   105640593.18107     -1966.622          43.150    26235771.731   104297702.95607     -1941.565          46.500
E16  25850609.249   135845886.72947     -2526.215          46.400    25850617.690   101443398.80307     -1886.501          46.750    25850611.796   110264529.33707     -2050.563          47.300    25850614.127   104089717.09107     -1935.674          46.550    25850615.498   102766555.25708     -1911.071          49.550
E25  23302837.353   122457243.57848      -530.036          49.600    23302843.727    91445382.22208      -395.740          53.400    23302837.925    99397121.91309      -430.176          55.850    23302839.765    93830895.82108      -406.092          53.800    23302841.620    92638132.83009      -400.909          56.350
E36  24960262.459   131167127.22548      2220.654          48.450    24960270.267    97949535.53008      1658.212          49.700    24960264.375   106466839.45408      1802.410          51.750    24960266.079   100504731.24908      1701.492          50.400    24960268.206    99227138.19908      1679.847          52.800
C06  39992078.773   210159799.31206      -767.270          36.800    39992077.416   208249267.39605      -759.900          34.000    39992083.153   156937547.85707      -572.756          42.650    39992078.671   169219589.06306      -617.669          38.500
C09                                                                  38834431.203   202221134.86806        -5.638          41.450                                                                    38834434.491   164321276.95407        -4.634          42.100    38834434.115   156370244.26107        -4.350          42.500
C12  26455291.625   139023496.57404      -953.359          29.650    26455291.082   137759633.07005      -943.283          31.300    26455317.118   103816355.80306      -711.418          41.850    26455294.959   111941029.88306      -767.096          36.550
C19  26006160.503   136663289.66905       345.718          32.650    26006162.078   135420938.66006       342.259          39.000    26006167.637   102053846.59607       258.029          44.650    26006161.546   110040643.24106       278.247          41.350
C22  25460103.386   133793813.29606      2506.502          37.950    25460103.604   132577501.05007      2483.379          43.100    25460109.973    99911019.01507      1871.453          42.200    25460105.113   107730115.73306      2018.026          41.950
C23  27046204.824   142128755.46805      2990.852          32.500    27046205.945   140836692.33905      2962.897          33.350    27046207.308   106135121.77007      2233.179          42.450    27046202.675   114441327.39206      2407.861          40.350
C24  22962901.458   120670859.99407     -2209.775          47.900    22962901.843   119573852.70008     -2189.763          48.000    22962903.799    90111358.07908     -1650.237          52.350    22962902.138    97163543.12308     -1779.389          50.000
C25  23169194.903   121754956.99007      1132.632          45.400    23169195.946   120648099.43007      1122.392          46.100    23169198.553    90920930.55308       845.841          49.300    23169196.954    98036474.04908       912.043          48.800
C26  26005651.756   136660541.61806     -3486.369          41.100    26005652.290   135418175.82506     -3454.683          41.550    26005664.670   102051702.55906     -2603.496          40.550    26005659.536   110038355.23006     -2807.135          41.300
C31  21649453.203   113768691.75207     -1047.749          46.400    21649454.738   112734439.84807     -1038.315          46.900    21649458.937    84957187.83608      -782.439          53.750    21649456.137    91605987.25808      -843.637          52.050
C34  22402920.801   117728198.85907      1644.084          46.100    22402920.891   116657942.56207      1629.027          45.950    22402925.844    87913977.10408      1227.702          51.200    22402923.877    94794169.05008      1323.737          49.800
C35  25131497.414   132066899.65906     -2663.516          36.150    25131498.289   130866295.91907     -2639.292          42.000    25131505.677    98621404.42506     -1989.002          41.700    25131501.663   106339590.25407     -2144.743          43.000
S21  37770666.365                           5.112          45.350
S36  37795063.050   198614383.27907         1.468          46.900
> 2026 04 30 10 15  0.0000000  0 40
G02  23953983.022   125879036.86806      3256.038          41.650    23953984.607    98087580.00406      2537.176          39.350
G07  24905169.118   130877539.42106      1479.934          40.100    24905168.416   101982502.70406      1153.195          39.850
G08  22277549.508   117069362.85607      2620.790          43.950    22277552.380    91222897.46607      2042.176          44.000    22277553.745    87421956.13008      1956.976          50.200
G10  22699002.010   119284154.61808      2581.784          49.400    22699005.937    92948745.91408      2011.782          49.150    22699006.392    89075902.66108      1927.877          50.400
G15  25173473.259   132287497.72405      1195.265          34.150    25173477.199   103081175.14905       931.369          31.700
G16  20162700.135   105955724.19107      -954.669          46.650    20162698.061    82562898.56007      -743.898          46.550
G18  22723247.966   119411498.92807     -2847.147          43.250    22723248.286    93047932.28407     -2218.551          43.100    22723254.867    89170971.59008     -2126.072          50.300
G23  21776212.364   114434853.47107       603.379          47.550    21776212.692    89170069.64407       470.166          45.400    21776218.734    85454682.66508       450.620          51.200
G26  21896044.689   115064495.93008     -2855.214          48.050    21896047.770    89660654.95508     -2224.845          48.200    21896049.511    85924800.56508     -2132.145          52.150
G27  20418833.868   107301753.85508      1138.424          49.550    20418834.712    83611786.12308       887.084          49.650    20418836.432    80127974.37209       850.085          55.750
G31  25590841.706   134480633.93805     -3427.234          33.550    25590848.322   104790073.74505     -2670.583          32.000
R07  23362480.950   125061229.68406       281.249          39.700    23362485.686    97269875.44607       218.752          43.550    23362485.811    97269867.44807       218.753          44.000
R08  23601694.735   126386018.01706      2963.415          38.700    23601702.039    98300295.66706      2304.888          37.750    23601702.127    98300292.65506      2304.886          37.500
R13  21194136.471   113175475.07406     -3793.241          40.750
R14  19551843.470   104222362.27107       448.693          47.750    19551848.715    81061854.42708       348.983          49.300    19551848.673    81061853.43008       348.983          50.100
R15  22545764.585   120477733.79407      3795.685          43.350    22545770.548    93704928.23207      2952.202          46.200    22545770.541    93704931.23707      2952.203          46.750
R17  23061010.239   123404131.41606      3267.303          41.750    23061016.815    95981013.77307      2541.240          43.150    23061017.010    95981015.77707      2541.240          44.100
R23  21408661.011   114521911.23606     -3085.288          41.250
R24  19708956.557   105392790.98608       824.228          48.650    19708959.797    81972155.10908       641.067          49.650    19708959.907    81972161.11208       641.067          50.150
E02  25030554.759   131536470.01548      2075.732          48.650    25030559.979    98225317.46508      1550.005          48.900    25030556.793   106766629.33908      1684.820          52.000    25030555.852   100787697.79308      1590.464          48.800    25030557.857    99506497.93908      1570.212          51.550
E10  24644890.566   129509807.95548     -1741.918          48.800    24644896.244    96711912.24908     -1300.739          52.050    24644893.101   105121617.80508     -1413.854          53.250    24644892.140    99234811.86308     -1334.692          51.800    24644894.062    97973362.36809     -1317.740          54.600
E11  21846809.903   114805805.88547      -299.567          46.750    21846811.633    85731639.26008      -223.730          50.550    21846807.533    93186544.68208      -243.210          52.850    21846807.703    87968104.68508      -229.624          50.450    21846809.754    86849863.28208      -226.654          53.200
E12  26250431.528   137946965.74446     -2570.433          39.300    26250437.552   103012360.32007     -1919.462          42.900    26250431.704   111969940.56207     -2086.450          45.400    26250433.379   105699635.46907     -1969.539          42.000    26250434.922   104355994.71107     -1944.662          45.250
E16  25865048.089   135921762.97747     -2532.301          47.650    25865056.490   101500059.48408     -1891.004          48.450    25865050.484   110326117.10108     -2055.447          49.950    25865052.272   104147855.93907     -1940.369          46.950    25865054.428   102823955.01808     -1915.700          50.350
E25  23305893.865   122473304.51648      -540.992          49.950    23305900.063    91457375.75408      -403.906          53.450    23305894.195    99410158.37209      -439.058          56.000    23305896.089    93843202.23208      -414.452          53.800    23305897.932    92650282.80109      -409.166          56.250
E36  24947609.466   131100635.73948      2211.944          48.450    24947617.201    97899882.85008      1651.749          49.800    24947611.436   106412869.12408      1795.450          51.900    24947613.109   100453783.27708      1694.865          50.250    24947615.281    99176837.86808      1673.340          52.700
C06  39996469.567   210182873.66205      -770.953          34.650    39996467.718   208272132.05905      -764.577          34.800    39996474.087   156954778.69807      -576.148          43.300    39996469.343   169238168.42106      -621.275          39.950
C09                                                                  38834480.506   202221390.81906       -11.388          41.250                                                                    38834483.669   164321484.93907        -9.284          42.750    38834483.244   156370442.20307        -8.947          42.000
C12  26460773.128   139052300.69115      -967.258          30.950    26460773.001   137788177.38105      -958.758          32.850    26460798.684   103837866.91106      -722.910          41.250    26460776.613   111964224.47806      -779.243          37.700
C19  26004232.101   136653160.63605       329.485          32.650    26004234.603   135410901.64806       326.681          39.300    26004240.067   102046282.66107       246.157          44.800    26004234.079   110032487.34006       265.485          41.350
C22  25445814.501   133718727.92006      2499.021          37.500    25445815.570   132503098.31306      2476.476          41.800    25445821.004    99854948.91407      1866.439          42.300    25445816.315   107669657.51906      2012.379          41.150
C23  27029148.835   142039125.91005      2984.632          34.250    27029150.034   140747877.52805      2957.467          34.900    27029151.459   106068190.54407      2228.950          43.350    27029146.607   114369158.10506      2403.248          41.850
C24  22975551.690   120737336.97208     -2222.049          48.000    22975552.002   119639725.33508     -2201.840          48.350    22975554.078    90160999.89008     -1659.339          52.200    22975552.227    97217069.97908     -1789.164          50.350
C25  23162772.509   121721207.29107      1117.237          45.750    23162773.553   120614656.54107      1107.130          46.200    23162776.307    90895727.86508       834.213          49.300    23162774.603    98009298.97508       899.592          49.100
C26  26025555.786   136765136.50106     -3486.592          40.600    26025556.020   135521819.89306     -3455.133          40.500    26025568.266   102129808.80006     -2603.650          40.850    26025564.221   110122574.18307     -2807.496          42.800
C31  21655455.628   113800234.32307     -1055.190          46.650    21655457.126   112765695.66407     -1045.567          47.100    21655461.307    84980742.33008      -787.949          53.700    21655458.469    91631385.15708      -849.619          52.350
C34  22393555.952   117678986.02907      1636.745          46.300    22393555.944   116609177.11807      1621.811          46.150    22393560.974    87877227.28708      1222.255          51.300    22393558.927    94754543.15108      1317.882          50.150
C35  25146705.958   132146821.53806     -2664.610          40.950    25146707.585   130945491.17606     -2640.338          38.650    25146713.751    98681086.25707     -1989.645          42.750    25146710.841   106403942.79907     -2145.483          42.800
S21  37770635.311                           5.499          45.800
S36  37795054.470   198614339.07807         1.639          46.950
> 2026 04 30 10 15 30.0000000  0 40
G02  23935415.343   125781462.63906      3248.630          41.250    23935416.902    98011548.20706      2531.401          40.300
G07  24896764.708   130833375.98806      1464.942          38.550    24896764.898   101948089.67406      1141.513          38.100
G08  22262605.139   116990829.40507      2614.874          44.150    22262607.768    91161702.60707      2037.565          43.750    22262609.429    87363311.07208      1952.621          50.400
G10  22684297.595   119206882.69707      2569.615          47.900    22684301.339    92888534.12307      2002.301          47.850    22684302.190    89018199.71608      1918.832          50.750
G15  25166697.037   132251890.42005      1178.569          35.200    25166701.141   103053429.20405       918.368          34.350
G16  20168202.027   105984637.24607      -973.038          46.250    20168200.079    82585428.18407      -758.212          46.100
G18  22739521.750   119497017.99607     -2854.154          42.500    22739522.137    93114570.45107     -2224.011          42.850    22739528.863    89234833.17208     -2131.449          50.350
G23  21772824.011   114417047.66507       583.534          47.200    21772824.267    89156195.02307       454.704          45.550    21772830.441    85441386.15708       435.790          51.050
G26  21912377.113   115150323.01007     -2866.752          47.900    21912380.240    89727533.10008     -2233.837          48.300    21912381.854    85988892.10108     -2140.779          52.100
G27  20412367.043   107267770.39308      1127.136          49.250    20412367.845    83585305.51008       878.288          49.350    20412369.638    80102597.12009       841.593          55.800
G31  25610394.605   134583383.73306     -3422.903          41.750    25610401.556   104870138.07406     -2667.209          41.700
R07  23360974.128   125053164.48406       256.170          40.000    23360979.008    97263602.54407       199.245          42.750    23360979.061    97263594.54407       199.245          43.400
R08  23585130.104   126297313.62706      2950.295          41.400    23585136.662    98231303.53506      2294.686          37.850    23585136.806    98231300.53106      2294.686          38.050
R13  21215488.366   113289492.26606     -3808.114          41.150
R14  19549394.235   104209305.88008       421.868          48.100    19549399.377    81051699.44208       328.119          49.100    19549399.336    81051698.44708       328.119          49.700
R15  22524487.037   120364032.89507      3784.216          43.150    22524492.896    93616494.25607      2943.280          44.500    22524492.815    93616497.25707      2943.279          44.800
R17  23042713.820   123306224.62106      3259.800          41.200    23042720.299    95904864.14407      2535.402          42.250    23042720.490    95904866.14507      2535.402          42.750
R23  21425978.254   114614546.81606     -3090.504          40.650
R24  19704376.565   105368299.80208       808.371          48.800    19704379.833    81953106.41508       628.733          49.400    19704379.964    81953112.41708       628.733          49.950
E02  25018723.284   131474295.38248      2069.157          48.750    25018728.519    98178888.36508      1545.199          48.800    25018725.399   106716162.93008      1679.490          52.150    25018724.423   100740057.50308      1585.449          48.600    25018726.403    99459463.24108      1565.368          51.450
E10  24654859.657   129562195.33848     -1750.719          48.650    24654865.224    96751032.66508     -1307.367          51.950    24654862.095   105164140.01108     -1421.078          53.400    24654861.168    99274952.81408     -1341.478          51.600    24654863.089    98012993.04709     -1324.389          54.650
E11  21848554.400   114814972.91947      -311.931          46.650    21848556.062    85738484.77008      -232.919          50.450    21848551.983    93193985.45508      -253.179          52.850    21848552.128    87975128.77108      -238.988          50.200    21848554.187    86856798.08208      -235.985          53.100
E12  26265119.335   138024146.53746     -2575.008          39.300    26265124.067   103069995.25607     -1923.002          42.700    26265119.443   112032587.24507     -2090.131          45.550    26265119.906   105758773.92706     -1972.991          41.450    26265122.052   104414381.39907     -1948.071          45.050
E16  25879523.347   135997829.63047     -2538.970          46.950    25879532.227   101556862.32508     -1895.996          48.550    25879526.416   110387859.38208     -2060.809          50.150    25879527.302   104206140.62507     -1945.364          47.000    25879529.767   102881498.78508     -1920.720          50.600
E25  23309014.563   122489702.71048      -552.507          49.850    23309020.588    91469621.13808      -412.537          53.400    23309014.617    99423468.58009      -448.435          55.950    23309016.550    93855767.06008      -423.290          53.500    23309018.424    92662687.90509      -417.902          56.200
E36  24935007.357   131034411.97148      2202.724          48.150    24935015.140    97850430.07808      1644.951          49.850    24935009.415   106359116.10308      1787.945          52.050    24935011.015   100403040.42808      1687.780          50.100    24935013.285    99126740.06108      1666.405          52.750
C06  40000888.038   210206096.53105      -776.551          34.050    40000887.149   208295143.79605      -769.957          35.850    40000893.540   156972120.38007      -580.109          43.250    40000889.036   169256867.28806      -625.464          40.100
C09                                                                  38834565.058   202221831.89006       -18.350          40.100                                                                    38834568.420   164321843.29506       -14.714          41.700    38834567.820   156370783.20107       -13.976          43.000
C12  26466342.749   139081569.59214      -983.875          29.300    26466342.920   137817180.17505      -975.030          32.500    26466368.354   103859723.45306      -734.575          40.850    26466346.550   111987791.56106      -792.072          37.500
C19  26002396.937   136643522.11805       312.729          34.250    26002400.344   135401350.81306       309.888          39.250    26002405.822   102039085.10007       233.711          44.650    26002400.230   110024726.50406       251.937          41.150
C22  25431567.448   133643860.88906      2491.500          40.750    25431567.818   132428911.88106      2469.078          38.350    25431574.256    99799041.90707      1860.584          43.700    25431568.828   107609375.08006      2006.253          40.250
C23  27012127.464   141949677.68205      2978.060          33.000    27012128.680   140659242.49505      2950.983          33.300    27012130.144   106001394.76307      2224.085          42.600    27012125.282   114297134.83706      2398.161          40.750
C24  22988273.254   120804189.04907     -2234.860          47.400    22988273.564   119705969.66208     -2214.485          48.200    22988275.574    90210921.80508     -1668.888          51.800    22988273.895    97270898.86508     -1799.531          50.500
C25  23156440.630   121687933.05207      1100.992          45.450    23156441.633   120581684.79807      1091.004          46.100    23156444.491    90870880.20608       822.229          49.200    23156442.712    97982506.72108       886.498          48.950
C26  26045463.341   136869750.73406     -3487.844          39.800    26045463.735   135625483.05806     -3456.276          41.700    26045476.582   102207929.35607     -2604.397          43.800    26045471.760   110206808.66006     -2808.257          39.200
C31  21661502.131   113832008.60207     -1063.147          46.250    21661503.586   112797181.08007     -1053.476          47.100    21661507.766    85004469.85208      -793.978          53.600    21661504.899    91656969.62108      -856.102          52.100
C34  22384234.365   117630000.60907      1628.856          46.050    22384234.314   116560637.01907      1613.870          46.350    22384239.365    87840647.27408      1216.315          51.300    22384237.265    94715100.35208      1311.493          50.000
C35  25161922.237   132226780.05506     -2665.965          40.400    25161922.600   131024722.91406     -2642.087          37.050    25161929.428    98740795.45107     -1990.922          43.750    25161926.668   106468324.93206     -2146.767          41.250
S21  37770604.016                           5.171          45.350
S36  37795046.119   198614295.42107         1.240          46.750
> 2026 04 30 10 16  0.0000000  0 39
G02  23916885.982   125684090.82006      3242.330          41.550    23916887.515    97935674.17706      2526.494          40.100
G07  24888444.368   130789656.54706      1449.783          38.350    24888445.910   101914022.63806      1129.703          38.350
G08  22247692.276   116912461.49707      2609.471          44.250    22247694.694    91100636.74307      2033.356          44.650    22247696.557    87304789.63308      1948.580          50.550
G10  22669660.440   119129964.05008      2557.842          49.350    22669663.941    92828597.59308      1993.127          49.550    22669665.028    88960760.54908      1910.204          50.400
G16  20173806.925   106014091.80107      -990.727          46.400    20173805.171    82608379.75407      -771.996          46.700
G18  22755834.186   119582740.60407     -2860.880          42.300    22755834.697    93181367.20806     -2229.259          41.700    22755841.482    89298846.70108     -2136.377          49.650
G23  21769547.051   114399826.70307       564.430          47.750    21769547.194    89142776.09707       439.815          44.700    21769553.473    85428526.38408       421.295          51.300
G26  21928773.493   115236485.80008     -2877.724          48.000    21928776.646    89794672.84408     -2242.386          48.100    21928778.194    86053234.32908     -2148.900          52.200
G27  20405963.161   107234117.56908      1116.153          49.550    20405963.897    83559082.53508       869.729          49.650    20405965.750    80077466.76809       833.510          55.900
G31  25629920.637   134685990.50706     -3418.221          38.650    25629927.621   104950091.09306     -2663.556          38.100
R07  23359605.129   125045837.63906       231.765          40.100    23359610.257    97257903.93107       180.262          43.150    23359610.324    97257895.92907       180.262          44.000
R08  23568636.422   126208991.58106      2937.889          36.700    23568643.221    98162608.81406      2285.040          40.900    23568643.250    98162605.81406      2285.039          41.800
R13  21236919.316   113403931.78306     -3821.732          41.250
R14  19547094.915   104197048.60708       395.123          48.300    19547099.902    81042165.99108       307.318          49.150    19547099.873    81042164.99608       307.318          49.900
R15  22503272.744   120250670.00207      3773.114          43.950    22503278.434    93528323.14607      2934.645          45.850    22503278.432    93528326.15207      2934.645          46.300
R17  23024458.070   123208535.31707      3252.726          43.000    23024464.721    95828883.67607      2529.903          43.700    23024464.953    95828885.67907      2529.903          44.400
R23  21443323.597   114707333.95307     -3095.394          42.600
R24  19699882.710   105344269.52308       793.221          48.800    19699886.136    81934416.20608       616.950          49.650    19699886.227    81934422.21008       616.950          50.250
E02  25006927.082   131412305.82748      2063.124          48.600    25006932.209    98132597.47208      1540.691          48.750    25006929.155   106665846.74508      1674.601          52.150    25006928.198   100692559.02108      1580.817          49.250    25006930.173    99412568.55408      1560.809          51.750
E10  24664877.109   129614837.08048     -1758.989          49.300    24664882.608    96790343.01608     -1313.544          51.900    24664879.489   105206868.67108     -1427.793          53.150    24664878.569    99315288.66108     -1347.825          52.000    24664880.524    98052816.15009     -1330.694          54.700
E11  21850366.835   114824497.11047      -323.683          46.800    21850368.443    85745596.97808      -241.661          50.550    21850364.358    93201716.12308      -262.687          52.850    21850364.513    87982426.51708      -247.964          50.700    21850366.585    86864003.06108      -244.864          53.350
E12  26279829.796   138101450.61146     -2578.758          37.000    26279834.574   103127722.24107     -1925.821          44.100    26279829.860   112095333.99807     -2093.303          43.500    26279830.316   105818006.85007     -1976.038          43.300    26279832.597   104472861.35707     -1950.903          46.500
E16  25894033.914   136074085.23947     -2545.135          46.650    25894043.587   101613806.21207     -1900.542          47.800    25894037.639   110449754.98208     -2065.780          48.450    25894039.040   104264570.02707     -1950.075          47.700    25894040.979   102939185.43508     -1925.366          50.550
E25  23312199.313   122506437.81348      -563.537          50.100    23312205.219    91482118.10808      -420.850          53.550    23312199.153    99437052.25509      -457.432          55.950    23312201.094    93868590.04108      -431.825          53.950    23312203.033    92675347.88409      -426.332          56.400
E36  24922456.221   130968455.86848      2194.013          48.550    24922464.104    97801177.19808      1638.355          49.950    24922458.339   106305580.34508      1780.818          52.000    24922459.882   100352502.68408      1681.050          50.650    24922462.198    99076844.75008      1659.732          53.000
C06  40005334.254   210229466.72405      -781.824          33.300    40005335.189   208318301.39406      -774.580          37.650    40005341.097   156989572.00507      -583.642          44.200    40005337.165   169275684.69006      -629.166          41.800
C09                                                                  38834684.564   202222456.90306       -24.085          39.200                                                                    38834688.328   164322351.18307       -19.403          42.650    38834687.925   156371266.56107       -18.616          42.650
C12  26472000.540   139111300.50315      -999.416          31.850    26472000.781   137846639.77605      -990.084          34.550    26472025.766   103881924.35206      -745.831          41.500    26472004.212   112011729.92306      -804.113          39.750
C19  26000655.532   136634374.28605       295.842          30.700    26000659.601   135392286.17806       293.718          38.400    26000665.125   102032253.94407       221.584          44.550    26000659.632   110017360.73407       238.800          42.900
C22  25417362.962   133569214.31107      2484.408          42.400    25417362.789   132354943.84007      2461.883          42.800    25417369.704    99743299.45607      1855.321          44.300    25417364.067   107549270.10607      2000.451          43.050
C23  26995140.853   141860412.39205      2972.815          32.600    26995141.671   140570788.75605      2944.996          31.900    26995143.614   105934735.63307      2219.618          43.550    26995138.742   114225258.91707      2393.285          42.250
C24  23001065.736   120871413.70407     -2247.024          47.500    23001066.128   119772583.18008     -2226.764          48.650    23001067.921    90261121.93808     -1678.034          51.750    23001066.553    97325027.73108     -1809.360          50.900
C25  23150199.298   121655134.70107      1085.196          45.750    23150200.252   120549184.61007      1075.429          46.400    23150203.283    90846387.92708       810.353          49.300    23150201.399    97956097.65108       873.802          49.300
C26  26065374.212   136974381.37706     -3487.943          40.550    26065374.450   135729162.50506     -3456.478          40.400    26065387.720   102286062.20906     -2604.746          41.950    26065382.304   110291056.50006     -2808.513          41.500
C31  21667592.429   113864013.04807     -1070.759          46.550    21667593.843   112828894.58607     -1060.989          47.200    21667598.019    85028369.25408      -799.600          53.600    21667595.142    91682739.41908      -862.140          52.400
C34  22374955.875   117581241.90807      1621.274          46.250    22374955.865   116512321.56507      1606.796          46.550    22374960.881    87804236.56808      1210.818          51.400    22374958.777    94675840.10708      1305.548          50.300
C35  25177144.151   132306773.96106     -2666.845          36.400    25177144.983   131103989.55707     -2642.750          42.400    25177152.568    98800530.97907     -1991.679          43.700    25177148.272   106532735.54906     -2147.696          41.900
S21  37770572.847                           5.486          45.600
S36  37795037.760   198614252.09507         1.458          46.800
> 2026 04 30 10 16 30.0000000  0 40
G02  23898395.302   125586921.54406      3235.503          41.150    23898396.537    97859957.91306      2521.175          40.400
G07  24880209.361   130746381.35806      1435.282          40.100    24880211.352   101880301.75806      1118.402          40.550
G08  22232810.794   116834258.71207      2604.029          44.500    22232813.160    91039699.55107      2029.115          44.350    22232815.062    87246391.48708      1944.633          50.400
G10  22655090.820   119053400.04608      2546.266          48.850    22655094.330    92768937.39608      1984.105          49.050    22655095.144    88903586.20508      1901.470          50.350
G15  25153424.296                        1146.927          34.650    25153426.802                         893.708          35.500
G16  20179514.591   106044086.18707     -1008.749          46.050    20179512.964    82631751.96507      -786.039          45.950
G18  22772184.830   119668663.28107     -2867.417          42.200    22772185.463    93248319.86406     -2234.352          41.450    22772192.052    89363009.65208     -2141.167          49.550
G23  21766381.342   114383190.05607       544.857          47.300    21766381.146    89129812.49807       424.566          45.400    21766387.779    85416102.92508       406.964          51.050
G26  21945233.139   115322980.97807     -2888.553          47.750    21945236.266    89862071.59407     -2250.824          47.750    21945237.814    86117824.78308     -2157.007          52.050
G27  20399622.013   107200794.62708      1105.435          49.250    20399622.718    83533116.60908       861.378          49.300    20399624.619    80052582.75809       825.466          55.800
G31  25649418.020   134788450.98806     -3413.038          39.550    25649425.082   105029930.01206     -2659.521          39.350
R07  23358374.233   125039249.39006       207.316          40.400    23358379.421    97252779.77607       161.248          43.300    23358379.534    97252771.77507       161.248          43.950
R08  23552214.215   126121054.62106      2924.492          37.600    23552221.665    98094213.66406      2274.619          41.050    23552221.704    98094210.66206      2274.619          41.350
R13  21258428.457   113518788.52806     -3835.225          41.700
R14  19544945.374   104185590.33508       368.730          48.350    19544950.319    81033253.99008       286.790          49.400    19544950.256    81033252.99208       286.790          50.100
R15  22482122.020   120137647.77007      3761.806          43.250    22482127.998    93440417.08707      2925.854          44.750    22482127.998    93440420.09207      2925.854          45.050
R17  23006242.909   123111062.88507      3245.564          42.500    23006249.761    95753071.87607      2524.330          44.250    23006249.939    95753073.87607      2524.330          44.800
R23  21460697.138   114800268.61706     -3100.470          41.550
R24  19695474.654   105320698.31208       778.279          49.050    19695478.284    81916083.05308       605.329          49.950    19695478.380    81916089.05308       605.329          50.550
E02  24995166.045   131350501.43548      2057.182          48.550    24995171.109    98086444.85808      1536.201          48.750    24995168.174   106615680.85608      1669.782          52.700    24995167.250   100645202.42608      1576.271          49.050    24995169.201    99365813.95308      1556.219          51.750
E10  24674942.407   129667730.32248     -1767.061          49.000    24674947.849    96829841.18408     -1319.600          51.750    24674944.706   105249801.47708     -1434.387          53.350    24674943.862    99355817.21708     -1354.014          51.800    24674945.813    98092829.51109     -1336.809          54.700
E11  21852246.791   114834376.27947      -335.174          46.500    21852248.378    85752974.26908      -250.193          50.250    21852244.293    93209734.92508      -272.032          53.150    21852244.448    87989996.26508      -256.777          50.350    21852246.537    86871476.57608      -253.492          53.200
E12  26294562.880   138178861.04356     -2582.433          37.750    26294568.421   103185539.10207     -1928.583          44.100    26294563.006   112158178.45907     -2096.380          44.200    26294564.072   105877331.98707     -1978.854          43.200    26294566.024   104531432.35507     -1953.749          46.550
E16  25908580.717   136150527.59947     -2551.019          47.850    25908589.813   101670889.66507     -1905.039          46.800    25908583.775   110511802.29108     -2070.627          48.300    25908585.543   104323142.60507     -1954.646          46.250    25908587.647   102997013.44808     -1929.862          49.600
E25  23315447.938   122523508.82548      -574.505          49.850    23315453.761    91494865.91108      -428.972          53.350    23315447.619    99450908.57609      -466.329          56.250    23315449.559    93881670.40108      -440.173          53.650    23315451.565    92688261.96409      -434.570          56.350
E36  24909955.993   130902766.79848      2185.405          48.400    24909963.907    97752123.71708      1631.916          49.900    24909958.083   106252261.32508      1773.844          52.300    24909959.651   100302169.54208      1674.413          50.500    24909961.915    99027151.43608      1653.210          53.000
C06  40009808.604   210252982.16905      -785.842          33.800    40009810.855   208341603.05006      -779.140          38.200    40009816.259   157007132.18007      -586.990          44.400    40009812.718   169294619.16506      -632.937          41.950
C09                                                                  38834839.058   202223264.39206       -29.648          41.200                                                                    38834843.118   164323007.33807       -24.211          42.600    38834843.156   156371890.91607       -23.110          42.300
C12  26477745.512   139141489.37105     -1014.107          32.550    26477745.863   137876554.17705     -1004.624          34.800    26477770.439   103904467.99006      -757.085          41.350    26477749.059   112036037.84306      -816.342          39.250
C19  25999007.358   136625716.50605       280.099          33.950    25999011.927   135383707.03706       277.756          39.050    25999017.734   102025788.66307       209.498          45.350    25999012.048   110010389.46906       226.003          41.050
C22  25403200.635   133494789.33606      2477.252          39.900    25403200.793   132281195.47807      2454.620          43.450    25403207.145    99687722.51407      1849.772          43.900    25403201.909   107489343.61207      1994.667          43.250
C23  26978189.124   141771330.63105      2967.153          30.250    26978189.879   140482516.89305      2939.155          31.000    26978191.921   105868213.55107      2215.165          43.050    26978187.010   114153530.75306      2388.610          41.700
C24  23013928.546   120939007.77307     -2259.293          47.600    23013928.918   119839562.73408     -2238.618          48.000    23013930.520    90311597.93408     -1686.999          51.400    23013929.522    97379454.04308     -1819.043          50.700
C25  23144048.536   121622811.97707      1069.631          45.450    23144049.483   120517155.72807      1059.947          46.100    23144052.477    90822250.81608       798.749          49.200    23144050.569    97930071.56008       861.246          49.100
C26  26085287.377   137079025.24306     -3488.198          38.600    26085287.643   135832855.04706     -3456.684          41.550    26085300.609   102364204.98406     -2604.791          40.650    26085296.263   110375314.83606     -2808.633          41.900
C31  21673726.112   113896245.53007     -1078.137          46.400    21673727.466   112860834.04207     -1068.299          47.000    21673731.660    85052438.93908      -805.072          53.450    21673728.775    91708692.83308      -868.091          52.200
C34  22365720.264   117532708.63607      1614.191          46.050    22365720.357   116464229.52007      1599.483          46.550    22365725.295    87767994.20608      1205.368          51.350    22365723.213    94636761.37708      1299.769          50.100
C35  25192373.041   132386801.22406     -2668.065          41.100    25192374.364   131183289.19306     -2643.796          39.350    25192381.266    98860291.44506     -1992.464          41.250    25192377.282   106597172.91207     -2148.163          43.500
S21  37770540.987                           5.664          45.300
S36  37795029.174   198614209.13407         1.716          46.700
