     3.04           OBSERVATION DATA    M: MIXED            RINEX VERSION / TYPE
GR50 V4.90          SWISSTOPO           20260512 235943 UTC PGM / RUN BY / DATE
SNR is mapped to RINEX snr flag value [1-9]                 COMMENT
LX:     < 12dBHz -> 1; 12-17dBHz -> 2; 18-23dBHz -> 3       COMMENT
       24-29dBHz -> 4; 30-35dBHz -> 5; 36-41dBHz -> 6       COMMENT
       42-47dBHz -> 7; 48-53dBHz -> 8; >= 54dBHz -> 9       COMMENT
ZIM2                                                        MARKER NAME
14001M008                                                   MARKER NUMBER
GEODETIC                                                    MARKER TYPE
Leica GR50          SWISSTOPO                               OBSERVER / AGENCY
1873177             LEICA GR50          4.90/7.905          REC # / TYPE / VERS
60369               TRM59800.00     NONE                    ANT # / TYPE
  4331300.1600   567537.0810  4633133.5100                  APPROX POSITION XYZ
        0.0000        0.0000        0.0000                  ANTENNA: DELTA H/E/N
G   20 C1C L1C D1C S1C C1L L1L D1L S1L C2S L2S D2S S2S C2W  SYS / # / OBS TYPES
       L2W D2W S2W C5Q L5Q D5Q S5Q                          SYS / # / OBS TYPES
R   16 C1C L1C D1C S1C C2P L2P D2P S2P C2C L2C D2C S2C C3Q  SYS / # / OBS TYPES
       L3Q D3Q S3Q                                          SYS / # / OBS TYPES
E   20 C1C L1C D1C S1C C5Q L5Q D5Q S5Q C6B L6B D6B S6B C7Q  SYS / # / OBS TYPES
       L7Q D7Q S7Q C8Q L8Q D8Q S8Q                          SYS / # / OBS TYPES
C   24 C1P L1P D1P S1P C2I L2I D2I S2I C5P L5P D5P S5P C6I  SYS / # / OBS TYPES
       L6I D6I S6I C7D L7D D7D S7D C7I L7I D7I S7I          SYS / # / OBS TYPES
S    8 C1C L1C D1C S1C C5I L5I D5I S5I                      SYS / # / OBS TYPES
DBHZ                                                        SIGNAL STRENGTH UNIT
    30.000                                                  INTERVAL
  2026    05    13    00    00    0.0000000     GPS         TIME OF FIRST OBS
  2026    05    13    23    59   30.0000000     GPS         TIME OF LAST OBS
     0                                                      RCV CLOCK OFFS APPL
G L1C                                                       SYS / PHASE SHIFT
G L1L  0.25000                                              SYS / PHASE SHIFT
G L2S -0.25000                                              SYS / PHASE SHIFT
G L2W                                                       SYS / PHASE SHIFT
G L5Q -0.25000                                              SYS / PHASE SHIFT
R L1C                                                       SYS / PHASE SHIFT
R L2P  0.25000                                              SYS / PHASE SHIFT
R L2C                                                       SYS / PHASE SHIFT
R L3Q  0.25000                                              SYS / PHASE SHIFT
E L1C  0.50000                                              SYS / PHASE SHIFT
E L5Q -0.25000                                              SYS / PHASE SHIFT
E L6B                                                       SYS / PHASE SHIFT
E L7Q -0.25000                                              SYS / PHASE SHIFT
E L8Q -0.25000                                              SYS / PHASE SHIFT
C L1P  0.25000                                              SYS / PHASE SHIFT
C L2I                                                       SYS / PHASE SHIFT
C L5P  0.25000                                              SYS / PHASE SHIFT
C L6I                                                       SYS / PHASE SHIFT
C L7D                                                       SYS / PHASE SHIFT
C L7I                                                       SYS / PHASE SHIFT
S L1C                                                       SYS / PHASE SHIFT
S L5I                                                       SYS / PHASE SHIFT
 24 R01  1 R02 -4 R03  5 R04  6 R05  1 R06 -4 R07  5 R08  6 GLONASS SLOT / FRQ #
    R09 -2 R10 -7 R11  0 R12 -1 R13 -2 R14 -7 R15  0 R16 -1 GLONASS SLOT / FRQ #
    R17  4 R18 -3 R19  3 R20  2 R21  4 R22 -3 R23  3 R24  2 GLONASS SLOT / FRQ #
 C1C  -71.940 C1P  -71.940 C2C  -71.940 C2P  -71.940        GLONASS COD/PHS/BIS
    18    18  1929     7                                    LEAP SECONDS
                                                            END OF HEADER
> 2026 05 13 00 00  0.0000000  0 45
G05  24817828.909   130418582.44307     -3769.695          42.850                                                                    24817829.820   101624852.73106     -2937.421          36.650    24817829.720   101624877.70907     -2937.424          42.950
G10  25098122.866   131891528.31006      2629.440          39.400                                                                    25098124.031   102772630.32406      2048.916          40.700    25098124.828   102772632.32506      2048.917          39.050    25098123.038    98490428.48507      1963.703          45.900
G12  24644644.714   129508505.85107      3880.813          42.750                                                                    24644645.164   100915719.66006      3024.010          39.800    24644645.162   100915716.66407      3024.010          43.500
G13  24265341.366   127515229.72206      3648.886          41.500    24265341.017   127515279.70706      3649.076          41.750    24265343.052    99362521.75106      2843.283          39.750    24265343.444    99362535.74706      2843.284          37.650    24265345.129    95222431.67206      2724.885          41.750
G14  22248815.338   116918440.16707     -2605.036          47.850    22248815.125   116918449.17307     -2604.903          47.950    22248814.383    91105325.17107     -2029.898          47.550    22248814.613    91105345.17607     -2029.897          44.850    22248817.404    87309304.81508     -1945.283          50.300
G15  19922455.438   104693254.77309      -555.230          54.100                                                                    19922454.053    81579173.41208      -432.647          53.900    19922454.165    81579172.41309      -432.647          54.100
G17  22957813.794   120644174.81507      1064.040          46.650                                                                    22957813.809    94008470.95407       829.123          45.900    22957813.894    94008472.95307       829.123          46.800
G19  23598913.134   124013140.79607      2867.778          44.750                                                                                                                                    23598911.473    96633641.88307      2234.634          43.000
G20  20638033.639   108453683.49308     -1598.651          52.150    20638033.552   108453690.49308     -1598.706          52.100    20638033.414    84509407.55009     -1245.703          55.400    20638033.662    84509411.54708     -1245.703          51.900    20638036.039    80988203.98509     -1193.847          58.050
G22  21603142.519   113525364.81808     -2062.166          50.800                                                                                                                                    21603140.777    88461361.35407     -1606.883          47.000
G23  22573072.725   118622317.56007       694.900          47.000    22573072.616   118622324.56107       695.111          46.800    22573072.177    92432986.76308       541.480          48.800    22573072.553    92432986.76507       541.480          44.900    22573075.703    88581635.68808       519.001          51.800
G24  20958453.452   110137469.57508      2216.139          49.950                                                                    20958454.320    85821436.73508      1726.861          50.100    20958454.694    85821436.73408      1726.862          49.850    20958454.720    82245552.13609      1654.918          55.200
G30  24472441.810   128603657.21206     -2972.466          41.150                                                                    24472444.778   100210688.79506     -2316.210          41.050    24472444.790   100210714.79206     -2316.210          40.750    24472444.443    96035313.98807     -2219.676          46.350
R03  20893846.218   111846470.49908     -3485.102          51.100    20893848.075    86991735.55508     -2710.635          48.800    20893848.046    86991732.56008     -2710.635          49.200
R04  19148732.796   102540654.27808       290.006          53.550    19148733.883    79753861.78308       225.560          51.800    19148733.824    79753863.78208       225.560          52.450    19148725.347    76777354.01509       217.196          59.300
R05  21691663.442   115954408.22908      3668.451          48.050    21691665.528    90186783.38707      2853.241          46.250    21691665.802    90186788.39207      2853.241          47.000    21691656.640    86973253.53508      2751.638          49.400
R13  21340254.510   113955879.93907     -3314.692          44.950
R14  19260600.833   102669950.18809       394.689          54.750    19260604.228    79854452.27608       306.981          51.700    19260604.183    79854455.28208       306.981          52.550
R15  22032633.918   117735759.03608      3402.468          48.850    22032637.408    91572220.59307      2646.365          44.600    22032637.522    91572262.59707      2646.365          44.950
R21  24731230.532   132341795.57304     -2438.062          28.100    24731232.880   102932528.25904     -1896.266          28.800    24731232.589   102932528.28204     -1896.264          29.100
R22  23713425.431   126583873.98707       988.081          42.300    23713427.048    98454140.31805       768.510          35.750    23713427.139    98454137.30706       768.509          36.000    23713418.930    95079522.78007       742.062          42.800
E04  23808924.667   125116866.92049     -1257.023          54.900    23808925.993    93431498.47509      -938.650          54.500    23808924.238   101555893.98708     -1020.290          52.700    23808923.691    95868847.83209      -963.169          54.950    23808924.741    94650185.58409      -950.887          58.100
E05  27938459.222   146817599.40246      2754.630          40.050    27938463.923   109636536.43107      2057.099          42.800    27938458.960   119170126.53906      2235.931          38.100    27938460.506   112496610.94106      2110.772          40.700    27938462.402   111066570.62207      2083.931          45.300
E06  23315133.249   122521950.52349        72.746          55.150    23315135.830    91493731.10209        54.322          55.850    23315132.030    99449666.63709        59.091          54.000    23315133.908    93880510.75009        55.732          56.400    23315134.468    92687115.35809        55.045          59.450
E09  23993599.799   126087262.67549      1365.447          54.800    23993601.975    94156109.65309      1019.670          54.650    23993599.204   102343571.49808      1108.272          52.300    23993599.633    96612343.43209      1046.254          55.150    23993600.557    95384214.47609      1032.956          58.200
E16  28543922.041   149999322.57856      3125.429          38.900    28543928.418   112012517.19506      2333.970          40.300    28543924.441   121752706.64306      2536.667          38.300    28543926.758   114934568.63606      2394.762          41.250    28543926.910   113473531.34507      2364.422          44.000
E19  27006117.638   141918105.71446     -2756.815          36.300    27006120.961   105977921.02606     -2058.527          36.550                                                                    27006119.190   108742566.89606     -2112.401          38.100    27006120.117   107360257.91306     -2085.676          40.750
E21  27652335.295   145314080.42547     -2749.512          42.650    27652338.259   108513836.65807     -2053.002          42.200    27652336.230   117949762.53506     -2231.563          37.750    27652335.832   111344623.27007     -2106.565          42.250    27652336.815   109929231.39307     -2079.751          45.700
E23  23886864.413   125526400.29149      -721.991          54.950    23886866.846    93737312.25009      -539.123          54.100    23886863.861   101888334.21908      -586.055          52.100    23886864.927    96182615.47709      -553.248          54.750    23886865.556    94959955.79509      -546.211          57.850
E28  25255287.581   132717533.98648     -2210.978          51.700    25255290.782    99107271.11908     -1650.994          50.500    25255287.931   107725299.06207     -1794.653          47.700    25255288.478   101692706.00008     -1694.067          50.500    25255289.239   100400073.99308     -1672.551          53.900
E31  24338904.857   127901888.95248      2023.374          52.550    24338908.428    95511226.70108      1510.958          52.950    24338903.342   103816451.49208      1642.381          50.750    24338906.192    98002817.78908      1550.390          53.200    24338907.101    96757020.17809      1530.686          56.500
E34  28391979.418   149200859.29755     -1160.420          35.550    28391984.010   111416244.30806      -866.522          39.050    28391981.312   121104596.41705      -941.993          35.200    28391982.348   114322750.09006      -888.984          40.300    28391982.941   112869490.12407      -877.681          43.300
C08  39481624.520   207477351.73906       446.866          41.650    39481622.928   205591200.87307       442.818          42.400    39481625.462   154934409.50707       333.721          45.650    39481624.508   167059701.38906       359.833          41.900    39481623.751   158976154.30906       342.500          41.400
C14  24133808.906   126824044.41807      2283.354          45.950    24133808.550   125671103.50208      2262.527          48.800    24133828.460    94706366.92808      1704.997          48.900    24133800.047   102118044.04907      1838.394          46.750    24133826.887    97176955.14107      1749.527          45.250
C19  26690609.879   140260139.34306     -3593.621          40.900    26690609.389   138985052.23006     -3561.051          41.150    26690616.349   104739769.58307     -2683.644          42.350    26690611.127   112936765.19706     -2893.600          40.050    26690613.676   107472103.17406     -2753.367          38.150
C21  22821773.223   119929268.11008       995.992          51.700    22821771.796   118839001.15208       986.950          53.600    22821772.912    89557627.27709       743.810          54.650    22821769.784    96566434.26008       802.015          52.050    22821770.723    91893873.26708       763.172          50.650
C22  22495124.335   118212702.90008     -2250.274          51.700    22495122.695   117138083.96908     -2229.816          53.400    22495122.132    88275798.17408     -1680.381          53.700    22495120.259    95184310.66608     -1811.900          52.050    22495120.296    90578625.68508     -1724.250          50.850
C26  26817787.463   140928414.44406      3038.069          38.600    26817785.911   139647249.74506      3009.887          40.250    26817791.249   105238785.20506      2268.368          40.650    26817790.324   113474847.50406      2446.181          36.000    26817788.472   107984120.86006      2327.753          36.750
C27  26212822.438   137749318.84606       567.567          38.150    26212821.047   136497051.11006       562.669          40.350    26212823.787   102864764.49306       424.161          40.700    26212824.186   110915043.56406       457.302          37.650    26212823.256   105548173.24806       435.170          37.900
C30  26184246.025   137599151.38706      2416.500          38.600    26184245.521   136348240.83606      2394.476          40.300    26184251.912   102752634.94107      1804.374          43.050    26184249.956   110794143.58706      1945.684          38.650    26184249.907   105433132.69606      1851.246          38.850
C36  21942296.205   115307665.76208     -1321.183          52.900    21942295.240   114259424.11109     -1309.059          54.450    21942305.042    86106487.96309      -986.510          56.300    21942302.509    92845232.66608     -1063.693          53.450    21942302.269    88352646.06308     -1012.193          52.100
C39  22425539.760   117847035.93108      1465.090          52.800    22425537.273   116775759.29808      1451.808          53.650    22425533.484    88002688.49609      1094.095          55.900    22425532.696    94889857.78008      1179.722          52.750    22425531.151    90298404.11908      1122.655          52.000
C42  26253093.349   137960927.76006      3093.482          40.200    26253091.828   136706748.20306      3065.391          40.000    26253106.401   103022849.28207      2310.068          44.000    26253103.299   111085478.99406      2490.794          39.100    26253104.360   105710367.68906      2370.244          39.650
S21  38211352.068   200801823.70107        -1.557          46.900
S36  38097223.951   200202287.44307         1.243          46.550    38097195.396   149501805.78907          .874          46.450
> 2026 05 13 00 00 30.0000000  0 45
G05  24839348.934   130531671.28506     -3769.142          40.750                                                                    24839350.363   101712973.72306     -2937.000          41.650    24839350.436   101712998.71806     -2936.999          41.250
G10  25083148.750   131812839.44806      2616.885          39.100                                                                    25083149.692   102711314.39206      2039.131          39.700    25083150.517   102711316.37906      2039.131          39.600    25083149.041    98431667.44407      1954.040          46.000
G12  24622499.274   129392133.23206      3877.750          40.300                                                                    24622500.377   100825039.89407      3021.634          42.850    24622500.425   100825036.90306      3021.634          40.250
G13  24244523.035   127405830.17106      3644.474          41.750    24244522.971   127405880.16607      3644.796          42.050    24244524.673    99277275.41107      2839.854          44.300    24244524.997    99277289.41606      2839.854          41.250    24244527.576    95140737.35607      2721.702          47.300
G14  22263717.667   116996752.43207     -2615.360          47.550    22263717.482   116996761.44007     -2615.305          47.850    22263716.658    91166347.72207     -2037.943          47.850    22263716.893    91166367.71907     -2037.943          44.700    22263720.076    87367784.75108     -1953.057          50.600
G15  19925686.395   104710233.57509      -576.103          54.400                                                                    19925685.034    81592403.64009      -448.911          54.150    19925685.126    81592402.63809      -448.912          54.400
G17  22951789.759   120612518.27507      1046.831          46.500                                                                    22951789.796    93983803.55207       815.714          45.700    22951789.913    93983805.54807       815.714          46.700
G19  23582563.739   123927224.35907      2860.426          45.250                                                                                                                                    23582561.953    96566694.05207      2228.904          42.300
G20  20647207.913   108501894.39308     -1614.819          52.300    20647207.828   108501901.39108     -1614.838          52.400    20647207.622    84546974.47609     -1258.301          55.250    20647207.853    84546978.47308     -1258.301          51.900    20647210.259    81024205.62009     -1205.918          57.800
G22  21614955.056   113587440.20008     -2075.763          51.400                                                                                                                                    21614953.279    88509731.78407     -1617.477          46.550
G23  22569165.748   118601786.37807       674.178          47.200    22569165.709   118601793.36507       674.455          47.150    22569165.133    92416988.44608       525.335          48.450    22569165.444    92416988.44307       525.333          45.300    22569169.030    88566303.97008       503.473          51.750
G24  20945834.242   110071155.10308      2205.444          50.300                                                                    20945835.158    85769763.13508      1718.528          50.350    20945835.476    85769763.13908      1718.528          50.100    20945835.537    82196031.61009      1646.840          55.200
G30  24489419.053   128692872.36106     -2974.944          41.750                                                                    24489421.933   100280207.06806     -2318.137          39.350    24489421.945   100280233.06807     -2318.138          42.100    24489421.968    96101935.64207     -2221.507          46.900
R03  20913425.133   111951277.68508     -3501.445          51.350    20913427.107    87073252.21908     -2723.347          48.850    20913427.053    87073249.22508     -2723.347          49.200
R04  19147181.425   102532346.77108       264.324          53.450    19147182.613    79747400.37808       205.585          51.900    19147182.501    79747402.37908       205.585          52.600    19147173.981    76771133.76309       197.827          59.200
R05  21671109.477   115844534.52207      3657.024          47.800    21671111.473    90101326.08907      2844.353          46.150    21671111.719    90101331.09507      2844.352          46.750    21671102.315    86890841.21508      2742.837          49.550
R13  21358900.317   114055446.89307     -3322.524          44.900
R14  19258436.016   102658410.68609       375.259          54.700    19258439.427    79845477.11908       291.869          51.700    19258439.427    79845480.12508       291.869          52.500
R15  22013563.703   117633852.92608      3391.774          48.850    22013567.098    91492960.33807      2638.050          45.750    22013567.078    91493002.34207      2638.050          46.650
R21  24744952.475   132415223.23305     -2456.804          30.600    24744954.743   102989638.58504     -1910.842          27.150    24744954.307   102989638.58804     -1910.842          26.650
R22  23707940.893   126554596.12007       964.285          42.450    23707942.164    98431368.67605       749.997          35.600    23707942.363    98431365.66605       749.997          35.650    23707934.391    95057531.65207       724.374          42.100
E04  23816129.790   125154730.16549     -1266.745          55.200    23816131.159    93459772.96509      -945.946          54.500    23816129.469   101586627.12908     -1028.227          52.650    23816128.807    95897859.92009      -970.665          55.050    23816129.877    94678828.87309      -958.300          58.000
E05  27922734.810   146734967.21046      2754.641          40.250    27922739.608   109574830.65406      2056.978          41.300    27922734.261   119103055.01006      2235.754          38.050    27922736.329   112433295.43507      2110.619          42.550    27922737.733   111004059.97207      2083.820          45.200
E06  23314748.807   122519930.24649        62.469          55.300    23314751.432    91492222.44709        46.645          55.700    23314747.613    99448026.80109        50.688          54.000    23314749.447    93878962.74309        47.862          56.450    23314750.030    92685587.02909        47.227          59.300
E09  23985829.257   126046428.16849      1357.343          55.100    23985831.590    94125616.36309      1013.571          54.600    23985828.838   102310426.61308      1101.677          52.400    23985829.285    96581054.66609      1039.966          55.250    23985829.994    95353323.44809      1026.785          58.100
E16  28526084.380   149905585.03746      3124.418          40.200    28526090.636   111942518.68106      2333.014          40.500    28526086.290   121676621.17006      2535.904          37.350    28526088.847   114862744.02506      2393.956          41.050    28526089.126   113402619.79407      2363.417          44.000
E19  27021867.811   142000872.98456     -2759.813          37.150    27021871.147   106039727.74906     -2061.454          36.750                                                                    27021869.263   108805985.95306     -2115.060          37.750    27021870.133   107422870.77906     -2088.245          40.750
E21  27668043.947   145396630.17247     -2753.626          42.850    27668047.002   108575480.93107     -2056.117          42.100    27668045.139   118016767.19206     -2235.043          37.300    27668044.568   111407875.66507     -2109.819          42.050    27668045.578   109991679.72607     -2082.915          45.550
E23  23891024.086   125548259.45149      -734.804          55.300    23891026.641    93753635.65209      -548.691          54.000    23891023.455   101906077.04308      -596.428          52.200    23891024.553    96199364.70309      -563.017          54.800    23891025.186    94976492.11009      -555.869          57.650
E28  25267930.698   132783973.83648     -2217.853          51.750    25267933.841    99156885.28008     -1656.236          50.200    25267931.110   107779227.49207     -1800.230          47.700    25267931.669   101743614.44608     -1699.414          50.650    25267932.358   100450335.29408     -1677.813          53.650
E31  24327385.352   127841353.69048      2012.748          52.800    24327388.896    95466021.82108      1503.010          52.900    24327383.973   103767315.74708      1633.741          50.800    24327386.533    97956433.64708      1542.275          53.250    24327387.589    96711225.66609      1522.641          56.350
E34  28398643.102   149235876.70955     -1173.263          35.650    28398647.608   111442393.75006      -876.309          39.600    28398644.489   121133023.74215      -952.533          35.250    28398646.002   114349581.70006      -899.263          40.200    28398646.519   112895980.66007      -887.844          43.150
C08  39479092.137   207464045.18706       440.951          41.600    39479091.186   205578015.30807       436.670          43.150    39479093.438   154924472.80807       329.096          45.600    39479092.219   167048987.02807       354.841          42.200    39479091.614   158965958.39206       337.660          41.350
C14  24120810.160   126755735.18407      2271.269          45.950    24120809.741   125603415.24608      2250.580          48.400    24120829.403    94655356.79208      1695.973          48.750    24120801.236   102063041.82007      1828.728          47.350    24120827.857    97124614.31807      1740.195          45.100
C19  26711130.521   140367975.25706     -3594.730          38.550    26711129.945   139091907.86506     -3561.974          41.000    26711137.285   104820296.25107     -2684.437          43.100    26711132.105   113023594.02006     -2894.550          41.500    26711134.376   107554730.62306     -2754.576          38.250
C21  22816135.366   119899640.95908       979.521          52.200    22816133.933   118809643.33508       970.703          53.700    22816134.927    89535503.10809       731.474          54.600    22816131.911    96542578.62808       788.736          52.150    22816132.815    91871171.93908       750.584          50.750
C22  22508010.913   118280422.34308     -2263.877          52.000    22508009.341   117205187.77508     -2243.208          53.350    22508008.890    88326367.87008     -1690.566          53.800    22508006.854    95238837.99608     -1822.873          52.150    22508006.844    90630514.59208     -1734.670          51.000
C26  26800454.126   140837327.05106      3036.040          37.200    26800452.180   139556990.44206      3007.556          39.700    26800457.921   105170765.38906      2266.743          39.350    26800456.489   113401504.36005      2443.997          34.300
C27  26209625.142   137732517.66006       552.741          38.050    26209623.652   136480402.67506       547.431          40.700    26209626.953   102852218.23606       412.554          39.600    26209626.620   110901515.39106       444.941          38.600    26209625.337   105535299.65406       423.274          36.250
C30  26170471.685   137526766.25306      2409.420          40.350    26170470.725   136276513.69906      2388.449          40.900    26170477.573   102698581.12407      1799.662          43.400    26170475.893   110735859.46406      1940.489          40.050    26170474.708   105377668.76206      1846.546          37.200
C36  21949866.624   115347448.56708     -1330.646          53.200    21949865.583   114298845.26209     -1318.540          54.450    21949875.467    86136195.90209      -993.709          56.250    21949872.975    92877265.57808     -1071.449          53.600    21949872.633    88383128.99908     -1019.649          52.200
C39  22417207.792   117803251.17508      1454.410          52.950    22417205.175   116732372.59408      1441.164          53.650    22417201.435    87969992.12009      1086.053          55.750    22417200.613    94854602.55008      1171.051          52.800    22417199.186    90264854.79108      1114.384          52.100
C42  26235452.580   137868225.31906      3087.220          40.250    26235451.135   136614888.48706      3059.103          41.750    26235465.644   102953623.48907      2305.361          43.950    26235462.322   111010835.48706      2485.890          38.850    26235463.509   105639335.95706      2365.485          39.700
S21  38211362.441   200801883.25007        -1.889          47.150
S36  38097217.179   200202254.32007         1.291          46.900    38097191.086   149501789.14607          .644          46.400
> 2026 05 13 00 01  0.0000000  0 45
G05  24860864.913   130644737.33407     -3768.554          44.250                                                                    24860866.726   101801076.93106     -2936.544          41.900    24860866.859   101801101.93007     -2936.542          44.200
G10  25068246.597   131734529.45006      2603.801          39.900                                                                    25068247.672   102650293.67706      2028.936          40.550    25068248.422   102650295.66506      2028.936          39.850    25068246.542    98373189.24107      1944.442          45.100
G12  24600371.666   129275852.02607      3874.540          42.800                                                                    24600372.848   100734431.30506      3019.127          41.650    24600372.931   100734428.31007      3019.126          42.400
G13  24223728.650   127296553.13507      3640.432          42.850    24223728.611   127296603.13107      3640.477          43.050    24223730.420    99192124.54707      2836.703          44.750    24223730.699    99192138.53806      2836.702          41.350    24223733.383    95059134.48407      2718.442          45.350
G14  22278676.682   117075363.16907     -2625.156          47.350    22278676.609   117075372.17707     -2625.315          47.550    22278675.885    91227602.83007     -2045.575          47.900    22278676.130    91227622.83207     -2045.576          44.500    22278679.417    87426487.56908     -1960.552          50.100
G15  19929035.032   104727830.96209      -596.987          54.050                                                                    19929033.793    81606115.87809      -465.185          54.350    19929033.885    81606114.87808      -465.185          53.950
G17  22945862.687   120581371.27807      1029.828          46.900                                                                    22945862.592    93959533.19507       802.464          45.450    22945862.698    93959535.19507       802.464          46.850
G19  23566255.706   123841525.32707      2852.807          45.550                                                                                                                                    23566253.986    96499915.63607      2222.968          42.750
G20  20656472.127   108550577.94208     -1630.769          52.400    20656472.057   108550584.94408     -1630.827          52.300    20656471.779    84584909.69909     -1270.729          55.350    20656472.018    84584913.69508     -1270.729          51.850    20656474.361    81060560.20509     -1217.791          57.500
G22  21626842.935   113649911.38808     -2089.044          51.100                                                                                                                                    21626841.117    88558410.63107     -1627.826          46.350
G23  22565375.210   118581866.82207       653.736          47.250    22565375.170   118581873.82107       653.633          47.200    22565374.540    92401466.70908       509.406          48.350    22565374.795    92401466.71507       509.406          44.900    22565378.445    88551428.97808       488.124          51.700
G24  20933274.967   110005155.81408      2194.657          50.400                                                                    20933275.950    85718335.13808      1710.123          50.100    20933276.225    85718335.13708      1710.123          50.600    20933276.331    82146746.44909      1638.833          55.100
G30  24506407.425   128782146.81706     -2977.145          40.650                                                                    24506410.126   100349771.57506     -2319.851          38.650    24506410.095   100349797.57006     -2319.853          40.650    24506410.348    96168601.56807     -2222.984          45.400
R03  20933093.121   112056561.20308     -3517.482          51.050    20933094.872    87155139.38308     -2735.819          48.700    20933094.859    87155136.38708     -2735.819          48.800
R04  19145772.565   102524802.21808       238.618          53.300    19145773.758    79741532.38408       185.592          52.050    19145773.650    79741534.38508       185.592          52.700    19145765.144    76765484.77109       178.686          59.200
R05  21650618.835   115735001.40008      3645.205          48.100    21650620.909    90016133.69407      2835.160          46.600    21650621.181    90016138.70207      2835.161          47.050    21650612.103    86808684.37208      2734.223          50.000
R13  21377586.782   114155230.40307     -3329.812          44.850
R14  19256378.647   102647443.72109       355.948          54.800    19256381.975    79836947.27108       276.850          51.800    19256382.019    79836950.27608       276.850          52.700
R15  21994551.363   117532256.93208      3381.280          49.000    21994555.146    91413941.30307      2629.887          46.100    21994555.119    91413983.30607      2629.887          46.800
R21  24758774.597   132489210.00415     -2474.767          33.400    24758775.642   103047157.08214     -1924.823          27.700    24758778.613   103047167.08614     -1924.823          28.100
R22  23702586.583   126526015.05107       940.839          42.100    23702588.117    98409138.95706       731.767          37.000    23702588.226    98409135.94806       731.767          37.350    23702580.175    95036063.87906       706.759          41.000
E04  23823388.518   125192874.77449     -1276.277          55.250    23823389.957    93488257.56009      -953.063          54.400    23823388.186   101617588.65208     -1035.943          52.300    23823387.443    95927087.59509      -977.918          55.150    23823388.568    94707685.00809      -965.478          58.000
E05  27907010.502   146652335.39346      2754.351          41.350    27907015.390   109513125.12107      2056.836          42.950    27907009.994   119035983.74406      2235.771          37.200    27907012.244   112369980.22006      2110.385          41.900    27907013.643   110941549.60307      2083.654          45.750
E06  23314421.489   122518210.21149        52.206          55.250    23314424.129    91490938.00209        38.997          55.600    23314420.287    99446630.66708        42.373          53.700    23314422.100    93877644.78909        40.003          56.650    23314422.728    92684285.82909        39.489          59.300
E09  23978103.107   126005827.01149      1349.360          54.900    23978105.518    94095297.32609      1007.646          54.450    23978102.804   102277471.13308      1095.228          52.300    23978103.250    96549944.69109      1033.941          55.450    23978103.844    95322608.94109      1020.806          58.150
E16  28508250.283   149811865.50646      3123.587          39.550    28508256.084   111872533.58506      2332.593          40.800    28508251.591   121600550.29406      2535.416          37.550    28508254.068   114790933.22006      2393.333          41.000    28508254.741   113331721.83507      2362.979          44.200
E19  27037634.492   142083726.31045     -2763.202          35.950    27037637.776   106101598.66006     -2063.483          36.800                                                                    27037635.666   108869470.90506     -2117.209          38.050    27037636.670   107485548.71206     -2090.337          40.600
E21  27683774.912   145479297.45546     -2757.581          41.900    27683778.072   108637212.98606     -2059.277          41.550    27683776.289   118083867.26306     -2238.455          37.250    27683775.657   111471218.12207     -2112.890          42.650    27683776.752   110054216.98507     -2086.117          45.350
E23  23895254.510   125570490.55249      -747.357          54.950    23895257.134    93770236.80208      -558.085          53.800    23895253.937   101924121.77208      -606.644          52.000    23895254.866    96216398.92609      -572.649          54.900    23895255.615    94993309.79609      -565.352          57.600
E28  25280611.456   132850611.98248     -2224.704          51.800    25280614.605    99206647.50608     -1661.385          50.100    25280611.969   107833316.87107     -1805.748          47.350    25280612.581   101794674.81008     -1704.598          50.850    25280613.174   100500746.59208     -1682.998          53.700
E31  24315924.284   127781125.54448      2002.356          52.750    24315927.884    95421046.28308      1495.265          52.900    24315923.026   103718429.28208      1625.275          50.550    24315925.465    97910284.83108      1534.306          53.600    24315926.509    96665663.49009      1514.769          56.450
E34  28405379.746   149271277.60956     -1186.389          36.800    28405384.180   111468829.47806      -886.122          39.350    28405381.514   121161758.21505      -963.057          35.100    28405382.394   114376707.03806      -909.127          40.550    28405383.151   112922761.19607      -897.610          43.050
C08  39476593.688   207450916.57206       434.509          41.900    39476593.293   205565006.03407       430.627          43.500    39476595.243   154914668.96607       324.544          45.350    39476593.766   167038415.93607       349.749          42.350    39476593.162   158955898.79206       333.074          41.300
C14  24107878.424   126687778.32707      2259.359          46.150    24107878.020   125536076.18907      2238.790          47.550    24107897.967    94604609.83208      1687.059          49.050    24107869.239   102008323.32107      1819.148          47.150    24107896.263    97072543.49607      1731.098          46.350
C19  26731654.596   140475830.32206     -3595.200          39.600    26731654.291   139198782.43606     -3563.001          40.900    26731661.754   104900837.24206     -2685.143          41.500    26731656.433   113110438.25606     -2895.138          39.850    26731658.669   107637372.66306     -2755.028          39.050
C21  22810589.848   119870499.03408       963.179          52.200    22810588.418   118780766.34308       954.388          53.550    22810589.390    89513741.27609       719.254          54.400    22810586.330    96519113.69908       775.573          52.200    22810587.300    91848842.41108       738.065          50.900
C22  22520973.135   118348539.09608     -2277.322          52.100    22520971.522   117272685.28608     -2256.563          53.250    22520971.226    88377234.24808     -1700.544          53.650    22520969.039    95293685.23808     -1833.676          52.100    22520969.041    90682707.92608     -1744.901          51.250
C26  26783133.547   140746306.55005      3032.535          35.150    26783131.299   139466797.38206      3004.942          37.150    26783137.650   105102795.56506      2264.727          37.550    26783135.236   113328215.10506      2442.006          38.100
C27  26206514.281   137716170.10206       537.158          38.000    26206513.157   136464203.71606       532.396          40.150    26206516.311   102840010.66106       401.273          39.800    26206515.522   110888352.41106       432.536          38.050    26206514.013   105522773.60306       411.549          36.750
C30  26156732.111   137454562.91606      2403.730          39.700    26156730.842   136204966.77206      2381.812          41.700    26156737.931   102644663.10807      1794.940          42.950    26156736.543   110677721.75906      1935.384          40.150    26156734.326   105322344.16206      1841.710          36.900
C36  21957490.026   115387509.65508     -1340.115          53.100    21957488.912   114338542.15709     -1327.926          54.400    21957498.772    86166111.64409     -1000.732          56.050    21957496.391    92909522.55308     -1079.055          53.550    21957496.019    88413825.15008     -1026.840          52.400
C39  22408935.206   117759778.74908      1443.799          52.950    22408932.561   116689295.37908      1430.585          53.700    22408928.746    87937528.96709      1078.130          55.650    22408927.966    94819598.79708      1162.483          52.850    22408926.716    90231544.77308      1106.273          52.350
C42  26217845.532   137775700.42206      3081.089          40.100    26217844.390   136523204.74006      3053.229          41.800    26217858.576   102884530.28607      2300.832          43.950    26217855.261   110936334.98206      2480.988          39.750    26217856.467   105568440.32206      2360.822          39.400
S21  38211372.473   200801938.45207        -1.938          47.050
S36  38097210.500   200202218.68607         1.088          46.650    38097185.119   149501768.07007          .675          46.150
> 2026 05 13 00 01 30.0000000  0 44
G05  24882377.119   130757782.53706     -3767.916          41.000                                                                    24882378.732   101889164.02406     -2936.039          36.800    24882378.884   101889189.02806     -2936.036          41.250
G10  25053418.212   131656605.96806      2591.328          39.850                                                                    25053419.544   102589574.16506      2019.220          40.250    25053420.203   102589576.14506      2019.218          39.050    25053418.252    98314999.70307      1934.694          46.000
G12  24578262.776   129159668.96606      3871.085          41.400                                                                    24578263.743   100643899.19306      3016.434          40.300    24578263.864   100643896.19406      3016.434          41.350
G13  24202958.025   127187405.46306      3636.065          40.050    24202958.259   127187455.47706      3635.922          40.250    24202960.414    99107074.54407      2833.302          42.950    24202960.683    99107088.54106      2833.302          38.650    24202962.379    94977628.17307      2715.260          43.650
G14  22293693.122   117154275.46207     -2635.545          47.050    22293693.028   117154284.46407     -2635.446          47.200    22293692.573    91289092.92108     -2053.672          48.100    22293692.831    91289112.92307     -2053.672          45.300    22293696.000    87485415.56908     -1968.102          50.400
G15  19932502.343   104746051.94208      -617.808          53.750                                                                    19932501.207    81620314.03009      -481.409          54.050    19932501.294    81620313.03408      -481.409          53.850
G17  22940033.941   120550740.60607      1012.206          46.400                                                                    22940033.635    93935665.16207       788.733          45.650    22940033.787    93935667.16207       788.733          46.250
G19  23549990.571   123756051.62807      2845.298          45.250                                                                                                                                    23549988.883    96433312.80507      2217.117          42.800
G20  20665827.115   108599738.71808     -1646.664          52.050    20665827.084   108599745.72208     -1646.674          52.050    20665826.798    84623216.78009     -1283.116          55.200    20665827.027    84623220.77908     -1283.116          51.900    20665829.285    81097271.16409     -1229.705          57.650
G22  21638806.730   113712781.48708     -2102.387          50.750                                                                                                                                    21638804.842    88607400.32507     -1638.223          46.950
G23  22561702.175   118562564.73107       632.956          46.700    22561702.141   118562571.72607       633.023          46.800    22561701.434    92386426.12608       493.213          48.250    22561701.716    92386426.12207       493.213          45.200    22561705.458    88537015.08708       472.659          51.700
G24  20920776.899   109939478.12908      2183.778          50.250                                                                    20920777.857    85667157.74808      1701.647          50.150    20920778.161    85667157.74808      1701.647          50.350    20920778.238    82097701.45209      1630.737          55.150
G30  24523407.688   128871485.31506     -2979.358          37.850                                                                    24523410.449   100419385.98006     -2321.581          39.050    24523410.437   100419411.98206     -2321.579          37.750    24523410.145    96235315.36207     -2224.654          43.750
R03  20952850.375   112162323.24308     -3533.383          51.250    20952852.081    87237398.73308     -2748.187          48.650    20952852.060    87237395.73908     -2748.187          49.100
R04  19144507.386   102518026.99108       212.934          53.550    19144508.567    79736262.76008       165.615          51.950    19144508.425    79736264.75808       165.616          52.550    19144499.979    76760411.81809       159.401          59.350
R05  21630193.762   115625818.27307      3633.538          47.850    21630196.051    89931213.51807      2826.086          46.400    21630196.223    89931218.52007      2826.086          47.250    21630186.874    86726790.02608      2725.377          49.550
R13  21396314.051   114255232.63307     -3337.176          44.750
R14  19254429.621   102637053.94609       336.665          54.650    19254432.877    79828866.34308       261.851          51.700    19254432.894    79828869.34908       261.851          52.550
R15  21975598.295   117430978.49408      3370.690          48.700    21975602.110    91335169.26207      2621.650          44.700    21975602.207    91335211.26507      2621.650          45.050
R22  23697364.140   126498137.71306       917.472          41.750    23697366.091    98387456.58406       713.591          36.750    23697366.244    98387453.58406       713.592          36.900    23697357.229    95015124.63906       689.174          41.600
E04  23830701.787   125231306.04749     -1285.938          54.800    23830703.295    93516956.22909      -960.269          54.450    23830701.441   101648782.86108     -1043.746          52.300    23830700.657    95956534.92609      -985.302          55.100    23830701.822    94736758.01009      -972.790          58.100
E05  27891287.489   146569710.06646      2753.973          39.550    27891292.560   109451424.50607      2056.515          42.350    27891286.826   118968917.81306      2235.370          38.700    27891289.273   112306669.96507      2110.222          42.250    27891290.305   110879044.16707      2083.341          45.650
E06  23314152.440   122516796.35649        41.893          55.000    23314155.048    91489882.19909        31.291          55.650    23314151.186    99445483.05708        33.993          53.700    23314153.039    93876561.44309        32.102          56.600    23314153.687    92683216.25409        31.691          59.350
E09  23970422.566   125965465.59649      1341.306          54.700    23970425.005    94065157.31909      1001.583          54.550    23970422.381   102244710.24808      1088.699          52.250    23970422.755    96519018.42409      1027.714          55.350    23970423.322    95292075.80209      1014.667          58.250
E16  28490420.793   149718170.50246      3122.921          38.350    28490426.151   111802566.86506      2331.852          40.150    28490422.013   121524499.36706      2534.727          37.950    28490424.087   114719141.22006      2392.778          40.900    28490424.846   113260842.48207      2362.229          43.900
E19  27053418.188   142166672.51255     -2766.368          35.650    27053421.550   106163537.42906     -2065.837          37.150                                                                    27053419.438   108933025.49706     -2119.764          37.750    27053420.514   107548295.39706     -2092.805          40.600
E21  27699528.940   145562085.97946     -2761.803          41.750    27699532.205   108699035.60706     -2062.499          41.000    27699530.286   118151065.73706     -2241.420          37.200    27699530.065   111534653.48107     -2116.075          42.850    27699530.879   110116845.98207     -2089.309          45.300
E23  23899556.527   125593097.90449      -759.918          54.800    23899559.153    93787118.92408      -567.457          53.900    23899556.064   101942471.89908      -616.831          52.000    23899556.879    96233721.44909      -582.281          54.900    23899557.640    95010412.11609      -574.874          57.750
E28  25293330.922   132917453.24748     -2231.573          51.400    25293334.144    99256561.40708     -1666.395          50.200    25293331.430   107887571.12407     -1811.249          47.200    25293332.137   101845890.82408     -1709.880          50.700    25293332.623   100551311.54808     -1688.150          53.800
E31  24304522.822   127721210.67048      1991.950          52.650    24304526.506    95376304.69308      1487.384          52.950    24304521.689   103669797.10208      1616.745          50.600    24304524.149    97864376.05908      1526.267          53.700    24304525.054    96620338.31009      1506.835          56.700
E34  28412190.087   149307066.92356     -1199.652          36.850    28412194.494   111495554.50106      -895.819          41.100    28412190.803   121190807.12605      -973.622          35.650    28412192.543   114404129.20306      -919.158          40.550    28412193.152   112949834.78407      -907.451          44.300
C08  39474130.165   207437971.10407       428.561          42.050    39474130.215   205552178.27007       424.552          43.350    39474131.946   154905001.91007       319.894          45.450    39474130.198   167027992.30307       345.016          42.350    39474129.539   158945979.54906       328.324          41.200
C14  24095015.109   126620181.15107      2247.284          45.900    24095014.660   125469093.54208      2226.664          48.100    24095034.314    94554131.43608      1677.975          48.800    24095006.161   101953894.45307      1809.409          47.200    24095033.280    97020748.28507      1721.845          45.700
C19  26752183.159   140583707.86106     -3596.338          40.050    26752182.789   139305679.26406     -3563.658          41.450    26752189.956   104981395.09906     -2685.671          40.650    26752184.812   113197300.63206     -2895.934          40.300    26752186.895   107720032.00605     -2755.558          35.700
C21  22805137.866   119841848.76808       946.783          51.700    22805136.439   118752376.53908       938.208          53.500    22805137.475    89492346.60309       706.979          54.600    22805134.297    96496044.66608       762.289          52.200    22805135.284    91826889.62108       725.400          50.850
C22  22534011.626   118417056.90508     -2290.728          51.550    22534010.091   117340580.20808     -2269.826          53.350    22534009.711    88428400.13108     -1710.601          53.650    22534007.574    95348855.40908     -1844.431          52.200    22534007.585    90735208.57108     -1755.214          51.200
C26  26765826.569   140655358.96306      3030.017          38.150    26765823.975   139376676.55406      3002.579          38.350    26765830.895   105034880.05706      2262.960          39.200    26765828.609   113254984.61806      2440.014          40.950    26765828.395   107774897.44916      2321.826          36.850
C27  26203490.795   137700282.06106       521.496          38.600    26203489.633   136448460.10606       517.212          40.800    26203492.384   102828146.24306       389.662          38.950    26203492.569   110875559.51506       419.999          37.750    26203490.379   105510599.67606       399.931          38.400
C30  26143028.528   137382549.19006      2397.048          38.150    26143027.478   136133607.70807      2375.274          42.800    26143034.041   102590886.64807      1790.093          42.000    26143032.896   110619736.68806      1930.261          39.550    26143030.736   105267164.80606      1836.708          38.100
C36  21965167.123   115427853.07208     -1349.531          52.650    21965166.056   114378518.81809     -1337.239          54.600    21965175.832    86196238.22209     -1007.772          56.050    21965173.446    92942006.86508     -1086.653          53.550    21965173.208    88444737.64408     -1034.121          52.350
C39  22400723.101   117716624.01108      1433.167          52.700    22400720.535   116646532.95809      1420.049          54.000    22400716.503    87905303.05409      1070.147          55.650    22400715.832    94784850.84608      1153.933          52.950    22400714.715    90198478.18108      1098.090          52.350
C42  26200273.839   137683360.57006      3074.946          39.900    26200272.687   136431704.34606      3046.884          41.600    26200286.897   102815575.26907      2296.121          43.250    26200283.698   110861983.48206      2475.795          40.050    26200284.837   105497686.49806      2355.944          40.900
S21  38211382.713   200801992.75707        -1.888          46.800
S36  38097204.660   200202184.29407         1.059          46.500    38097178.225   149501742.05807          .853          46.200
> 2026 05 13 00 02  0.0000000  0 44
G05  24903883.519   130870801.60106     -3766.882          38.150                                                                    24903885.045   101977230.80006     -2935.239          38.850    24903885.164   101977255.79606     -2935.238          38.550
G10  25038663.476   131579068.36806      2578.276          40.600                                                                    25038664.750   102529155.32206      2009.050          40.850    25038665.444   102529157.30306      2009.049          40.050    25038663.366    98257098.27907      1925.369          46.000
G12  24556172.071   129043583.49506      3867.996          41.800                                                                    24556172.911   100553443.11306      3014.027          41.600    24556173.088   100553440.11506      3014.028          41.850
G13  24182212.349   127078385.86206      3632.234          41.750    24182212.487   127078435.87507      3632.083          42.050    24182214.044    99022124.22007      2830.312          42.300    24182214.288    99022138.24406      2830.316          38.750    24182216.860    94896217.51407      2712.198          45.800
G14  22308766.054   117233483.96307     -2645.287          47.350    22308765.910   117233492.97107     -2645.166          47.500    22308765.575    91350813.82108     -2061.263          48.250    22308765.846    91350833.82707     -2061.263          45.000    22308769.126    87544564.76108     -1975.150          50.400
G15  19936087.674   104764893.01308      -638.212          53.800                                                                    19936086.522    81634995.38008      -497.309          53.900    19936086.610    81634994.38108      -497.309          53.950
G17  22934303.193   120520624.58507       995.432          46.750                                                                    22934302.686    93912198.15307       775.662          45.950    22934302.844    93912200.15307       775.662          47.000
G19  23533768.241   123670803.19307      2837.880          45.250                                                                                                                                    23533766.498    96366885.50607      2211.337          43.150
G20  20675272.212   108649372.86008     -1662.234          52.050    20675272.183   108649379.86808     -1662.280          52.100    20675271.901    84661892.72109     -1295.248          55.250    20675272.119    84661896.72008     -1295.248          51.750    20675274.433    81134335.60209     -1241.230          57.800
G22  21650845.402   113776045.04608     -2115.225          50.750                                                                                                                                    21650843.541    88656696.60707     -1648.228          47.000
G23  22558146.075   118543877.51607       612.798          46.850    22558146.026   118543884.52207       612.801          46.750    22558145.410    92371864.66208       477.504          48.650    22558145.721    92371864.65807       477.504          45.350    22558149.278    88523060.34508       457.649          51.650
G24  20908339.667   109874119.97008      2173.370          50.500                                                                    20908340.578    85616229.33308      1693.536          50.500    20908340.901    85616229.33208      1693.536          50.700    20908340.964    82048895.05309      1623.063          55.300
G30  24540419.497   128960884.15006     -2980.706          39.900                                                                    24540422.653   100489047.35806     -2322.628          40.150    24540422.617   100489073.35806     -2322.630          40.950    24540421.489    96302074.22607     -2225.921          43.850
R03  20972695.811   112268557.55408     -3548.782          51.100    20972697.649    87320025.39508     -2760.164          48.950    20972697.620    87320022.39508     -2760.164          49.150
R04  19143385.514   102512019.32608       187.600          53.650    19143386.705    79731590.12208       145.910          51.900    19143386.587    79731592.12208       145.910          52.600    19143378.150    76755913.56809       140.525          59.250
R05  21609834.351   115516985.32408      3622.031          48.800    21609836.729    89846565.69007      2817.136          46.950    21609836.700    89846570.69407      2817.136          47.800    21609827.407    86645158.33908      2716.707          49.850
R13  21415081.044   114355447.80507     -3343.856          44.300
R14  19252588.140   102627237.58409       317.775          54.500    19252591.445    79821231.40708       247.159          51.750    19252591.456    79821234.41308       247.159          52.600
R15  21956704.391   117330015.14908      3360.310          49.450    21956707.532    91256642.24807      2613.576          44.950    21956707.735    91256684.25007      2613.576          45.400
R22  23692273.320   126470963.17106       894.265          41.550    23692275.305    98366320.83606       695.542          36.850    23692275.420    98366317.82606       695.542          37.200    23692266.377    94994713.35706       671.743          41.550
E04  23838068.964   125270020.89649     -1295.077          54.700    23838070.523    93545866.65209      -967.048          54.450    23838068.558   101680207.24308     -1051.183          52.400    23838067.893    95986199.53409      -992.298          55.100    23838069.031    94766045.52509      -979.702          58.000
E05  27875565.231   146487089.02846      2754.281          39.900    27875570.253   109389727.03006      2056.695          41.950    27875564.624   118901855.32006      2235.568          38.000    27875567.151   112243362.99907      2110.387          42.200    27875567.962   110816541.94507      2083.561          45.350
E06  23313941.189   122515686.19449        32.096          55.150    23313943.771    91489053.18009        24.004          55.700    23313939.960    99444581.94508        26.102          53.850    23313941.809    93875710.79609        24.626          56.550    23313942.429    92682376.42209        24.299          59.350
E09  23962787.272   125925341.90249      1333.652          54.950    23962789.596    94035194.82009       995.953          54.550    23962787.140   102212142.31908      1082.548          52.350    23962787.337    96488274.29409      1021.918          55.300    23962788.037    95261722.49009      1008.937          58.100
E16  28472595.268   149624498.03146      3122.261          40.000    28472600.759   111732616.99506      2331.487          40.400    28472596.779   121448466.80206      2534.317          38.500    28472598.503   114647366.52706      2392.375          40.850    28472599.293   113189980.20107      2361.918          43.900
E19  27069218.378   142249702.66655     -2768.887          34.200    27069221.890   106225541.12806     -2067.688          37.000                                                                    27069219.850   108996646.69406     -2121.856          37.500    27069220.888   107611107.83506     -2094.685          40.550
E21  27715305.298   145644991.10146     -2765.378          41.900    27715308.629   108760945.25406     -2065.037          41.650    27715306.192   118218358.85906     -2244.566          38.100    27715306.438   111598178.16607     -2118.810          42.650    27715307.023   110179563.14007     -2091.898          45.400
E23  23903929.371   125616077.39649      -771.990          54.650    23903931.935    93804278.93708      -576.459          53.900    23903928.992   101961124.08808      -626.592          52.000    23903929.794    96251329.11409      -591.499          54.800    23903930.482    95027795.95609      -583.984          57.650
E28  25306088.407   132984494.04248     -2237.914          51.450    25306091.760    99306624.31108     -1671.141          50.400    25306088.737   107941987.34007     -1816.419          47.050    25306089.638   101897259.71008     -1714.646          50.600    25306090.050   100602027.44208     -1692.880          53.750
E31  24293180.580   127661606.72648      1981.805          52.700    24293184.239    95331795.27108      1479.965          53.000    24293179.463   103621417.29508      1608.615          50.700    24293181.986    97818705.53008      1518.528          53.600    24293182.788    96575248.33309      1499.254          56.550
E34  28419073.203   149343238.03546     -1211.724          36.300    28419077.941   111522565.44906      -904.915          41.650    28419073.574   121220166.86406      -983.710          36.500    28419075.451   114431844.83906      -928.615          41.350    28419076.237   112977198.07407      -916.781          44.700
C08  39471700.966   207425205.63906       422.768          41.850    39471701.250   205539528.85307       418.841          43.250    39471702.845   154895469.24807       315.623          45.650    39471701.009   167017713.61407       340.335          42.600    39471700.219   158936198.21106       323.811          41.100
C14  24082219.955   126552942.50407      2235.425          46.350    24082219.376   125402466.15607      2215.118          47.900    24082239.674    94503920.78808      1669.414          49.050    24082210.642   101899754.25207      1799.948          47.250    24082238.340    96969227.78707      1712.928          46.150
C19  26772714.977   140691602.99706     -3596.854          39.600    26772714.705   139412593.50406     -3564.028          41.250    26772721.722   105061966.02406     -2685.798          41.950    26772716.798   113284177.14606     -2895.947          40.800    26772718.725   107802704.85506     -2755.961          37.600
C21  22799779.094   119813688.30308       930.683          51.900    22799777.715   118724472.07508       922.143          53.350    22799778.805    89471317.67409       695.025          54.600    22799775.557    96473369.99808       749.407          52.150    22799776.433    91805312.10608       713.176          50.800
C22  22547125.427   118485971.04308     -2303.560          51.250    22547124.129   117408867.85308     -2282.577          53.250    22547123.551    88479861.96708     -1720.149          53.600    22547121.528    95404344.69808     -1854.797          52.050    22547121.534    90788012.89508     -1765.110          51.000
C26  26748532.966   140564481.81906      3028.466          38.950    26748530.928   139286625.58606      3000.651          41.850    26748537.447   104967017.24307      2261.363          42.550    26748535.684   113181810.82206      2438.287          39.900    26748534.997   107705264.32106      2320.330          38.950
C27  26200554.438   137684851.27106       506.967          38.650    26200552.822   136433169.58406       502.307          40.700    26200556.561   102816623.26006       378.443          40.500    26200555.246   110863134.70606       407.972          37.350    26200554.991   105498776.13606       388.468          38.300
C30  26129360.658   137310724.25406      2391.662          38.250    26129360.007   136062435.76806      2369.587          41.800    26129365.818   102537251.23806      1785.689          40.100    26129364.716   110561903.70606      1925.392          37.900    26129363.334   105212130.18206      1832.214          39.750
C36  21972897.123   115468474.49408     -1358.442          52.750    21972896.106   114418770.95509     -1346.241          54.400    21972905.756    86226572.39509     -1014.426          56.050    21972903.423    92974715.01808     -1093.850          53.400    21972903.246    88475863.14008     -1040.928          52.300
C39  22392570.871   117673783.93508      1422.859          52.700    22392568.344   116604082.33308      1409.969          53.550    22392564.210    87873312.10509      1062.583          55.750    22392563.692    94750356.24808      1145.749          52.900    22392562.523    90165652.68708      1090.330          52.250
C42  26182737.136   137591204.75306      3069.237          41.050    26182735.725   136340386.29806      3040.928          40.850    26182750.004   102746757.66807      2291.749          44.750    26182747.112   110787780.14506      2471.181          39.600    26182748.185   105427073.67906      2351.589          40.150
S21  38211393.072   200802044.73907        -1.590          46.950
S36  38097200.068   200202156.68007          .740          46.650    38097172.453   149501718.11607         1.126          46.350
> 2026 05 13 00 02 30.0000000  0 45
G05  24925384.934   130983792.15107     -3766.036          42.000                                                                    24925386.935   102065275.24207     -2934.577          42.400    24925386.977   102065300.23806     -2934.578          41.650
G10  25023982.516   131501919.90606      2564.887          39.400                                                                    25023983.765   102469039.64106      1998.617          40.200    25023984.438   102469041.63206      1998.617          39.200    25023982.677    98199487.47007      1915.428          47.250
G12  24534100.937   128927598.36407      3864.208          42.700                                                                    24534102.105   100463065.24507      3011.077          43.600    24534102.210   100463062.24907      3011.077          42.550
G13  24161491.602   126969496.97207      3626.978          42.100    24161491.782   126969546.96006      3627.067          41.900    24161493.186    98937275.77907      2826.220          45.650    24161493.347    98937289.78806      2826.221          41.550    24161496.534    94814904.45107      2708.701          47.150
G14  22323895.157   117312987.34407     -2655.333          47.350    22323895.018   117312996.34907     -2655.270          47.500    22323894.534    91412764.52007     -2069.090          47.800    22323894.824    91412784.52507     -2069.090          44.350    22323898.105    87603934.18208     -1982.768          49.750
G15  19939791.139   104784354.95508      -659.246          53.650                                                                    19939789.985    81650160.52609      -513.698          54.300    19939790.065    81650159.52308      -513.699          53.750
G17  22928670.797   120491025.56107       977.768          47.050                                                                    22928670.168    93889134.00407       761.897          45.700    22928670.288    93889136.00507       761.898          46.950
G19  23517589.516   123585783.92907      2829.933          44.900                                                                                                                                    23517587.793    96300636.78007      2205.146          43.150
G20  20684807.360   108699480.50108     -1678.355          51.700    20684807.330   108699487.50208     -1678.297          51.800    20684807.092    84700937.62609     -1307.809          55.200    20684807.314    84700941.62308     -1307.809          51.750    20684809.770    81171753.62909     -1253.283          57.450
G22  21662958.642   113839700.74408     -2128.586          50.700                                                                                                                                    21662956.835    88706298.45007     -1658.638          46.850
G23  22554707.257   118525806.55907       591.915          47.000    22554707.187   118525813.57307       591.904          46.950    22554706.732    92357783.40108       461.232          48.850    22554707.019    92357783.40407       461.232          45.950    22554710.394    88509565.80708       442.022          51.450
G24  20895963.589   109809083.25208      2162.381          50.300                                                                    20895964.468    85565551.38608      1684.973          50.650    20895964.803    85565551.38408      1684.974          50.300    20895964.901    82000328.69909      1614.753          55.100
G30  24557443.341   129050343.60106     -2983.204          40.800                                                                    24557446.274   100558755.97706     -2324.574          39.950    24557446.363   100558781.97706     -2324.575          40.500    24557445.278    96368878.34107     -2227.727          44.950
R03  20992629.156   112375262.20108     -3564.812          51.300    20992631.099    87403017.86408     -2772.632          49.100    20992630.995    87403014.86508     -2772.632          49.400
R04  19142407.330   102506781.37708       161.540          53.400    19142408.545    79727516.15808       125.642          52.150    19142408.413    79727518.15908       125.642          52.900    19142400.039    76751991.64809       120.988          59.550
R05  21589541.538   115408507.89508      3609.789          48.600    21589543.859    89762194.37207      2807.613          46.950    21589543.792    89762199.37607      2807.613          47.650    21589534.605    86563793.31408      2707.615          50.250
R13  21433887.593   114455873.96107     -3351.229          44.550
R14  19250854.056   102617994.25509       298.320          54.600    19250857.389    79814042.16108       232.027          51.900    19250857.391    79814045.16808       232.027          52.800
R15  21937869.902   117229369.28708      3349.314          49.000    21937873.232    91178362.19107      2605.025          46.000    21937873.344    91178404.19607      2605.026          46.200
R22  23687314.650   126444493.41106       870.440          41.950    23687316.855    98345733.30006       677.009          37.650    23687316.987    98345730.29506       677.007          37.900    23687307.842    94974831.42107       653.775          42.550
R23  24164306.532   129262758.20115      2921.319          33.650
E04  23845490.247   125309020.10449     -1304.848          54.750    23845491.831    93574989.43009      -974.432          54.300    23845489.890   101711862.43508     -1059.132          52.600    23845489.263    96016082.03609      -999.824          55.050    23845490.339    94795548.16409      -987.117          58.200
E05  27859844.157   146404473.99846      2753.478          39.750    27859848.986   109328034.06606      2056.242          41.650    27859843.557   118834797.73006      2235.035          37.600    27859846.185   112180060.64007      2109.922          42.800    27859846.780   110754044.28307      2083.040          45.700
E06  23313788.002   122514881.19449        21.558          55.000    23313790.631    91488452.04709        16.083          55.600    23313786.793    99443928.53808        17.501          53.950    23313788.648    93875093.98009        16.546          56.550    23313789.242    92681767.44609        16.313          59.600
E09  23955197.605   125885457.98849      1325.266          54.700    23955199.817    94005411.38509       989.689          54.350    23955197.469   102179769.01608      1075.726          52.650    23955197.524    96457713.90309      1015.459          55.200    23955198.383    95231550.57709      1002.576          58.350
E16  28454774.504   149530850.30146      3120.727          39.650    28454780.098   111662685.56006      2330.646          41.100    28454775.965   121372454.24606      2533.282          37.750    28454777.831   114575610.78706      2391.349          41.150    28454778.479   113119136.60607      2360.961          44.850
E19  27085035.718   142332819.76155     -2772.306          35.850    27085038.995   106287609.80305     -2070.457          35.950                                                                    27085036.886   109060334.49306     -2124.063          37.100    27085037.710   107673986.07306     -2097.178          40.250
E21  27731103.691   145728012.07246     -2769.550          41.500    27731107.215   108822941.42506     -2067.985          41.250    27731104.433   118285746.02606     -2247.922          38.500    27731104.602   111661791.64807     -2122.102          42.050    27731105.332   110242367.96607     -2095.016          45.300
E23  23908373.021   125639428.88449      -784.721          54.700    23908375.481    93821716.74308      -586.000          53.600    23908372.668   101980078.22608      -636.979          52.250    23908373.439    96269221.82009      -601.305          54.750    23908374.138    95045461.21309      -593.659          57.800
E28  25318883.941   133051734.74548     -2244.962          51.350    25318887.354    99356836.49208     -1676.351          50.050    25318884.032   107996565.81707     -1822.154          47.150    25318885.145   101948781.79308     -1720.132          50.550    25318885.575   100652894.57308     -1698.244          53.800
E31  24281897.857   127602315.44248      1971.006          52.700    24281901.379    95287519.33508      1471.848          52.700    24281896.643   103573291.26608      1599.794          50.800    24281899.147    97773274.56708      1510.221          53.400    24281900.032    96530394.88409      1491.039          56.650
E34  28426028.995   149379790.85456     -1225.094          36.400    28426033.818   111549862.12206      -914.716          41.000    28426029.739   121249837.15706      -994.327          37.650    28426031.279   114459853.57606      -938.718          41.850    28426032.363   113004850.79007      -926.814          45.050
C08  39469306.210   207412620.96207       416.238          42.450    39469306.521   205527058.60207       412.250          43.150    39469308.072   154886071.59607       310.943          45.450    39469306.385   167007580.48407       335.290          42.800    39469305.378   158926555.39606       319.081          40.950
C14  24069493.781   126486065.23307      2223.189          45.600    24069492.706   125336196.85507      2202.661          47.600    24069513.212    94453979.99108      1660.059          49.100    24069484.438   101845905.04507      1789.980          47.150    24069511.808    96917984.19207      1703.315          45.450
C19  26793250.000   140799514.68006     -3597.733          39.250    26793249.544   139519524.16006     -3564.561          38.350    26793256.734   105142549.39206     -2686.546          40.300    26793251.783   113371067.08906     -2896.594          40.000    26793254.067   107885390.38606     -2756.625          39.550
C21  22794513.914   119786019.62408       913.820          51.950    22794512.576   118697054.92808       905.558          53.550    22794513.664    89450655.99809       682.459          54.350    22794510.403    96451091.31708       735.864          52.200    22794511.238    91784111.43108       700.266          50.750
C22  22560314.544   118555280.79508     -2317.150          51.200    22560313.411   117477547.51408     -2296.061          53.300    22560312.802    88531619.23208     -1730.322          53.450    22560310.710    95460152.53508     -1865.689          52.100    22560310.766    90841120.34708     -1775.452          51.000
C26  26731253.185   140473676.67205      3025.433          35.300    26731251.741   139196645.93406      2998.466          40.000    26731258.047   104899208.19406      2259.277          41.650    26731256.084   113108694.94305      2436.133          35.050    26731255.593   107635686.34606      2318.301          38.050
C27  26197705.430   137669879.57306       491.537          37.800    26197704.146   136418334.05406       486.428          40.200    26197707.235   102805443.08206       366.704          40.700    26197707.109   110851079.53606       395.588          37.800    26197705.694   105487304.29606       376.652          38.050
C30  26115729.385   137239091.52406      2384.233          38.450    26115728.640   135991454.24406      2362.562          39.900    26115734.049   102483759.29906      1780.519          40.100    26115732.953   110504225.43106      1919.775          37.800    26115732.432   105157242.82506      1826.994          39.350
C36  21980679.977   115509373.55708     -1368.089          52.800    21980678.992   114459298.20709     -1355.674          54.400    21980688.524    86257113.90709     -1021.642          55.800    21980686.201    93007646.73108     -1101.571          53.400    21980686.114    88507201.38608     -1048.288          52.200
C39  22384478.701   117631259.46408      1411.990          52.650    22384476.209   116561944.44408      1399.166          53.850    22384472.018    87841556.83709      1054.448          55.600    22384471.649    94716115.78008      1136.972          53.050    22384470.278    90133069.01708      1081.979          52.150
C42  26165236.290   137499236.00806      3062.438          41.000    26165234.310   136249253.64506      3034.256          40.700    26165249.032   102678079.77407      2286.760          45.050    26165245.712   110713727.40406      2465.682          38.600    26165246.661   105356604.14706      2346.395          38.800
S21  38211404.125   200802099.04007        -2.129          46.800
S36  38097194.858   200202130.14907          .955          46.350    38097167.724   149501699.19007          .597          46.150
> 2026 05 13 00 03  0.0000000  0 45
G05  24946880.265   131096749.89206     -3764.756          38.600                                                                    24946882.451   102153294.17506     -2933.578          38.600    24946882.504   102153319.16006     -2933.579          39.000
G10  25009375.916   131425162.04006      2552.676          38.500                                                                    25009377.035   102409228.33906      1989.099          41.000    25009377.790   102409230.33706      1989.099          38.550    25009376.030    98142168.36707      1905.660          46.550
G12  24512048.884   128811714.38106      3861.504          40.600                                                                    24512050.073   100372766.16506      3008.969          41.250    24512050.111   100372763.16206      3008.968          40.200
G13  24140795.431   126860739.42806      3622.841          41.100    24140795.707   126860789.42406      3622.888          41.650    24140797.515    98852529.87107      2822.999          43.000    24140797.764    98852543.86906      2822.997          39.700    24140801.184    94733689.65107      2705.447          44.800
G14  22339079.624   117392782.48807     -2664.492          46.350    22339079.492   117392791.51107     -2664.757          46.600    22339078.975    91474942.56708     -2076.227          48.050    22339079.342    91474962.56307     -2076.228          44.700    22339082.586    87663521.49108     -1989.931          49.900
G15  19943612.564   104804436.67108      -679.853          53.500                                                                    19943611.432    81665808.60509      -529.756          54.050    19943611.504    81665807.60608      -529.756          53.550
G17  22923136.872   120461944.20007       960.740          46.650                                                                    22923136.008    93866473.24107       748.629          45.150    22923136.147    93866475.23807       748.630          46.700
G19  23501454.756   123500995.65507      2822.275          44.600                                                                                                                                    23501453.243    96234568.02607      2199.177          43.700
G20  20694432.291   108750059.97808     -1693.869          51.550    20694432.197   108750066.98708     -1693.897          51.650    20694432.044    84740350.18509     -1319.899          54.900    20694432.267    84740354.18508     -1319.899          51.600    20694434.679    81209524.00609     -1264.969          57.100
G22  21675145.930   113903745.38908     -2141.460          50.350                                                                                                                                    21675144.186    88756203.37207     -1668.669          46.800
G23  22551385.707   118508351.45607       571.605          46.900    22551385.622   118508358.45407       571.727          46.750    22551385.024    92344182.02508       445.408          48.300    22551385.379    92344182.01507       445.407          45.050    22551388.754    88496531.14408       426.734          51.300
G24  20883648.705   109744368.16208      2151.710          50.150                                                                    20883649.608    85515124.06908      1676.659          50.250    20883649.949    85515124.06408      1676.658          50.400    20883649.980    81952002.52009      1606.736          54.950
G30  24574478.277   129139862.23906     -2985.355          40.100                                                                    24574481.206   100628510.72206     -2326.251          38.550    24574481.186   100628536.71706     -2326.252          40.750    24574480.704    96435726.60707     -2229.074          45.950
R03  21012649.784   112482433.48808     -3580.175          51.450    21012651.679    87486373.28908     -2784.581          48.600    21012651.488    87486370.29308     -2784.581          49.050
R04  19141572.845   102502313.08108       136.033          53.400    19141574.151    79724040.81308       105.803          51.650    19141573.998    79724042.81508       105.804          52.300    19141565.640    76748646.01509       101.794          59.100
R05  21569315.548   115300388.27608      3597.851          49.150    21569317.972    89678101.36307      2798.329          46.350    21569317.808    89678106.37207      2798.329          46.950    21569308.414    86482696.66908      2698.643          49.850
R13  21452732.924   114556507.68907     -3357.898          44.350
R14  19249227.059   102609321.72609       279.471          54.650    19249230.416    79807296.87308       217.367          51.300    19249230.447    79807299.87808       217.366          52.250
R15  21919094.942   117129042.12508      3338.866          48.550    21919098.599    91100330.02407      2596.900          45.400    21919098.656    91100372.02707      2596.900          46.000
R22  23682488.244   126418729.42407       846.937          42.950    23682489.938    98325694.60505       658.729          35.650    23682490.155    98325691.60305       658.728          35.500    23682481.686    94955479.58307       636.144          42.500
R23  24147962.800   129175322.96105      2907.131          34.700
E04  23852965.507   125348302.74349     -1314.189          54.450    23852967.084    93604323.85009      -981.404          54.050    23852965.092   101743747.68608     -1066.774          52.300    23852964.541    96046181.70609     -1007.036          54.850    23852965.580    94825265.21109      -994.229          57.800
E05  27844124.401   146321864.96546      2753.226          40.200    27844128.721   109266345.56307      2056.100          42.350    27844123.234   118767744.98106      2234.954          38.850    27844126.350   112116762.88007      2109.856          42.550    27844126.907   110691551.15407      2082.963          45.850
E06  23313692.821   122514381.07749        11.442          54.700    23313695.529    91488078.58009         8.524          55.400    23313691.606    99443522.60008         9.277          53.750    23313693.480    93874710.77409         8.766          56.300    23313694.074    92681389.10709         8.656          59.150
E09  23947653.594   125845814.02749      1317.332          54.400    23947655.729    93975807.13909       983.689          54.250    23947653.374   102147590.48408      1069.279          52.300    23947653.394    96427337.36909      1009.368          55.050    23947654.385    95201560.18509       996.546          58.000
E16  28436958.368   149437227.50246      3120.345          37.550    28436964.092   111592772.80906      2330.014          41.050    28436959.628   121296461.97506      2532.643          37.600    28436961.915   114503874.19006      2390.732          40.700    28436962.390   113048311.92807      2360.404          44.250
E19  27100868.638   142416025.49255     -2774.976          34.500    27100872.539   106349742.36906     -2072.301          37.100                                                                    27100870.069   109124087.96506     -2126.640          36.650    27100870.857   107736929.07906     -2099.144          40.250
E21  27746923.596   145811146.50646     -2773.249          41.550    27746927.186   108885022.29706     -2070.696          41.100    27746924.561   118353225.23406     -2250.970          38.250    27746924.324   111725492.03206     -2124.860          41.600    27746925.357   110305258.59607     -2097.731          44.700
E23  23912887.092   125663150.45149      -796.926          54.500    23912889.447    93839430.91108      -595.190          53.450    23912886.763   101999332.75308      -646.926          51.900    23912887.524    96287398.09809      -610.716          54.600    23912888.223    95063406.43809      -602.960          57.400
E28  25331717.186   133119174.00548     -2251.484          50.850    25331720.575    99407196.94408     -1681.228          49.650    25331717.303   108051305.44807     -1827.402          47.200    25331718.474   102000455.99608     -1725.087          50.350    25331718.899   100703911.90608     -1703.190          53.350
E31  24270674.566   127543336.67748      1960.689          52.400    24270678.023    95243476.77608      1464.094          52.700    24270673.238   103525418.90708      1591.420          50.600    24270675.764    97728083.06508      1502.359          53.250    24270676.741    96485777.85209      1483.214          56.300
E34  28433057.566   149416724.97956     -1237.828          36.950    28433062.204   111577442.80306      -924.139          40.150    28433058.306   121279816.17006     -1004.473          37.750    28433059.610   114488153.73506      -948.222          41.500    28433060.558   113032791.19807      -936.232          44.200
C08  39466945.823   207400216.13206       410.594          41.850    39466945.833   205514766.53507       406.675          42.750    39466947.554   154876808.26107       306.439          45.200    39466946.151   166997592.20207       330.405          42.800    39466944.892   158917050.40606       314.490          41.000
C14  24056836.495   126419550.43907      2211.085          45.250    24056835.320   125270286.72807      2190.891          47.350    24056856.121    94404309.87208      1651.063          48.000    24056827.185   101792347.67507      1780.323          47.600    24056854.359    96867018.31607      1694.111          45.450
C19  26813787.498   140907440.08906     -3597.847          37.550    26813786.859   139626468.50606     -3565.284          40.200    26813794.004   105223143.12006     -2686.733          40.300    26813789.164   113457968.07006     -2897.011          39.850    26813791.611   107968086.49506     -2757.114          36.750
C21  22789342.350   119758843.01508       897.556          51.600    22789341.095   118670125.37808       889.407          53.700    22789342.125    89430361.77409       670.256          54.250    22789338.852    96429208.84808       722.729          52.000    22789339.764    91763287.79508       687.705          50.600
C22  22573578.511   118624983.63508     -2329.967          51.100    22573577.442   117546616.69508     -2308.865          53.250    22573576.856    88583670.03308     -1739.987          53.350    22573574.718    95516276.89108     -1876.168          51.850    22573574.845    90894529.00208     -1785.446          50.850
C26  26713986.830   140382949.15115      3022.365          34.300    26713986.058   139106737.29306      2995.426          37.000    26713991.659   104831452.73106      2257.452          37.000    26713990.312   113035636.74606      2433.975          36.700
C27  26194943.637   137655366.89906       475.867          38.400    26194942.478   136403953.24906       471.658          41.100    26194946.218   102794605.68306       355.415          41.500    26194945.086   110839393.97306       383.422          37.500    26194944.602   105476184.18306       364.875          36.750
C30  26102134.889   137167652.53206      2377.769          39.350    26102133.800   135920664.68606      2356.429          40.300    26102139.514   102430412.05206      1775.652          41.500    26102138.434   110446703.16106      1914.582          38.050    26102137.944   105102503.94206      1822.044          39.400
C36  21988515.241   115550548.12308     -1377.151          52.450    21988514.303   114500098.45909     -1364.616          54.400    21988523.708    86287861.15209     -1028.426          55.700    21988521.340    93040800.28408     -1108.904          53.100    21988521.365    88538750.72808     -1055.233          52.000
C39  22376446.455   117589049.78708      1401.732          52.450    22376443.966   116520118.49208      1388.929          53.650    22376439.755    87810036.65309      1046.689          55.550    22376439.471    94682128.79408      1128.582          52.850    22376437.949    90100726.56308      1073.986          52.000
C42  26147771.243   137407455.50206      3056.093          40.600    26147768.785   136158307.50506      3028.201          41.100    26147783.869   102609542.46207      2282.211          44.300    26147780.287   110639826.27306      2460.705          39.250    26147781.021   105286278.86006      2341.805          38.650
S21  38211415.240   200802156.17207        -2.155          46.400
S36  38097188.949   200202098.81607         1.052          46.100    38097161.177   149501674.34107          .989          45.950
> 2026 05 13 00 03 30.0000000  0 45
G05  24968369.185   131209676.63906     -3763.806          39.850                                                                    24968370.348   102241289.08505     -2932.829          33.700    24968370.838   102241314.07406     -2932.831          40.300
G10  24994844.693   131348800.80506      2538.517          40.000                                                                    24994846.443   102349726.14306      1978.066          40.900    24994847.227   102349728.14506      1978.066          39.900    24994844.879    98085145.39407      1895.654          46.200
G12  24490016.767   128695936.92007      3857.196          43.550                                                                    24490018.047   100282550.10406      3005.609          40.200    24490017.942   100282547.10607      3005.610          43.850
G13  24120125.764   126752118.65606      3618.159          40.550    24120125.800   126752168.62606      3618.634          40.950    24120126.949    98767890.32807      2819.349          43.400    24120127.170    98767904.33606      2819.350          39.700    24120130.146    94652576.76207      2701.874          44.200
G14  22354319.847   117472870.74107     -2674.684          46.450    22354319.587   117472879.74107     -2674.511          46.650    22354319.409    91537348.98308     -2084.170          48.000    22354319.746    91537368.98807     -2084.170          45.500    22354323.012    87723327.63208     -1997.239          50.300
G15  19947552.562   104825141.32608      -700.665          53.750                                                                    19947551.406    81681942.09208      -545.973          53.850    19947551.476    81681941.09508      -545.973          53.900
G17  22917702.254   120433384.94307       943.119          46.650                                                                    22917701.280    93844219.30007       734.899          45.400    22917701.381    93844221.30007       734.899          46.650
G19  23485365.226   123416444.87807      2814.084          45.650                                                                                                                                    23485363.795    96168684.34907      2192.794          43.500
G20  20704147.612   108801114.02908     -1709.879          51.800    20704147.487   108801121.02808     -1709.911          51.800    20704147.330    84780132.55609     -1332.373          54.950    20704147.541    84780136.55308     -1332.373          51.250    20704149.903    81247648.76309     -1276.835          57.400
G22  21687407.457   113968180.32008     -2154.417          50.500                                                                                                                                    21687405.769    88806412.40007     -1678.767          46.450
G23  22548182.108   118491516.15207       550.678          46.850    22548181.997   118491523.14407       550.786          46.750    22548181.353    92331063.59708       429.100          48.450    22548181.687    92331063.60107       429.100          44.400    22548185.200    88483959.31708       411.230          51.800
G24  20871395.925   109679979.29108      2140.683          50.800                                                                    20871396.751    85464950.93808      1668.066          50.300    20871397.094    85464950.93608      1668.065          50.850    20871397.141    81903919.94009      1598.580          55.300
G30  24591524.960   129229442.92706     -2987.084          38.550                                                                    24591527.532   100698313.83906     -2327.600          37.650    24591527.546   100698339.83906     -2327.599          38.750    24591527.711    96502621.23307     -2230.774          46.150
R03  21032757.552   112590071.70408     -3595.778          51.000    21032759.501    87570091.87908     -2796.717          48.750    21032759.298    87570088.88408     -2796.717          49.000
R04  19140883.133   102498619.50708       110.049          53.750    19140884.419    79721168.02908        85.593          51.750    19140884.267    79721170.03008        85.594          52.350    19140875.886    76745880.44509        82.404          59.150
R05  21549158.039   115192634.60308      3585.541          49.000    21549160.292    89594292.97007      2788.754          46.700    21549160.186    89594297.97307      2788.754          47.300    21549150.897    86401874.50908      2689.362          50.350
R13  21471617.311   114657349.52107     -3364.899          44.350
R14  19247707.760   102601223.07509       260.309          54.800    19247711.101    79800997.93808       202.463          51.600    19247711.149    79801000.94108       202.463          52.450
R15  21900380.296   117029038.25108      3327.902          49.300    21900383.892    91022549.28507      2588.369          44.650    21900384.035    91022591.28507      2588.369          44.900
R22  23677794.944   126393676.38206       823.189          41.300    23677796.780    98306208.90906       640.258          36.050    23677797.169    98306205.91006       640.260          36.600    23677788.628    94936661.77607       618.323          43.500
R23  24131696.732   129088318.89005      2892.922          31.800
E04  23860495.339   125387872.25649     -1323.929          54.450    23860496.878    93633872.49609      -988.622          54.350    23860494.931   101775865.78608     -1074.605          52.250    23860494.401    96076501.18709     -1014.433          54.950    23860495.421    94855199.27609     -1001.541          57.850
E05  27828406.288   146239266.26446      2752.971          39.200    27828410.642   109204664.82907      2055.875          42.300    27828405.250   118700700.69506      2234.523          38.000    27828408.497   112053473.08707      2109.455          43.300    27828408.834   110629065.89007      2082.642          45.950
E06  23313656.445   122514189.96349         1.112          54.650    23313659.184    91487935.85609          .805          55.750    23313655.197    99443367.46808          .883          53.700    23313657.107    93874564.32709          .821          56.450    23313657.710    92681244.52509          .828          59.250
E09  23940156.158   125806414.60549      1309.120          54.600    23940158.251    93946385.49709       977.574          54.600    23940155.864   102115610.43708      1062.611          52.250    23940155.887    96397148.20509      1003.066          55.200    23940156.916    95171754.78409       990.325          58.100
E16  28419147.677   149343634.22246      3119.097          37.050    28419153.510   111522882.08406      2329.312          41.050    28419149.517   121220493.67606      2531.662          38.500    28419151.138   114432160.17706      2389.938          40.500    28419151.793   112977509.55707      2359.691          44.200
E19  27116718.731   142499318.72755     -2777.762          34.700    27116722.594   106411941.05406     -2074.497          37.200                                                                    27116719.741   109187909.23806     -2128.661          36.850    27116720.976   107799939.09006     -2101.686          40.350
E21  27762765.369   145894396.27246     -2776.858          41.250    27762768.884   108947189.35706     -2073.882          41.000    27762766.443   118420798.10006     -2254.135          37.900    27762766.023   111789280.83306     -2127.946          41.950    27762767.383   110368236.52407     -2100.843          44.700
E23  23917472.075   125687244.59149      -809.460          54.400    23917474.348    93857423.29208      -604.501          53.800    23917471.638   102018889.69208      -657.050          51.800    23917472.506    96305859.84309      -620.213          54.700    23917473.191    95081633.49909      -612.350          57.500
E28  25344588.778   133186814.82048     -2258.193          50.850    25344592.090    99457707.91508     -1686.317          49.850    25344588.989   108106208.68807     -1832.886          47.200    25344590.160   102052284.64508     -1730.310          50.450    25344590.531   100755081.71508     -1708.332          53.350
E31  24259511.481   127484674.76348      1949.923          52.300    24259515.094    95199670.82308      1456.160          53.150    24259510.188   103477803.73408      1582.786          50.650    24259512.749    97683134.34808      1494.132          53.450    24259513.721    96441400.51909      1475.130          56.550
E34  28440158.826   149454042.68455     -1250.555          35.650    28440163.047   111605309.12406      -933.750          40.650    28440159.723   121310105.63706     -1014.836          37.950    28440160.620   114516747.03106      -958.174          41.650    28440161.734   113061021.00707      -945.986          44.400
C08  39464620.321   207387994.61606       404.178          41.650    39464619.774   205502656.10407       400.383          42.500    39464621.802   154867681.78707       301.898          45.350    39464620.861   166987751.47507       325.520          42.800    39464619.335   158907685.85206       309.659          41.600
C14  24044249.047   126353403.55907      2198.552          45.950    24044248.126   125204741.19708      2178.559          48.350    24044268.094    94354914.48008      1641.835          49.000    24044239.767   101739086.57707      1770.292          47.050    24044266.665    96816334.35407      1684.653          45.900
C19  26834327.986   141015380.91006     -3598.452          39.350    26834327.619   139733427.94506     -3565.709          41.100    26834334.508   105303748.29107     -2687.166          43.100    26834329.592   113544881.44606     -2897.198          39.200    26834331.089   108050730.48916     -2757.393          37.650
C21  22784265.305   119732163.12008       881.000          51.650    22784264.149   118643688.03508       872.890          53.750    22784265.129    89410438.47709       657.834          54.600    22784261.864    96407726.33908       709.308          51.950    22784262.817    91742844.76008       674.954          50.750
C22  22586917.692   118695081.46408     -2343.259          51.250    22586916.616   117616077.26908     -2321.977          53.250    22586916.013    88636015.79608     -1749.915          53.600    22586913.912    95572719.28608     -1886.830          51.800    22586914.048    90948240.30108     -1795.546          51.000
C26  26696735.134   140292291.55506      3020.375          38.900    26696734.490   139016903.80806      2993.109          41.650    26696739.485   104763753.69006      2255.634          36.950    26696738.990   112962639.72406      2432.121          40.850
C27  26192270.014   137641317.38306       460.470          37.500    26192268.792   136390031.49706       456.335          40.550    26192272.629   102784114.19406       343.796          40.250    26192271.985   110828081.42306       370.856          38.050    26192270.128   105465418.98806       352.743          36.900
C30  26088578.579   137096413.29806      2370.989          40.350    26088577.188   135850073.05306      2349.529          41.900    26088583.195   102377213.94407      1770.748          42.200    26088582.348   110389341.69606      1909.226          39.600    26088581.672   105047918.08806      1816.847          39.300
C36  21996403.334   115592000.49308     -1386.492          52.350    21996402.477   114541173.98309     -1373.827          54.600    21996411.762    86318815.83409     -1035.347          55.900    21996409.418    93074177.51308     -1116.422          53.050    21996409.507    88570512.92708     -1062.380          52.100
C39  22368474.807   117547158.49508      1390.974          52.400    22368472.211   116478608.03008      1378.326          53.650    22368468.140    87778754.21509      1038.674          55.900    22368467.831    94648398.15108      1120.010          52.700    22368466.264    90068628.05508      1065.808          52.200
C42  26130342.963   137315868.88006      3049.313          39.800    26130340.275   136067553.49906      3021.739          40.800    26130355.512   102541149.92407      2277.271          42.950    26130351.704   110566081.23906      2455.414          39.500    26130352.791   105216102.15706      2336.798          39.400
S21  38211426.274   200802215.16207        -1.991          46.550
S36  38097183.244   200202069.46507          .753          46.100    38097155.187   149501649.93107          .816          46.300
> 2026 05 13 00 04  0.0000000  0 45
G05  24989851.231   131322563.27607     -3762.732          42.350                                                                    24989852.774   102329252.64207     -2932.000          42.950    24989852.980   102329277.64006     -2932.000          41.950
G10  24980388.678   131272833.10106      2524.814          40.600                                                                    24980390.375   102290530.58906      1967.390          41.150    24980391.153   102290532.58106      1967.390          40.750    24980388.116    98028416.28207      1885.625          44.500
G12  24468004.986   128580263.11907      3853.619          43.300                                                                    24468005.803   100192414.77507      3002.824          42.350    24468005.670   100192411.78207      3002.825          43.800
G13  24099480.975   126643630.76506      3613.744          40.300    24099481.004   126643680.77206      3613.709          40.700    24099482.692    98683354.46407      2815.907          44.150    24099483.000    98683368.46106      2815.908          40.050    24099485.969    94571563.29107      2698.436          46.700
G14  22369614.440   117553244.42007     -2684.324          46.200    22369614.051   117553253.42407     -2684.345          46.400    22369613.856    91599977.83407     -2091.681          47.700    22369614.173    91599997.83107     -2091.680          44.750    22369617.698    87783346.94408     -2004.456          50.350
G15  19951610.003   104846463.12808      -721.372          53.700                                                                    19951608.742    81698556.47409      -562.109          54.050    19951608.798    81698555.47708      -562.109          53.700
G17  22912366.211   120405344.53107       925.618          46.600                                                                    22912365.356    93822369.65507       721.263          46.350    22912365.521    93822371.65307       721.262          46.400
G19  23469320.524   123332129.07507      2806.107          45.200                                                                                                                                    23469318.983    96102983.76507      2186.578          43.650
G20  20713951.995   108852636.38908     -1725.704          51.750    20713951.909   108852643.39008     -1725.668          51.700    20713951.707    84820279.83809     -1344.705          55.150    20713951.940    84820283.83708     -1344.705          51.450    20713954.366    81286123.23909     -1288.600          57.350
G22  21699741.760   114032997.44108     -2167.387          50.700                                                                                                                                    21699740.038    88856919.24907     -1688.872          46.950
G23  22545095.433   118475295.64907       530.074          46.750    22545095.347   118475302.65507       529.962          46.550    22545094.803    92318424.23408       413.045          48.700    22545095.059    92318424.23307       413.045          45.100    22545098.750    88471846.59408       395.865          51.850
G24  20859204.394   109615912.25508      2129.768          50.800                                                                    20859205.187    85415028.59408      1659.560          50.400    20859205.504    85415028.59208      1659.560          50.850    20859205.574    81856077.70109      1590.438          55.250
G30  24608582.093   129319079.72006     -2989.022          39.400                                                                    24608584.714   100768160.66806     -2329.112          38.950    24608584.618   100768186.67706     -2329.109          39.350    24608585.070    96569557.74407     -2232.159          45.250
R03  21052950.832   112698168.51208     -3611.240          51.050    21052952.907    87654167.14108     -2808.743          49.000    21052952.719    87654164.14408     -2808.743          49.350
R04  19140337.183   102495696.00608        84.183          53.650    19140338.458    79718894.18808        65.474          52.050    19140338.348    79718896.18508        65.474          52.700    19140329.874    76743691.46709        63.086          58.950
R05  21529068.458   115085244.60308      3573.104          49.200    21529070.752    89510767.44307      2779.081          46.900    21529070.685    89510772.44607      2779.080          47.550    21529061.375    86321325.12408      2680.147          50.050
R13  21490539.113   114758391.14007     -3371.710          44.100
R14  19246294.944   102593691.75309       241.148          54.800    19246298.341    79795140.25808       187.560          52.000    19246298.306    79795143.26308       187.560          52.900
R15  21881725.515   116929353.48808      3317.077          49.400    21881728.910    90945016.73407      2579.950          45.400    21881729.028    90945058.73607      2579.950          45.850
R22  23673233.885   126369330.19607       799.265          42.100    23673235.955    98287273.01305       621.652          35.800    23673236.180    98287270.01005       621.651          35.200    23673228.099    94918374.93107       600.515          43.200
R23  24115512.675   129001745.33705      2878.716          32.400
E04  23868078.689   125427723.15249     -1333.443          54.350    23868080.173    93663631.26809      -995.727          54.150    23868078.268   101808212.27908     -1082.334          52.250    23868077.799    96107036.28009     -1021.742          54.550    23868078.807    94885346.20609     -1008.733          57.600
E05  27812689.180   146156673.46946      2752.475          40.150    27812693.687   109142988.48907      2055.506          43.650    27812688.000   118633661.15106      2234.253          37.850    27812691.576   111990187.77406      2109.092          41.400    27812692.027   110566585.06407      2082.325          45.900
E06  23313677.938   122514303.02849        -9.174          54.750    23313680.697    91488020.28909        -6.860          55.700    23313676.644    99443459.24408        -7.487          53.650    23313678.625    93874650.96209        -7.054          56.100    23313679.230    92681330.05909        -6.974          59.050
E09  23932704.427   125767255.45249      1300.944          54.700    23932706.622    93917143.27809       971.448          54.600    23932704.083   102083825.41108      1055.963          52.300    23932704.264    96367143.14109       996.824          54.950    23932705.161    95142131.14209       984.141          57.950
E16  28401341.901   149250060.26156      3118.212          39.000    28401347.589   111453010.19006      2328.432          40.500    28401344.199   121144545.85806      2530.943          38.150    28401345.160   114360465.49606      2389.045          40.300    28401346.040   112906726.26907      2358.785          43.600
E19  27132584.323   142582693.39856     -2780.795          36.300    27132588.548   106474201.24906     -2076.579          37.400                                                                    27132585.556   109251793.64106     -2131.072          36.600    27132586.649   107863011.35906     -2103.527          40.200
E21  27778627.743   145977754.46546     -2780.882          40.600    27778631.007   109009437.32906     -2076.434          40.650    27778628.927   118488458.95606     -2257.224          38.050    27778628.549   111853152.66106     -2130.675          41.650    27778629.895   110431296.42407     -2103.564          44.250
E23  23922126.731   125711704.85449      -821.822          54.600    23922128.975    93875689.07508      -613.683          53.750    23922126.212   102038743.80308      -667.059          51.700    23922127.107    96324602.12909      -629.696          54.250    23922127.831    95100137.53609      -621.709          57.250
E28  25357497.662   133254651.26748     -2264.768          51.050    25357500.856    99508364.98308     -1691.249          49.900    25357497.815   108161270.71607     -1838.280          47.000    25357498.997   102104263.19908     -1735.398          49.950    25357499.355   100806399.52308     -1713.325          53.150
E31  24248407.831   127426325.05148      1939.417          52.750    24248411.658    95156098.01508      1448.295          53.200    24248406.642   103430441.97708      1574.203          50.700    24248409.168    97638424.85508      1486.029          53.150    24248410.100    96397259.36809      1467.178          56.400
E34  28447331.493   149491736.05256     -1263.182          37.500    28447335.574   111633456.05706      -943.305          40.200    28447332.304   121340700.08806     -1025.229          38.050    28447333.373   114545628.21706      -967.785          39.800    28447334.347   113089535.07207      -955.534          43.300
C08  39462328.597   207375950.85806       398.202          41.350    39462327.582   205490721.81907       394.737          42.250    39462329.782   154858688.08807       297.284          44.950    39462329.349   166978053.92407       320.521          43.000    39462327.656   158898457.52206       305.118          41.300
C14  24031730.928   126287621.12407      2186.259          46.350    24031730.098   125139556.78908      2166.337          48.400    24031750.183    94305791.27208      1632.584          48.800    24031721.936   101686118.93407      1760.431          47.350    24031749.102    96765929.67707      1675.201          45.650
C19  26854869.976   141123329.80606     -3598.694          37.300    26854869.442   139840395.56506     -3566.128          36.950    26854876.657   105384359.42506     -2687.391          41.600    26854871.513   113631801.40106     -2897.879          37.700    26854874.544   108133444.55506     -2757.707          39.850
C21  22779282.025   119705975.64108       864.289          51.850    22779280.844   118617738.61808       856.456          53.850    22779281.833    89390882.89009       645.411          54.600    22779278.567    96386640.31108       695.959          52.300    22779279.545    91722779.02108       662.280          50.450
C22  22600330.683   118765567.20508     -2356.333          51.200    22600329.570   117685922.23408     -2334.987          53.200    22600328.935    88688651.23608     -1759.602          53.600    22600326.929    95629474.02408     -1897.291          52.050    22600327.059    91002248.84908     -1805.579          50.600
C26  26679497.421   140201705.08306      3017.868          39.700    26679496.460   138927140.85406      2990.635          41.700    26679501.622   104696107.91607      2253.682          42.850    26679500.896   112889699.97406      2430.127          40.750    26679500.212   107427288.83816      2312.477          39.600
C27  26189683.821   137627726.45806       445.230          38.000    26189682.743   136376564.11506       440.581          40.600    26189685.997   102773965.03906       332.414          40.200    26189685.138   110817138.02806       358.489          37.000    26189684.168   105455005.10106       341.249          37.500
C30  26075059.688   137025370.73806      2364.745          38.900    26075058.362   135779676.38906      2342.783          41.850    26075064.505   102324162.76807      1765.657          43.300    26075063.743   110332138.66606      1903.719          40.150    26075062.843   104993482.94906      1811.702          38.200
C36  22004343.032   115633724.02908     -1395.776          52.450    22004342.236   114582518.21009     -1382.985          54.450    22004351.466    86349973.01509     -1042.231          55.850    22004349.145    93107773.07408     -1123.747          53.350    22004349.231    88602482.90208     -1069.427          51.750
C39  22360562.717   117505580.17308      1380.325          52.700    22360559.974   116437407.69308      1367.781          53.650    22360556.118    87747705.48409      1030.789          55.900    22360555.721    94614919.51708      1111.455          53.100    22360554.225    90036769.35508      1057.697          52.000
C42  26112950.621   137224472.84806      3042.648          39.600    26112948.241   135976988.33806      3015.130          41.500    26112963.115   102472899.70507      2272.370          43.300    26112959.317   110492489.69206      2450.289          39.000    26112960.906   105146071.52006      2331.620          39.850
S21  38211435.928   200802266.51407        -2.040          46.650
S36  38097176.407   200202034.68807          .908          46.250    38097149.340   149501626.22807          .485          46.350
> 2026 05 13 00 04 30.0000000  0 45
G05  25011325.677   131435412.63806     -3761.129          39.350                                                                    25011327.964   102417187.02806     -2930.759          41.000    25011328.104   102417212.02306     -2930.761          38.750
G10  24966008.907   131197266.37206      2512.293          41.300                                                                    24966010.277   102231647.46806      1957.634          40.550    24966010.955   102231649.45107      1957.632          42.000    24966008.080    97971986.63507      1876.174          45.550
G12  24446013.707   128464699.59507      3850.116          42.300                                                                    24446014.670   100102365.46606      3000.096          41.700    24446014.601   100102362.47407      3000.096          42.950
G13  24078862.671   126535282.52207      3609.622          42.200    24078862.656   126535332.53007      3609.504          42.550    24078864.999    98598927.45407      2812.699          46.550    24078865.360    98598941.45706      2812.699          41.950    24078867.786    94490654.06607      2695.397          46.100
G14  22384963.810   117633906.40907     -2693.201          46.550    22384963.322   117633915.42207     -2693.352          46.600    22384963.109    91662831.33107     -2098.598          47.400    22384963.436    91662851.32507     -2098.599          44.550    22384967.320    87843581.53808     -2011.216          50.250
G15  19955785.790   104868406.88108      -741.574          53.750                                                                    19955784.399    81715655.49608      -577.850          53.950    19955784.480    81715654.49608      -577.850          53.700
G17  22907129.993   120377829.03107       908.746          46.400                                                                    22907129.417    93800929.04407       708.115          46.200    22907129.564    93800931.04607       708.115          46.550
G19  23453321.840   123248056.03007      2798.773          45.250                                                                                                                                    23453320.323    96037472.34807      2180.863          44.000
G20  20723846.288   108904631.36408     -1740.919          51.650    20723846.153   108904638.37008     -1740.917          51.650    20723845.992    84860795.38509     -1356.562          55.050    20723846.219    84860799.38408     -1356.562          51.100    20723848.681    81324950.63809     -1299.944          57.250
G22  21712149.339   114098199.77608     -2179.603          50.550                                                                                                                                    21712147.647    88907726.26107     -1698.392          46.800
G23  22542126.708   118459695.41007       509.963          46.650    22542126.609   118459702.41507       509.842          46.600    22542126.113    92306268.19708       397.373          48.600    22542126.450    92306268.19307       397.373          45.300    22542130.180    88460197.06408       380.776          51.550
G24  20847075.243   109552173.19208      2119.408          50.850                                                                    20847076.052    85365361.81708      1651.488          50.850    20847076.368    85365361.81308      1651.488          50.900    20847076.402    81808480.37409      1582.662          55.300
G30  24625651.122   129408777.12306     -2990.760          40.500                                                                    24625653.714   100838054.72806     -2330.465          39.500    24625653.620   100838080.72506     -2330.466          40.800    24625653.726    96636539.51407     -2233.269          44.100
R03  21073230.210   112806725.77808     -3626.024          51.600    21073232.225    87738600.54408     -2820.241          48.900    21073232.116    87738597.54608     -2820.242          49.050
R04  19139936.250   102493548.67908        58.818          53.700    19139937.438    79717224.03508        45.747          51.950    19139937.338    79717226.03308        45.747          52.600    19139928.844    76742083.64809        44.085          59.150
R05  21509048.791   114978228.07708      3561.211          48.900    21509050.977    89427532.38007      2769.831          47.100    21509050.975    89427537.38107      2769.831          47.850    21509041.687    86241055.87608      2671.123          50.250
R13  21509498.963   114859635.05907     -3377.924          44.650
R14  19244989.163   102586731.23209       222.749          54.700    19244992.555    79789726.53408       173.250          51.800    19244992.521    79789729.54108       173.251          52.650
R15  21863131.940   116829994.77608      3306.738          49.300    21863135.613    90867737.80607      2571.910          46.200    21863135.653    90867779.80907      2571.910          46.800
R22  23668806.439   126345697.43307       775.831          42.900    23668808.784    98268891.97806       603.424          36.900    23668808.876    98268888.97006       603.422          37.250    23668800.699    94900623.92607       582.859          43.250
R23  24099411.895   128915611.48604      2863.827          28.550
E04  23875716.570   125467860.49549     -1342.458          54.650    23875717.979    93693603.94709     -1002.461          54.100    23875716.133   101840791.28108     -1089.619          51.950    23875715.671    96137790.85009     -1028.607          54.500    23875716.702    94915709.83209     -1015.531          57.700
E05  27796974.437   146074092.48846      2752.704          41.150    27796979.074   109081320.98107      2055.526          42.250    27796973.076   118566631.14906      2234.449          36.400    27796976.889   111926911.50407      2109.191          42.250    27796976.988   110504113.17207      2082.424          45.600
E06  23313758.421   122514725.96649       -19.183          54.850    23313761.192    91488336.11009       -14.258          55.750    23313757.135    99443802.52908       -15.492          53.550    23313759.092    93874975.02309       -14.635          56.100    23313759.708    92681650.00009       -14.441          59.200
E09  23925299.588   125728342.82349      1293.214          54.800    23925301.916    93888085.14309       965.724          54.650    23925299.285   102052240.48808      1049.650          52.100    23925299.594    96337326.97009       990.919          55.000    23925300.324    95112693.98809       978.331          58.100
E16  28383542.026   149156523.81246      3117.560          36.750    28383547.906   111383161.82106      2327.917          41.550    28383544.339   121068623.62106      2530.396          37.250    28383545.698   114288794.96706      2388.719          40.950    28383546.447   112835966.82207      2358.461          44.600
E19  27148466.599   142666154.64655     -2783.122          35.250    27148470.802   106536526.15506     -2078.343          37.600                                                                    27148467.971   109315744.41306     -2132.704          37.200    27148468.946   107926149.21506     -2105.451          40.950
E21  27794511.339   146061224.55246     -2784.035          41.050    27794514.602   109071768.87906     -2078.790          40.750    27794512.756   118556210.62906     -2259.638          37.750    27794512.371   111917110.25806     -2133.279          41.500    27794513.625   110494440.99307     -2105.896          44.400
E23  23926851.825   125736535.23749      -833.573          54.800    23926854.088    93894231.24908      -622.496          53.700    23926851.008   102058898.33608      -676.589          51.300    23926852.173    96343628.01109      -638.738          54.250    23926852.892    95118921.55909      -630.594          57.350
E28  25370444.675   133322687.94448     -2270.978          51.000    25370447.902    99559171.56208     -1695.856          49.950    25370444.701   108216495.28007     -1843.350          46.950    25370445.946   102156395.16708     -1740.076          49.950    25370446.303   100857868.79808     -1717.982          53.250
E31  24237364.803   127368293.39948      1929.344          52.950    24237368.678    95112762.71908      1440.759          53.150    24237363.609   103383338.38508      1565.981          50.600    24237366.133    97593959.06708      1478.277          53.200    24237366.998    96353358.82309      1459.564          56.550
E34  28454576.142   149529807.91646     -1275.052          38.100    28454580.562   111661886.36306      -952.208          40.300    28454577.228   121371602.58606     -1035.045          36.800    28454578.222   114574800.19406      -977.227          40.400    28454579.291   113118336.20507      -964.692          43.750
C08  39460071.536   207364089.90306       392.577          41.250    39460070.306   205478968.70807       388.795          42.300    39460072.424   154849830.88307       293.068          44.900    39460072.472   166968503.54407       316.035          42.850    39460070.686   158889369.25906       300.938          41.350
C14  24019283.600   126222210.18907      2174.318          45.100    24019282.752   125074740.48308      2154.490          48.000    24019303.153    94256945.46008      1623.694          49.800    24019274.036   101633450.38007      1750.805          47.250    24019301.937    96715809.62307      1666.057          46.100
C19  26875413.912   141231290.06206     -3598.566          38.900    26875413.705   139947374.35106     -3565.951          41.300    26875420.273   105464979.13106     -2687.257          37.750    26875415.440   113718730.43806     -2897.501          40.050    26875418.661   108216167.30506     -2757.447          37.800
C21  22774393.628   119680286.75208       848.149          51.800    22774392.383   118592283.26208       840.474          53.650    22774393.465    89371699.62609       633.402          54.600    22774390.179    96365955.74808       682.976          52.050    22774391.154    91703095.32908       649.903          50.450
C22  22613818.153   118836444.30408     -2368.914          51.300    22613817.034   117756154.99308     -2347.322          53.300    22613816.529    88741578.91808     -1768.939          53.700    22613814.344    95686543.88308     -1907.366          51.700    22613814.568    91056557.25208     -1815.066          50.650
C26  26662274.010   140111195.24605      3015.935          34.350    26662272.866   138837453.82706      2988.594          36.650    26662278.862   104628519.49707      2252.107          43.850    26662277.384   112816821.99705      2428.629          35.950    26662277.075   107357937.24906      2310.772          39.750
C27  26187186.028   137614600.01206       429.904          38.950    26187184.955   136363556.99206       425.865          41.550    26187187.527   102764162.82806       321.211          40.150    26187186.871   110806568.71806       345.847          36.300    26187186.110   105444947.18906       329.543          37.700
C30  26061579.608   136954532.48106      2358.208          37.650    26061578.354   135709482.09606      2336.568          41.400    26061584.756   102271264.14207      1760.748          43.050    26061583.898   110275100.09606      1898.766          40.350    26061582.570   104939204.28806      1806.878          37.100
C36  22012335.090   115675722.56308     -1404.325          52.650    22012334.302   114624134.94309     -1391.569          54.150    22012343.578    86381335.55709     -1048.664          55.900    22012341.241    93141590.08108     -1130.730          53.100    22012341.280    88634663.59608     -1076.008          51.750
C39  22352711.173   117464319.99208      1370.217          52.700    22352708.377   116396522.60208      1357.771          53.750    22352704.624    87716894.32909      1023.246          55.900    22352704.161    94581697.04408      1103.355          52.850    22352702.732    90005154.42908      1049.957          52.000
C42  26095596.072   137133274.67006      3036.690          40.900    26095594.048   135886619.23106      3009.213          41.750    26095608.117   102404797.20207      2267.780          43.150    26095604.726   110419057.43306      2445.235          38.700    26095606.756   105076192.44706      2327.170          40.100
S21  38211446.227   200802321.23707        -1.819          46.750
S36  38097170.068   200202000.82607          .900          46.400    38097143.711   149501605.00507          .837          46.250
> 2026 05 13 00 05  0.0000000  0 45
G05  25032791.809   131548217.73706     -3759.465          40.850                                                                    25032794.058   102505087.02405     -2929.452          32.100    25032793.990   102505112.05606     -2929.446          40.500
G10  24951705.252   131122099.26506      2499.014          41.000                                                                    24951706.191   102173075.66406      1947.285          40.700    24951706.960   102173077.66606      1947.285          41.250    24951704.096    97915855.38807      1866.055          46.700
G12  24424043.379   128349244.34007      3846.783          43.000                                                                    24424043.811   100012400.43306      2997.497          40.200    24424043.810   100012397.43107      2997.496          43.150
G13  24058270.978   126427071.96906      3604.646          41.300    24058270.921   126427121.96706      3604.797          41.500    24058272.559    98514607.63306      2808.813          39.600    24058273.017    98514621.62806      2808.814          39.450    24058275.627    94409847.62807      2691.876          42.300
G14  22400367.014   117714850.75407     -2702.693          46.700    22400366.533   117714859.76407     -2702.772          46.650    22400366.390    91725904.83107     -2105.995          47.650    22400366.713    91725924.83607     -2105.994          44.100    22400370.546    87904026.98208     -2018.306          50.100
G15  19960079.117   104890968.36808      -762.304          53.650                                                                    19960077.721    81733235.86508      -594.003          53.800    19960077.783    81733234.86708      -594.003          53.650
G17  22901993.265   120350835.92207       891.051          46.450                                                                    22901992.633    93779895.48807       694.327          45.300    22901992.789    93779897.48907       694.327          46.700
G19  23437369.278   123164225.00407      2790.177          45.200                                                                                                                                    23437367.652    95972149.52507      2174.166          43.150
G20  20733829.633   108957094.34708     -1756.412          51.550    20733829.527   108957101.35408     -1756.649          51.450    20733829.292    84901675.62009     -1368.633          54.450    20733829.534    84901679.61608     -1368.633          51.250    20733832.032    81364127.52709     -1311.682          57.100
G22  21724629.111   114163781.19308     -2192.358          50.250                                                                                                                                    21724627.355    88958828.66907     -1708.330          46.900
G23  22539275.476   118444712.05807       489.222          46.400    22539275.368   118444719.05307       489.359          46.300    22539274.806    92294592.85107       381.211          47.850    22539275.108    92294592.84507       381.211          44.800    22539278.703    88449008.19008       365.323          51.450
G24  20835007.986   109488759.40608      2108.352          50.600                                                                    20835008.787    85315948.49208      1642.872          49.950    20835009.098    85315948.48908      1642.872          50.600    20835009.152    81761125.94509      1574.428          55.300
G30  24642730.907   129498530.72906     -2993.012          38.950                                                                    24642733.444   100907992.55406     -2332.220          38.850    24642733.478   100908018.55906     -2332.219          38.800    24642732.986    96703563.31907     -2234.723          44.700
R03  21093594.445   112915736.55208     -3641.207          51.650    21093596.357    87823386.66608     -2832.050          49.150    21093596.312    87823383.66808     -2832.051          49.450
R04  19139679.684   102492174.95008        32.926          53.250    19139680.831    79716155.57308        25.609          52.150    19139680.734    79716157.57008        25.608          52.750    19139672.306    76741055.07009        24.642          59.000
R05  21489098.692   114871584.84108      3548.583          48.400    21489101.284    89344587.66807      2760.011          47.750    21489101.208    89344592.67308      2760.010          48.650    21489091.826    86161066.61408      2661.615          50.400
R13  21528495.229   114961074.85007     -3384.513          43.150
R14  19243789.561   102580337.14909       203.741          54.300    19243792.951    79784753.36708       158.465          52.050    19243792.924    79784756.37308       158.465          52.800
R15  21844598.905   116730959.27308      3295.838          49.450    21844602.974    90790710.26407      2563.433          46.300    21844602.710    90790752.26807      2563.433          47.100
R22  23664512.713   126322775.87707       752.220          42.250    23664514.311    98251064.11806       585.056          36.000    23664514.916    98251061.09505       585.052          34.950    23664506.480    94883407.15307       564.952          42.950
E04  23883408.275   125508280.42249     -1352.028          54.150    23883409.582    93723787.64009     -1009.602          54.100    23883407.785   101873599.65308     -1097.436          52.100    23883407.335    96168761.95009     -1035.949          55.000    23883408.372    94946287.22709     -1022.767          57.600
E05  27781261.509   145991520.47046      2752.379          40.900    27781265.592   109019660.10506      2055.286          41.850    27781260.292   118499608.48506      2234.044          38.250    27781263.971   111863642.10107      2108.778          42.700    27781263.952   110441648.02707      2082.156          45.200
E06  23313897.246   122515455.57649       -29.421          54.600    23313900.104    91488880.94509       -21.943          55.700    23313895.990    99444394.74208       -23.835          53.750    23313897.926    93875534.07409       -22.533          56.600    23313898.550    92682201.94509       -22.248          59.100
E09  23917941.150   125689673.99249      1284.983          54.400    23917943.588    93859209.07509       959.516          54.650    23917940.770   102020853.45008      1042.964          52.200    23917941.289    96307697.61509       984.530          55.550    23917941.883    95083441.27709       972.025          58.000
E16  28365748.181   149063012.29056      3116.290          38.850    28365754.201   111313335.04806      2327.271          41.700    28365750.292   120992724.83506      2529.599          38.250    28365751.319   114217146.58806      2388.013          39.850    28365752.393   112765229.25207      2357.675          43.900
E19  27164364.414   142749698.09155     -2786.272          35.550    27164368.585   106598912.42406     -2080.546          37.300                                                                    27164365.845   109379758.16006     -2134.816          38.000    27164366.891   107989349.22006     -2107.634          40.700
E21  27810415.563   146144801.27746     -2787.641          41.150    27810418.719   109134180.06106     -2081.633          40.950    27810416.520   118624048.86506     -2262.763          37.550    27810416.526   111981149.53406     -2135.977          41.800    27810417.706   110557666.22507     -2108.822          44.500
E23  23931646.420   125761730.96649      -845.909          54.150    23931648.782    93913046.24708      -631.695          53.750    23931645.389   102079349.42108      -686.645          51.650    23931646.748    96362933.83309      -648.159          54.700    23931647.471    95137981.97509      -639.942          57.250
E28  25383428.902   133390920.59348     -2277.652          50.500    25383432.269    99610124.47608     -1700.897          49.850    25383429.124   108271878.89607     -1848.756          47.350    25383430.105   102208677.29708     -1745.246          50.150    25383430.585   100909486.31808     -1723.039          53.000
E31  24226381.728   127310576.82948      1918.632          52.600    24226385.496    95069662.70508      1432.756          53.000    24226380.561   103336490.53008      1557.334          50.750    24226383.047    97549734.69908      1470.159          53.700    24226383.875    96309696.63209      1451.484          56.400
E34  28461892.007   149568254.08646     -1287.901          39.100    28461896.826   111690596.23806      -961.852          38.650    28461893.302   121402808.92505     -1045.064          35.650    28461894.295   114604258.98006      -986.707          39.250    28461895.106   113147420.53806      -974.290          41.950
C08  39457848.442   207352407.93306       386.419          40.650    39457847.340   205467392.91107       382.992          42.600    39457848.978   154841107.31707       288.559          44.750    39457849.502   166959097.27107       311.221          42.550    39457847.687   158880418.14106       296.145          41.850
C14  24006906.646   126157168.93907      2161.994          44.950    24006905.930   125010290.52807      2142.183          47.250    24006926.104    94208375.71108      1614.366          48.800    24006897.403   101581079.51907      1740.805          47.250    24006924.897    96665972.82207      1656.558          45.600
C19  26895958.929   141339255.75106     -3598.670          39.650    26895959.102   140054358.54306     -3566.342          40.300    26895965.034   105545602.93406     -2687.421          40.350    26895960.660   113805663.85906     -2897.836          40.300    26895963.617   108298894.29806     -2757.620          36.550
C21  22769599.592   119655093.78808       831.565          51.400    22769598.205   118567319.33108       823.978          53.350    22769599.439    89352886.70109       620.923          54.500    22769596.190    96345670.51008       669.538          52.050    22769597.100    91683791.62708       637.167          50.850
C22  22627379.060   118907707.29508     -2381.733          51.100    22627377.974   117826770.13708     -2360.159          53.200    22627377.595    88794794.76508     -1778.570          53.650    22627375.201    95743924.46608     -1917.867          51.650    22627375.520    91111161.34808     -1825.011          51.100
C26  26645064.652   140020759.07006      3013.283          38.650    26645063.214   138747839.78306      2985.993          40.100    26645069.672   104560986.07807      2250.151          42.900    26645066.804   112744003.16805      2426.435          34.850    26645067.499   107288642.05006      2308.963          37.350
C27  26184775.902   137601934.98906       414.443          37.200    26184774.758   136351007.12406       410.820          39.950    26184777.656   102754705.26306       309.553          41.300    26184777.001   110796370.89906       333.973          37.200    26184776.146   105435242.88706       317.525          37.950
C30  26048137.908   136883897.03406      2351.081          37.900    26048136.789   135639488.84306      2329.481          40.750    26048143.338   102218516.98506      1755.741          41.950    26048142.445   110218224.90506      1893.029          39.850    26048140.895   104885081.13106      1801.258          37.350
C36  22020378.550   115717991.11008     -1413.341          52.200    22020377.688   114666019.23609     -1400.506          54.200    22020387.104    86412899.73209     -1055.465          55.850    22020384.731    93175624.49608     -1138.059          53.050    22020384.699    88667051.18808     -1082.966          52.150
C39  22344919.449   117423374.23908      1359.673          52.500    22344916.746   116355949.08808      1347.254          53.700    22344912.936    87686317.97409      1015.293          55.850    22344912.412    94548727.75608      1094.770          52.750    22344911.034    89973780.43208      1041.820          52.450
C42  26078278.961   137042272.64906      3030.149          40.200    26078276.712   135796444.53106      3002.619          40.600    26078291.109   102336841.24007      2262.724          44.050    26078287.548   110345783.12406      2439.822          39.750    26078289.313   105006463.71706      2321.750          39.800
S21  38211456.542   200802377.06407        -1.825          46.400
S23  38279225.131   201158684.92117         3.243          46.700
S36  38097164.189   200201970.41107         1.119          46.000    38097137.179   149501581.29807          .773          46.150
> 2026 05 13 00 05 30.0000000  0 45
G05  25054250.076   131660979.69006     -3757.743          41.000                                                                    25054251.796   102592953.53406     -2928.117          39.850    25054251.689   102592978.54006     -2928.115          41.150
G10  24937478.445   131047338.10206      2484.898          39.350                                                                    24937479.692   102114820.24307      1936.286          42.200    24937480.504   102114822.24406      1936.286          39.400    24937477.817    97860027.28907      1855.852          45.950
G12  24402094.556   128233903.57206      3842.760          41.700                                                                    24402095.029    99922524.61307      2994.364          42.050    24402094.989    99922521.61906      2994.364          41.950
G13  24037706.382   126319004.64206      3599.814          40.350    24037706.315   126319054.62006      3600.276          41.300    24037707.448    98430399.40607      2805.056          44.550    24037708.072    98430413.41106      2805.055          39.600    24037709.682    94329148.06907      2688.165          45.750
G14  22415824.366   117796079.12907     -2712.151          47.150    22415824.006   117796088.14307     -2712.241          46.900    22415823.545    91789199.67107     -2113.364          47.750    22415823.883    91789219.67107     -2113.364          44.400    22415827.692    87964684.54208     -2025.403          49.800
G15  19964490.652   104914151.05208      -782.965          53.550                                                                    19964489.260    81751300.28808      -610.103          53.850    19964489.329    81751299.28908      -610.103          53.600
G17  22896957.144   120324371.02407       873.567          46.400                                                                    22896956.249    93759273.51507       680.702          45.200    22896956.442    93759275.51707       680.703          46.550
G19  23421464.077   123080643.02207      2782.097          44.900                                                                                                                                    23421462.413    95907020.73707      2167.870          43.700
G20  20743902.724   109010028.42008     -1772.263          51.500    20743902.628   109010035.41408     -1772.202          51.650    20743902.316    84942922.94009     -1380.984          54.750    20743902.553    84942926.93608     -1380.984          51.350    20743905.058    81403656.19709     -1323.427          56.850
G22  21737181.290   114229743.36008     -2204.883          50.150                                                                                                                                    21737179.565    89010227.75907     -1718.090          46.850
G23  22536542.529   118430349.87307       468.488          46.800    22536542.411   118430356.87207       468.420          46.850    22536541.674    92283401.51607       365.055          47.900    22536542.046    92283401.51907       365.055          45.350    22536545.594    88438283.16608       349.813          51.050
G24  20823003.574   109425675.86608      2097.396          50.750                                                                    20823004.365    85266792.51108      1634.336          50.800    20823004.693    85266792.51008      1634.335          50.600    20823004.693    81714018.13209      1566.182          55.150
G30  24659821.550   129588343.89506     -2993.856          38.500                                                                    24659824.635   100977976.75106     -2332.878          38.350    24659824.474   100978002.76406     -2332.876          38.650    24659824.197    96770631.60707     -2236.295          45.750
R03  21114043.602   113025202.32008     -3656.295          51.550    21114045.463    87908526.68008     -2843.786          48.950    21114045.409    87908523.68208     -2843.786          49.350
R04  19139568.521   102491579.66708         6.936          53.350    19139569.684    79715692.56808         5.395          52.050    19139569.591    79715694.56508         5.395          52.650    19139561.057    76740609.34509         5.195          59.150
R05  21469220.029   114765322.45908      3535.706          48.850    21469222.754    89261939.16607      2749.994          47.350    21469222.645    89261944.17108      2749.994          48.000    21469213.285    86081363.00808      2651.980          50.400
R13  21547528.391   115062711.57307     -3390.892          44.150
R14  19242696.792   102574512.63709       184.724          54.700    19242700.277    79780223.19908       143.674          51.850    19242700.263    79780226.20408       143.674          52.750
R15  21826127.271   116632252.62308      3284.822          49.250    21826131.242    90713938.47607      2554.863          45.450    21826130.986    90713980.48307      2554.863          46.000
R22  23660353.067   126300570.83107       728.407          43.400    23660354.466    98233793.50406       566.535          36.350    23660354.738    98233790.49105       566.532          35.650    23660346.552    94866728.52007       547.140          42.850
R23  24067453.219   128744651.73515      2833.409          31.950
E04  23891154.469   125548986.78449     -1361.606          54.250    23891155.767    93754185.23008     -1016.785          53.900    23891153.964   101906640.52008     -1105.224          52.200    23891153.534    96199952.52009     -1043.309          55.100    23891154.548    94977081.30809     -1030.047          57.850
E05  27765551.168   145908962.27246      2751.839          41.050    27765554.994   108958009.56706      2054.875          41.050    27765549.830   118432596.99006      2233.567          37.750    27765553.578   111800383.28807      2108.480          42.600    27765553.661   110379193.35407      2081.663          45.200
E06  23314095.297   122516496.39849       -39.811          54.450    23314098.203    91489658.17509       -29.690          55.400    23314094.098    99445239.55708       -32.282          53.750    23314095.991    93876331.57909       -30.474          56.650    23314096.619    92682989.30909       -30.071          59.300
E09  23910630.073   125651254.06449      1276.535          54.300    23910632.568    93830518.87009       953.283          54.350    23910629.661   101989668.44308      1036.186          52.200    23910630.296    96278258.96509       978.141          55.550    23910630.813    95054376.84909       965.719          58.200
E16  28347960.938   148969538.90346      3115.287          39.700    28347966.943   111243533.71906      2326.242          40.400    28347962.865   120916853.73406      2528.602          38.600    28347962.653   114145524.28606      2386.997          40.700    28347964.488   112694517.43407      2356.611          43.950
E19  27180278.375   142833326.99555     -2788.918          33.600    27180282.701   106661362.50906     -2082.769          36.650                                                                    27180280.050   109443837.36306     -2136.859          37.700    27180281.125   108052613.85906     -2109.690          40.600
E21  27826340.607   146228486.94046     -2791.341          41.350    27826343.550   109196672.58306     -2084.363          40.900    27826341.405   118691975.52506     -2265.497          37.750    27826341.378   112045272.31006     -2138.735          41.650    27826342.587   110620973.87807     -2111.545          44.650
E23  23936511.051   125787294.91249      -858.204          54.250    23936513.594    93932136.21508      -640.843          53.550    23936510.148   102100099.37808      -696.572          51.750    23936511.250    96382521.80009      -657.574          54.600    23936512.120    95157320.94009      -649.208          57.400
E28  25396451.097   133459352.62348     -2284.325          50.400    25396454.527    99661226.28208     -1705.820          49.500    25396451.509   108327424.35307     -1854.176          47.300    25396452.108   102261112.20608     -1750.349          50.050    25396452.844   100961254.67408     -1728.058          53.100
E31  24215459.426   127253180.00048      1907.923          52.550    24215463.143    95026801.46008      1424.755          52.750    24215458.343   103289902.21108      1548.659          50.700    24215460.772    97505755.33608      1461.942          53.700    24215461.623    96266276.33209      1443.351          56.600
E34  28469279.813   149607077.18946     -1300.227          37.550    28469284.357   111719587.57906      -971.138          37.800    28469281.165   121434321.25005     -1055.544          34.950    28469282.080   114634006.58006      -996.282          38.550    28469282.651   113176790.00806      -983.782          41.650
C08  39455660.068   207340908.71106       380.376          40.950    39455659.402   205455998.26307       376.921          43.400    39455660.338   154832520.25307       284.026          44.400    39455661.137   166949838.18707       306.279          42.250    39455659.352   158871607.07906       291.406          41.750
C14  23994601.044   126092503.20907      2149.405          46.300    23994600.518   124946212.68508      2129.840          48.050    23994620.789    94160086.40608      1604.992          49.300    23994592.322   101529011.04507      1730.579          47.700    23994619.603    96616423.79607      1646.917          46.250
C19  26916505.346   141447229.11506     -3599.340          36.650    26916505.616   140161350.28306     -3566.256          38.750    26916511.885   105626232.23006     -2687.758          41.350    26916507.382   113892603.32506     -2898.181          36.850    26916510.217   108381627.04306     -2757.999          38.250
C21  22764900.832   119630401.74208       814.781          51.600    22764899.338   118542851.75508       807.372          53.250    22764900.663    89334447.83709       608.438          54.250    22764897.475    96325788.60408       656.054          51.950    22764898.378    91664871.75308       624.300          50.900
C22  22641013.906   118979358.49008     -2394.716          51.100    22641012.681   117897769.95608     -2372.983          52.900    22641012.384    88848300.51208     -1788.308          53.250    22641010.016    95801617.62108     -1928.231          51.600    22641010.332    91166062.89608     -1834.925          51.100
C26  26627870.199   139930401.16506      3010.400          39.400    26627868.843   138658303.30606      2983.147          41.950    26627875.379   104493510.99206      2248.156          39.750    26627872.529   112671247.43406      2424.209          39.850    26627873.039   107219406.69905      2306.854          35.700
C27  26182454.425   137589735.99406       398.855          37.550    26182453.288   136338919.01306       395.363          40.500    26182456.164   102745595.64806       298.034          40.500    26182456.326   110786548.35906       321.440          37.250    26182454.498   105425895.60306       305.788          38.200
C30  26034735.817   136813470.91706      2344.113          37.100    26034734.614   135569702.98706      2322.561          39.050    26034741.170   102165926.14606      1750.464          40.550    26034740.671   110161518.23406      1887.659          38.700    26034738.997   104831118.31706      1796.047          37.850
C36  22028473.914   115760532.39708     -1422.449          52.300    22028472.947   114708173.77808     -1409.579          53.950    22028482.499    86444667.56209     -1062.231          55.550    22028480.135    93209878.51008     -1145.409          53.000    22028480.045    88699647.75008     -1089.992          52.200
C39  22337188.281   117382746.87908      1348.963          52.350    22337185.760   116315691.06208      1336.745          53.800    22337181.828    87655979.37809      1007.355          55.650    22337181.228    94516014.83108      1086.172          52.750    22337179.874    89942650.39308      1033.639          52.550
C42  26061000.428   136951472.90406      3023.662          40.050    26060997.867   135706470.22806      2995.902          41.750    26061012.603   102269036.30907      2257.716          44.250    26061009.387   110272671.71406      2434.336          39.700    26061010.401   104936889.93206      2316.450          40.050
S21  38211466.296   200802431.12907        -1.612          46.400
S36  38097158.576   200201943.57707         1.017          46.200    38097130.032   149501553.87507         1.142          46.000
> 2026 05 13 00 06  0.0000000  0 45
G05  25075697.826   131773690.76906     -3756.072          39.000                                                                    25075700.495   102680780.11306     -2926.818          41.900    25075700.361   102680805.11106     -2926.818          38.700
G10  24923328.716   130972980.65106      2471.721          40.400                                                                    24923330.300   102056879.44806      1926.019          41.400    24923331.086   102056881.44406      1926.019          40.050    24923327.992    97804500.67207      1845.853          45.300
G12  24380167.012   128118674.39607      3839.381          43.650                                                                    24380168.054    99832735.82607      2991.730          42.400    24380167.982    99832732.82407      2991.730          43.400
G13  24017168.497   126211077.74307      3594.948          42.650    24017168.322   126211127.70407      3595.455          42.850    24017170.026    98346300.68407      2801.263          45.050    24017170.405    98346314.68907      2801.263          42.200    24017172.651    94248553.50807      2684.637          46.400
G14  22431334.558   117877584.85207     -2721.597          47.400    22431334.404   117877593.86007     -2721.579          47.550    22431333.461    91852710.63007     -2120.724          46.850    22431333.798    91852730.63507     -2120.724          43.350    22431337.687    88025549.19508     -2032.255          50.100
G15  19969019.456   104937950.05708      -803.559          53.800                                                                    19969018.022    81769844.95308      -626.150          53.400    19969018.094    81769843.95608      -626.150          53.750
G17  22892020.838   120298430.85707       855.846          46.550                                                                    22892019.881    93739060.43807       666.894          45.050    22892020.086    93739062.43607       666.894          46.350
G19  23405605.986   122997308.13707      2773.576          45.250                                                                                                                                    23405604.315    95842084.49907      2161.229          44.100
G20  20754064.353   109063428.21708     -1787.807          51.550    20754064.285   109063435.22208     -1787.776          51.550    20754063.967    84984533.15709     -1393.097          54.400    20754064.216    84984537.15308     -1393.097          50.900    20754066.738    81443532.66009     -1335.011          56.850
G22  21749804.641   114296079.54108     -2217.454          50.200                                                                                                                                    21749802.953    89061918.29007     -1727.886          46.350
G23  22533926.938   118416604.61407       447.886          47.250    22533926.936   118416611.63007       447.656          47.100    22533926.070    92272690.92708       349.003          48.400    22533926.431    92272690.92507       349.003          44.550    22533929.835    88428018.84508       334.386          51.050
G24  20811061.310   109362919.15908      2086.315          50.900                                                                    20811062.189    85217891.20108      1625.701          50.550    20811062.517    85217891.19708      1625.700          50.600    20811062.522    81667154.37709      1558.040          55.200
G30  24676922.683   129678211.71706     -2996.347          38.650                                                                    24676925.701   101048003.62805     -2334.813          35.850    24676925.680   101048029.62106     -2334.814          39.250    24676925.914    96837740.60507     -2237.579          46.100
R03  21134576.096   113135115.00508     -3671.204          51.250    21134578.125    87994014.28208     -2855.382          48.700    21134578.024    87994011.28508     -2855.382          48.950
R04  19139602.112   102491759.30508       -18.890          53.250    19139603.293    79715832.28308       -14.691          51.850    19139603.144    79715834.28008       -14.692          52.350    19139594.546    76740743.84409       -14.134          59.000
R05  21449412.706   114659440.59208      3523.011          48.750    21449415.431    89179586.61407      2740.121          47.650    21449415.245    89179591.62108      2740.121          48.350    21449405.659    86001944.80908      2642.443          50.200
R13  21566597.422   115164538.39307     -3397.353          43.850
R14  19241709.803   102569251.71309       165.964          54.400    19241713.317    79776131.38008       129.084          51.700    19241713.314    79776134.38608       129.084          52.650
R15  21807716.553   116533871.47508      3273.900          48.600    21807720.199    90637419.84907      2546.368          45.750    21807720.069    90637461.84607      2546.368          46.100
R22  23656326.898   126279079.11207       704.540          42.800    23656328.701    98217077.73605       547.977          35.000    23656328.628    98217074.73705       547.977          34.100    23656320.800    94850585.68207       529.091          43.000
R23  24051603.823   128659853.67105      2819.248          35.950
E04  23898954.241   125589975.00749     -1370.932          54.100    23898955.624    93784793.30408     -1023.752          53.950    23898953.876   101939910.16608     -1112.743          52.350    23898953.354    96231359.06709     -1050.440          54.950    23898954.355    95008088.61709     -1037.104          57.700
E05  27749842.792   145826414.24346      2751.403          40.350    27749846.409   108896366.64006      2054.539          41.350    27749841.691   118365593.79706      2233.132          38.550    27749844.947   111737132.26507      2108.168          42.350    27749845.289   110316746.38107      2081.361          45.000
E06  23314351.838   122517844.47649       -50.129          54.850    23314354.683    91490664.85509       -37.430          55.400    23314350.683    99446333.77608       -40.651          53.800    23314352.547    93877364.51909       -38.389          56.600    23314353.161    92684009.12209       -37.940          59.150
E09  23903365.694   125613079.55849      1268.397          54.600    23903368.172    93802011.93709       947.130          54.400    23903365.215   101958682.64708      1029.534          52.350    23903365.940    96249008.37709       971.837          55.450    23903366.454    95025498.09009       959.499          58.050
E16  28330179.085   148876096.13246      3114.160          38.850    28330184.769   111173755.20406      2325.461          41.400    28330180.827   120841007.48406      2527.683          37.850    28330181.060   114073925.46407      2386.350          42.100    28330182.699   112623828.77107      2355.729          45.000
E19  27196207.857   142917036.16955     -2791.957          34.950    27196211.824   106723872.51106     -2084.757          37.550                                                                    27196209.669   109507978.06406     -2138.956          38.100    27196210.510   108115939.23106     -2111.855          41.050
E21  27842285.128   146312275.50146     -2794.545          41.900    27842288.200   109259241.97706     -2086.899          41.150    27842286.082   118759985.74606     -2268.379          37.900    27842285.791   112109473.95506     -2141.355          41.850    27842287.091   110684359.39407     -2114.114          44.650
E23  23941444.677   125813221.48549      -870.254          54.150    23941447.369    93951496.97408      -649.866          53.550    23941443.938   102121143.68108      -706.407          51.850    23941444.761    96402387.61909      -666.819          54.450    23941445.770    95176934.22709      -658.355          57.250
E28  25409510.246   133527978.99648     -2290.757          50.650    25409513.617    99712473.22108     -1710.657          49.250    25409510.760   108383127.55307     -1859.411          47.250    25409511.214   102313696.02008     -1755.241          50.100    25409512.075   101013170.05508     -1732.952          52.900
E31  24204597.262   127196099.14748      1897.444          52.800    24204600.931    94984176.17008      1416.900          52.900    24204596.227   103243570.37108      1540.099          50.900    24204598.588    97462018.08308      1453.845          53.650    24204599.495    96223095.06209      1435.363          56.450
E34  28476738.099   149646271.33546     -1312.801          37.150    28476742.723   111748855.93306      -980.107          37.300                                                                    28476740.521   114664038.51106     -1005.775          38.250    28476741.153   113206440.15106      -993.027          41.150
C08  39453505.621   207329587.76106       374.224          41.400    39453505.399   205444780.21807       370.824          43.550    39453505.855   154824066.28507       279.525          44.700    39453506.535   166940722.59107       301.548          42.050    39453504.863   158862932.57906       286.743          41.500
C14  23982366.528   126028210.44407      2137.029          46.350    23982365.679   124882504.39408      2117.503          48.650    23982385.620    94112075.58408      1595.715          48.550    23982357.624   101477242.85307      1720.625          47.550    23982384.346    96567160.52007      1637.320          45.750
C19  26937052.305   141555203.66006     -3599.263          39.600    26937052.416   140268343.22506     -3565.909          40.000    26937058.971   105706862.36606     -2687.697          40.000    26937053.975   113979543.77606     -2898.251          38.150    26937057.120   108464360.59106     -2757.759          38.600
C21  22760296.734   119606207.17208       798.109          51.800    22760295.274   118518877.12508       790.939          53.650    22760296.515    89316380.45509       596.020          54.250    22760293.303    96306307.25408       642.656          52.050    22760294.295    91646333.04708       611.580          50.850
C22  22654721.389   119051391.67608     -2407.524          51.200    22654720.067   117969148.29508     -2385.614          53.000    22654719.730    88902091.50808     -1797.774          53.200    22654717.641    95859618.35408     -1938.498          51.700    22654717.795    91221257.13908     -1844.672          51.000
C26  26610689.868   139840117.44805      3008.313          35.700    26610688.457   138568840.42706      2980.589          37.850    26610694.566   104426091.33206      2246.533          40.150    26610692.401   112598551.57906      2422.178          40.100    26610692.477   107150228.30506      2305.014          38.350
C27  26180220.857   137577999.11006       383.387          38.800    26180219.845   136327288.83206       379.719          40.800    26180222.757   102736831.11306       286.191          40.750    26180222.561   110777097.90306       308.678          36.850    26180221.681   105416902.43706       293.703          37.700
C30  26021373.326   136743252.08006      2337.624          38.700    26021371.951   135500122.41406      2315.875          39.800    26021378.114   102113489.99906      1745.383          39.600    26021378.200   110104978.38406      1881.742          38.550    26021377.010   104777314.28606      1790.888          39.200
C36  22036620.087   115803340.66208     -1431.430          52.550    22036619.024   114750592.87609     -1418.317          54.050    22036628.598    86476634.76909     -1068.892          55.550    22036626.304    93244347.50008     -1152.549          53.050    22036626.223    88732448.88108     -1096.762          52.100
C39  22329516.822   117342433.40708      1338.521          52.550    22329514.438   116275744.08309      1326.372          54.050    22329510.497    87625875.18309       999.558          55.800    22329509.822    94483554.64508      1077.791          52.900    22329508.438    89911760.86908      1025.622          52.450
C42  26043759.757   136860873.04806      3016.449          40.150    26043757.503   135616694.00606      2989.345          41.950    26043771.911   102201380.62907      2252.630          43.300    26043769.135   110199721.22806      2428.797          40.550    26043769.617   104867469.30106      2311.453          40.150
S21  38211475.245   200802477.23507        -1.485          46.500
S36  38097151.763   200201910.20307         1.166          46.100    38097123.573   149501526.09807          .733          46.000
> 2026 05 13 00 06 30.0000000  0 45
G05  25097137.078   131886353.31307     -3754.721          42.700                                                                    25097139.593   102768568.96706     -2925.754          38.250    25097139.495   102768593.96707     -2925.758          43.000
G10  24909257.021   130899033.53706      2458.058          41.300                                                                    24909258.530   101999258.33606      1915.370          39.750    24909259.131   101999260.33106      1915.370          41.050    24909256.589    97749280.46207      1835.475          45.000
G12  24358262.183   128003563.26007      3834.988          43.550                                                                    24358263.060    99743038.93106      2988.305          41.750    24358262.986    99743035.92807      2988.306          43.800
G13  23996658.526   126103297.10606      3590.432          40.600    23996658.211   126103347.13706      3590.127          41.050    23996660.240    98262315.92507      2797.746          43.700    23996660.510    98262329.91106      2797.743          39.350    23996663.135    94168068.16707      2680.928          45.400
G14  22446897.840   117959369.88307     -2730.769          47.250    22446897.892   117959378.88607     -2730.675          47.350    22446896.677    91916439.22907     -2127.871          47.350    22446897.008    91916459.22807     -2127.872          43.550    22446900.997    88086622.43708     -2039.280          49.600
G15  19973666.253   104962369.28508      -824.243          53.750                                                                    19973664.781    81788872.91808      -642.268          53.600    19973664.866    81788871.91708      -642.268          53.650
G17  22887185.434   120273020.76107       838.206          46.900                                                                    22887184.471    93719260.38907       653.148          45.900    22887184.724    93719262.38807       653.148          47.300
G19  23389796.271   122914227.59207      2764.955          45.400                                                                                                                                    23389794.559    95777346.45107      2154.511          42.750
G20  20764315.276   109117297.06008     -1803.527          51.950    20764315.224   109117304.05008     -1803.433          51.900    20764314.910    85026508.86009     -1405.347          54.600    20764315.151    85026512.85808     -1405.347          51.100    20764317.670    81483759.36809     -1346.745          56.550
G22  21762499.473   114362791.46808     -2229.986          50.200                                                                                                                                    21762497.829    89113901.60407     -1737.652          46.450
G23  22531429.532   118403480.80107       427.022          47.050    22531429.574   118403487.79407       427.178          47.000    22531428.732    92262464.55907       332.744          47.900    22531429.076    92262464.56007       332.745          44.550    22531432.337    88418218.56808       318.982          50.900
G24  20799182.235   109300494.47508      2075.220          51.100                                                                    20799183.195    85169248.60808      1617.056          50.550    20799183.528    85169248.60408      1617.055          51.100    20799183.506    81620538.56809      1549.724          54.950
G30  24694035.010   129768137.64706     -2998.642          39.600                                                                    24694037.825   101118075.81606     -2336.604          37.600    24694037.760   101118101.81406     -2336.604          39.900    24694038.464    96904893.04507     -2239.206          44.250
R03  21155192.407   113245475.77808     -3686.174          51.400    21155194.536    88079850.40008     -2867.026          49.000    21155194.419    88079847.40208     -2867.026          49.300
R04  19139781.330   102492719.03508       -45.053          53.450    19139782.589    79716578.73208       -35.042          52.100    19139782.413    79716580.73308       -35.042          52.600    19139773.767    76741462.43409       -33.729          58.950
R05  21429678.035   114553947.36408      3509.919          48.950    21429680.682    89097536.34407      2729.937          47.600    21429680.592    89097541.35208      2729.938          48.250    21429671.057    85922818.12708      2632.651          50.400
R13  21585702.282   115266556.44707     -3403.867          44.200
R14  19240829.223   102564557.67309       147.066          54.550    19240832.826    79772480.47108       114.385          51.850    19240832.708    79772483.47808       114.385          52.800
R15  21789367.748   116435821.57408      3262.757          49.350    21789371.457    90561158.87107      2537.702          46.050    21789371.401    90561200.87507      2537.702          46.550
R22  23652435.658   126258306.77907       680.214          42.400    23652437.332    98200921.43506       529.054          36.250    23652437.340    98200918.43306       529.053          36.050    23652429.321    94834983.17806       511.169          41.850
R23  24035838.058   128575511.81805      2803.705          34.750
E04  23906808.462   125631249.15849     -1380.631          54.550    23906809.852    93815614.89508     -1030.995          53.600    23906808.229   101973411.90308     -1120.621          52.250    23906807.497    96262984.70609     -1057.906          54.600    23906808.586    95039312.23109     -1044.443          57.550
E05  27734137.274   145743881.53046      2750.685          39.450    27734140.838   108834735.11806      2054.157          41.200    27734136.141   118298603.00506      2232.624          38.200    27734139.296   111673892.99006      2107.683          41.600    27734139.881   110254310.99007      2080.899          44.900
E06  23314667.790   122519504.58449       -60.650          54.950    23314670.542    91491904.54409       -45.252          55.150    23314666.583    99447681.26308       -49.192          53.700    23314668.487    93878636.54609       -46.414          56.250    23314669.071    92685264.97709       -45.825          59.050
E09  23896149.021   125575155.83349      1259.943          54.700    23896151.489    93773692.27409       940.850          54.000    23896148.629   101927900.40108      1022.676          52.350    23896149.194    96219949.94009       965.369          55.100    23896149.812    94996809.03909       953.115          58.000
E16  28312404.583   148782689.43546      3112.938          40.550    28312409.756   111104003.65006      2324.637          41.700    28312405.330   120765190.46806      2526.648          37.200    28312407.001   114002354.30106      2385.297          41.050    28312407.984   112553167.40707      2354.927          44.750
E19  27212153.017   143000829.91355     -2794.482          35.300    27212156.940   106786444.94606     -2086.919          37.100                                                                    27212155.097   109572182.83606     -2141.102          37.750    27212155.791   108179327.82706     -2114.060          40.750
E21  27858249.771   146396169.67046     -2798.151          41.900    27858252.870   109321890.21706     -2089.649          40.700    27858250.701   118828081.64106     -2271.260          38.100    27858250.486   112173756.49306     -2144.144          41.700    27858251.686   110747824.78207     -2116.837          44.750
E23  23946447.888   125839513.80649      -882.547          54.500    23946450.614    93971130.85208      -659.022          53.200    23946447.328   102142484.84408      -716.306          51.900    23946447.949    96422533.68309      -676.238          54.250    23946449.017    95196824.19909      -667.638          57.150
E28  25422607.134   133596803.39548     -2297.462          50.900    25422610.269    99763868.03908     -1715.604          48.800    25422607.555   108438991.49607     -1864.840          46.900    25422608.085   102366431.57408     -1760.370          49.850    25422608.942   101065235.23908     -1737.992          52.750
E31  24193796.216   127139339.24648      1886.580          53.200    24193799.867    94941790.55108      1408.840          52.750    24193795.199   103197499.03408      1531.351          50.750    24193797.508    97418526.74808      1445.556          53.300    24193798.413    96180156.58409      1427.192          56.500
E34  28484267.691   149685837.33256     -1325.095          36.350    28484272.099   111778403.49306      -989.616          37.500                                                                    28484270.168   114694356.88006     -1015.409          38.800    28484270.940   113236373.12206     -1002.696          41.600
C08  39451385.904   207318449.09906       368.038          41.950    39451385.998   205433742.82007       364.908          43.550    39451386.409   154815748.45907       275.002          44.750    39451386.523   166931753.81607       296.468          42.450    39451385.081   158854397.76906       282.066          41.200
C14  23970204.171   125964296.79707      2123.838          45.400    23970203.219   124819171.74708      2104.778          48.350    23970223.761    94064347.87908      1586.161          48.800    23970196.024   101425779.94007      1710.279          47.800    23970222.688    96518187.73707      1627.597          46.050
C19  26957600.102   141663181.85106     -3599.298          38.950    26957599.997   140375339.82306     -3566.577          40.600    26957606.619   105787495.24206     -2687.675          37.850    26957601.567   114066487.13706     -2898.155          39.350    26957604.707   108547096.94406     -2757.828          37.900
C21  22755788.317   119582515.30908       781.310          51.900    22755786.969   118495400.64508       774.257          53.950    22755788.037    89298688.48708       583.404          53.950    22755784.892    96287230.69408       629.119          52.400    22755785.900    91628179.54308       598.722          50.600
C22  22668501.994   119123809.29008     -2420.298          51.150    22668500.696   118040907.56908     -2398.390          53.300    22668500.295    88956169.58508     -1807.397          53.100    22668498.318    95917928.62508     -1948.841          51.900    22668498.429    91276745.94208     -1854.521          50.750
C26  26593524.241   139749912.83706      3005.144          37.850    26593522.471   138479455.83706      2977.948          39.200    26593528.659   104358730.85406      2244.287          41.950    26593527.294   112525919.42606      2419.867          36.650    26593526.979   107081110.62006      2302.870          39.750
C27  26178076.302   137566729.40006       367.760          36.950    26178075.400   136316121.57506       364.485          39.800    26178079.068   102728415.45706       274.737          39.650    26178077.877   110768023.63706       295.884          36.700    26178076.597   105408267.22306       281.857          37.350
C30  26008051.856   136673247.00606      2329.946          39.800    26008050.381   135430753.76806      2308.693          41.200    26008056.487   102061213.53606      1739.831          41.100    26008056.840   110048610.70406      1876.000          39.950    26008055.547   104723674.12106      1785.181          38.750
C36  22044817.602   115846418.89508     -1440.443          52.450    22044816.523   114793279.49309     -1427.321          54.350    22044826.089    86508803.57709     -1075.661          55.200    22044823.798    93279033.86608     -1159.846          53.350    22044823.819    88765456.87508     -1103.733          51.800
C39  22321905.892   117302438.08908      1327.908          52.700    22321903.649   116236112.36609      1315.739          54.350    22321899.689    87596008.56709       991.551          55.600    22321898.984    94451350.63908      1069.156          53.250    22321897.539    89881115.12308      1017.430          52.100
C42  26026558.284   136770479.39206      3009.625          40.000    26026556.385   135527122.14806      2982.211          41.400    26026570.540   102133878.94107      2247.512          44.150    26026567.774   110126936.78906      2423.301          40.000    26026568.611   104798206.73006      2306.094          40.200
S21  38211485.048   200802527.45307        -1.753          46.700
S36  38097144.093   200201868.65807         1.095          46.250    38097118.087   149501503.85607          .967          45.850
> 2026 05 13 00 07  0.0000000  0 45
G05  25118565.798   131998960.49606     -3752.400          38.800                                                                    25118567.767   102856314.84806     -2923.955          37.700    25118567.686   102856339.85606     -2923.953          38.350
G10  24895263.273   130825495.89006      2444.580          40.850                                                                    24895264.281   101941956.29706      1904.867          39.100    24895265.009   101941958.29206      1904.868          41.100    24895262.568    97694366.00607      1825.341          44.800
G12  24336379.350   127888569.00807      3831.036          42.600                                                                    24336379.891    99653433.11406      2985.226          41.800    24336379.795    99653430.10807      2985.225          42.550
G13  23976175.808   125995661.29907      3585.478          42.400    23976175.571   125995711.32907      3585.171          42.350    23976177.250    98178443.95307      2793.883          43.800    23976177.595    98178457.95506      2793.883          40.300    23976180.241    94087690.88707      2677.370          44.000
G14  22462513.096   118041428.90807     -2740.054          46.800    22462513.258   118041437.90307     -2739.837          46.850    22462512.061    91980381.32507     -2135.107          47.500    22462512.338    91980401.32307     -2135.108          44.400    22462516.140    88147900.26408     -2045.951          48.950
G15  19978430.407   104987405.04908      -844.876          53.900                                                                    19978428.934    81808381.30008      -658.345          53.600    19978429.030    81808380.29908      -658.345          53.900
G17  22882450.538   120248138.84007       820.395          46.850                                                                    22882449.714    93699871.91307       639.271          45.650    22882449.907    93699873.91007       639.271          46.950
G19  23374034.958   122831401.31607      2756.509          45.950                                                                                                                                    23374033.254    95712806.54607      2147.931          42.850
G20  20774654.710   109171630.86108     -1818.850          52.100    20774654.699   109171637.86808     -1818.871          52.050    20774654.363    85068846.87409     -1417.286          54.600    20774654.602    85068850.87208     -1417.286          50.550    20774657.160    81524333.30509     -1358.292          56.600
G22  21775264.764   114429873.75608     -2242.206          50.200                                                                                                                                    21775263.149    89166173.52107     -1747.174          45.950
G23  22529049.860   118390975.51207       406.425          46.750    22529049.803   118390982.51307       406.552          46.900    22529048.948    92252720.15707       316.694          47.550    22529049.327    92252720.15907       316.694          44.950    22529052.714    88408880.20508       303.507          50.750
G24  20787365.936   109238399.76508      2064.313          51.100                                                                    20787366.971    85120863.13808      1608.557          50.750    20787367.289    85120863.13508      1608.556          51.150    20787367.186    81574169.16709      1541.494          55.100
G30  24711157.834   129858117.95606     -3000.296          39.300                                                                    24711160.718   101188190.35006     -2337.892          39.650    24711160.730   101188216.35306     -2337.891          39.350    24711160.736    96972086.12507     -2240.484          42.100
R03  21175891.405   113356278.29108     -3700.771          51.400    21175893.395    88166030.10708     -2878.379          48.050    21175893.320    88166027.10908     -2878.379          48.600
R04  19140105.767   102494456.32308       -71.029          53.350    19140107.067    79717929.94608       -55.245          51.550    19140106.890    79717931.94808       -55.245          52.000    19140098.198    76742763.22009       -53.110          59.100
R05  21410016.068   114448843.17508      3496.922          48.600    21410018.381    89015788.66407      2719.828          46.600    21410018.441    89015793.66607      2719.828          46.950    21410009.157    85843983.24408      2622.946          50.700
R13  21604841.798   115368759.80807     -3409.808          43.650
R14  19240054.172   102560426.01709       128.363          54.700    19240057.677    79769266.97208        99.839          51.150    19240057.557    79769269.97908        99.839          51.950
R15  21771080.715   116338101.24908      3251.845          49.300    21771084.391    90485154.21907      2529.214          45.300    21771084.394    90485196.22207      2529.214          45.800
R22  23648678.620   126238251.16007       656.539          42.350    23648680.429    98185322.59106       510.642          36.700    23648680.539    98185319.59106       510.644          37.700    23648671.859    94819918.99107       493.025          42.100
R23  24020155.532   128491626.95005      2788.118          32.500
E04  23914716.516   125672805.97949     -1389.938          54.700    23914717.824    93846647.57208     -1037.905          53.650    23914716.246   102007143.08308     -1128.199          51.650    23914715.436    96294826.93309     -1065.020          54.450    23914716.611    95070749.68409     -1051.450          57.650
E05  27718434.473   145661361.86646      2750.304          39.900    27718437.891   108773113.36907      2053.995          42.050    27718433.297   118231622.82206      2232.354          37.550    27718435.664   111610663.65306      2107.540          41.850    27718436.747   110191885.44807      2080.681          45.650
E06  23315042.627   122521474.14749       -70.786          55.050    23315045.373    91493375.32109       -52.875          55.250    23315041.379    99449279.93808       -57.485          53.200    23315043.326    93880145.69209       -54.278          56.250    23315043.864    92686754.93909       -53.563          59.300
E09  23888979.687   125537480.86049      1251.621          55.000    23888982.123    93745558.36609       934.645          54.150    23888979.357   101897320.06708      1015.897          51.900    23888979.774    96191082.10409       959.001          55.050    23888980.505    94968308.16609       946.835          58.150
E16  28294636.057   148689316.84046      3111.554          38.950    28294641.592   111034277.51706      2323.756          40.250    28294636.732   120689401.13506      2525.921          38.350    28294638.783   113930809.16606      2384.281          40.000    28294639.402   112482531.76907      2354.028          43.700
E19  27228113.978   143084699.70455     -2796.719          35.500    27228117.513   106849077.16006     -2088.745          37.100                                                                    27228115.567   109636448.98706     -2143.358          37.500    27228116.306   108242777.01806     -2116.210          40.900
E21  27874233.609   146480164.74046     -2801.385          41.800    27874236.567   109384613.78706     -2092.166          40.600    27874234.487   118896259.44306     -2273.824          37.500    27874234.348   112238116.32606     -2146.602          41.750    27874235.431   110811366.48407     -2119.368          44.800
E23  23951519.911   125866167.64449      -894.501          54.400    23951522.520    93991034.69508      -667.943          53.150    23951519.502   102164119.46408      -726.072          51.300    23951520.084    96442956.75609      -685.366          54.300    23951521.055    95216987.65709      -676.652          57.300
E28  25435740.983   133665822.14448     -2303.921          50.700    25435744.000    99815407.98508     -1720.431          49.050    25435741.221   108495013.19207     -1870.077          46.350    25435741.967   102419316.03708     -1765.275          49.800    25435742.757   101117447.44408     -1742.872          53.000
E31  24183055.779   127082897.83148      1876.045          53.350    24183059.428    94899642.76408      1400.960          52.850    24183054.671   103151686.21508      1522.758          50.200    24183057.112    97375279.44808      1437.469          53.400    24183057.928    96137459.03909      1419.214          56.700
E34  28491867.728   149725775.46855     -1337.156          34.750    28491871.824   111808226.79305      -998.800          35.500                                                                    28491869.994   114724958.15205     -1025.019          35.800    28491870.543   113266585.40006     -1011.911          39.400
C08  39449300.377   207307489.53606       362.313          41.800    39449300.534   205422882.91207       358.851          43.350    39449301.374   154807564.37807       270.564          45.250    39449300.565   166922929.22906       291.809          40.800    39449299.483   158846000.18206       277.568          41.050
C14  23958113.794   125900760.98807      2111.449          45.700    23958112.888   124756213.53907      2092.260          47.400    23958132.859    94016902.29908      1576.719          49.200    23958105.013   101374621.21807      1700.207          46.400    23958131.874    96469504.44707      1617.902          46.150
C19  26978147.526   141771158.77406     -3599.457          36.950    26978147.586   140482335.13506     -3566.561          39.300    26978153.908   105868127.18006     -2687.619          37.650    26978149.331   114153429.37506     -2898.068          38.050    26978152.042   108629832.30905     -2757.716          35.400
C21  22751375.134   119559324.04908       764.620          52.100    22751373.949   118472420.21308       757.696          53.850    22751374.870    89281370.33709       570.999          54.000    22751371.714    96268557.20908       615.686          50.750    22751372.730    91610409.61808       585.892          50.550
C22  22682354.897   119196606.56608     -2432.886          51.550    22682353.576   118113043.03908     -2410.795          53.200    22682353.312    89010531.16408     -1816.814          53.250    22682351.089    95976544.59408     -1958.979          50.050    22682351.285    91332525.65708     -1864.173          50.600
C26  26576373.653   139659784.94206      3003.051          39.950    26576372.020   138390147.25607      2975.678          42.550    26576377.571   104291427.60106      2242.413          41.350    26576376.747   112453348.77405      2417.886          35.650    26576376.239   107012051.61706      2301.064          36.550
C27  26176020.198   137555924.33906       351.717          39.650    26176019.219   136305414.74906       348.787          41.500    26176022.196   102720346.78006       263.254          40.050    26176021.075   110759323.48705       283.618          34.550    26176020.971   105399988.07106       270.072          38.200
C30  25994770.942   136603455.04806      2322.732          38.700    25994769.489   135361596.30106      2301.520          41.500    25994776.052   102009096.22206      1734.481          41.850    25994775.782   109992414.60306      1870.282          38.050    25994774.399   104670197.24306      1779.702          38.500
C36  22053065.578   115889762.69708     -1449.250          52.300    22053064.614   114836229.26409     -1436.093          54.250    22053074.139    86541170.70409     -1082.225          55.300    22053071.835    93313934.07208     -1166.947          51.700    22053071.894    88798668.36108     -1110.453          51.750
C39  22314354.951   117262757.79008      1317.329          52.900    22314352.766   116196792.78909      1305.367          54.050    22314348.788    87566377.18609       983.742          55.700    22314348.072    94419400.27208      1060.764          51.650    22314346.566    89850710.74208      1009.426          52.150
C42  26009395.848   136680290.96706      3003.087          40.800    26009393.995   135437753.58406      2975.586          41.950    26009408.339   102066530.49707      2242.308          44.700    26009404.931   110054317.55506      2417.810          37.600    26009406.012   104729101.33906      2300.740          39.750
S21  38211495.147   200802578.30407        -1.590          46.900
S36  38097137.710   200201833.03907         1.387          46.650    38097111.436   149501477.92007          .775          45.800
> 2026 05 13 00 07 30.0000000  0 46
G05  25139983.710   132111514.01906     -3750.846          40.500                                                                    25139986.310   102944018.64106     -2922.743          41.300    25139986.243   102944043.64406     -2922.743          40.900
G10  24881348.517   130752373.90306      2430.356          39.000                                                                    24881349.597   101884978.15506      1893.786          40.650    24881350.300   101884980.15906      1893.787          38.550    24881347.537    97639761.98607      1814.813          45.250
G12  24314519.963   127773697.30807      3826.724          43.100                                                                    24314520.674    99563922.83107      2981.868          43.350    24314520.639    99563919.82407      2981.867          43.400
G13  23955721.997   125888175.95007      3579.970          43.000    23955721.883   125888225.93507      3580.340          43.250    23955723.743    98094689.28407      2789.591          45.800    23955724.063    98094703.28707      2789.591          42.100    23955726.527    94007425.98007      2673.490          46.750
G14  22478180.769   118123763.57907     -2749.148          46.650    22478180.898   118123772.58307     -2749.208          46.650    22478179.974    92044538.19408     -2142.193          48.000    22478180.230    92044558.19307     -2142.193          44.750    22478183.704    88209383.95108     -2052.958          49.500
G15  19983312.532   105013060.78508      -865.739          53.550                                                                    19983311.130    81828372.77309      -674.602          54.000    19983311.223    81828371.77308      -674.602          53.650
G17  22877817.078   120223790.31407       802.717          46.500                                                                    22877816.266    93680899.06207       625.494          45.950    22877816.497    93680901.06107       625.495          46.300
G19  23358323.271   122748835.61207      2747.685          45.600                                                                                                                                    23358321.491    95648469.67807      2141.055          43.350
G20  20785083.199   109226432.70708     -1834.705          51.600    20785083.164   109226439.69208     -1834.673          51.600    20785082.861    85111549.59109     -1429.641          54.800    20785083.099    85111553.59008     -1429.641          50.850    20785085.700    81565256.73009     -1370.044          56.550
G22  21788100.883   114497328.13708     -2254.800          49.850                                                                                                                                    21788099.320    89218735.37807     -1756.987          46.850
G23  22526788.690   118379092.93307       385.452          47.000    22526788.619   118379099.92807       385.619          46.850    22526787.751    92243461.00708       300.351          48.100    22526788.138    92243461.01507       300.351          45.000    22526791.254    88400006.83808       287.910          50.700
G24  20775613.424   109176639.97508      2052.888          50.900                                                                    20775614.442    85072738.65008      1599.654          50.850    20775614.782    85072738.64908      1599.654          51.000    20775614.578    81528049.86509      1533.042          55.100
G30  24728291.293   129948156.11406     -3001.976          39.300                                                                    24728294.795   101258349.86806     -2339.206          40.650    24728294.849   101258375.86606     -2339.206          38.800    24728293.583    97039322.39306     -2242.025          41.200
R03  21196673.042   113467523.69508     -3715.696          51.200    21196674.968    88252554.27608     -2889.987          48.700    21196674.979    88252551.28008     -2889.988          48.900
R04  19140576.380   102496976.12608       -97.176          53.300    19140577.633    79719889.78208       -75.582          52.050    19140577.529    79719891.78308       -75.582          52.600    19140568.772    76744649.92009       -72.781          59.050
R05  21390428.390   114344136.33308      3483.485          48.950    21390430.698    88934350.03007      2709.378          47.650    21390430.817    88934355.03108      2709.378          48.150    21390421.628    85765446.40208      2612.840          50.750
R13  21624016.131   115471149.76107     -3416.255          43.500
R14  19239385.207   102556859.54409       109.347          54.600    19239388.574    79766493.05808        85.048          51.750    19239388.471    79766496.06308        85.048          52.450
R15  21752856.266   116240715.51908      3240.358          49.200    21752859.818    90409409.81207      2520.280          45.850    21752859.806    90409451.81607      2520.281          46.200
R22  23645056.866   126218917.92706       632.159          41.950    23645058.868    98170285.57006       491.680          37.250    23645058.897    98170282.56606       491.679          38.250    23645050.078    94805397.36306       474.869          41.150
R23  24004560.952   128408206.80205      2772.196          34.750
E04  23922679.035   125714649.30449     -1399.733          54.050    23922680.317    93877894.19708     -1045.264          53.600    23922678.781   102041106.81408     -1136.173          52.000    23922677.966    96326888.68409     -1072.481          54.650    23922679.150    95102403.87409     -1058.875          57.600
E05  27702734.825   145578860.09546      2749.418          39.900    27702738.122   108711504.96606      2053.212          40.600    27702733.417   118164657.09906      2231.955          38.550    27702736.156   111547448.10607      2106.786          42.800    27702737.012   110129473.45907      2080.052          45.100
E06  23315477.166   122523757.64549       -81.470          54.700    23315479.963    91495080.52709       -60.863          55.200    23315475.889    99451133.42708       -66.137          53.550    23315477.902    93881895.38509       -62.470          56.300    23315478.401    92688482.38809       -61.677          59.200
E09  23881858.678   125500059.62449      1243.029          54.600    23881861.068    93717613.94009       928.207          54.200    23881858.344   101866945.69308      1008.937          52.200    23881858.633    96162408.68909       952.423          55.100    23881859.476    94939999.24609       940.322          58.100
E16  28276874.989   148595983.37046      3110.143          39.650    28276880.303   110964580.48706      2322.701          39.650    28276875.805   120613643.55106      2524.766          36.950    28276878.075   113859293.98607      2383.200          42.900    28276878.414   112411925.67407      2352.886          44.550
E19  27244088.940   143168652.48655     -2800.006          35.800    27244093.881   106911771.33106     -2090.876          38.200                                                                    27244092.039   109700778.64206     -2145.414          37.500    27244092.562   108306288.91806     -2118.093          41.350
E21  27890237.063   146564263.08546     -2805.157          41.700    27890239.940   109447414.47206     -2094.783          40.200    27890237.609   118964521.06906     -2276.800          37.250    27890237.824   112302555.29306     -2149.316          41.850    27890238.769   110874986.31007     -2121.994          44.500
E23  23956661.226   125893185.81649      -906.729          54.000    23956663.745    94011210.60708      -677.153          53.150    23956660.916   102186049.79608      -735.969          51.600    23956661.646    96463658.99509      -694.777          54.400    23956662.429    95237426.73509      -685.991          57.300
E28  25448912.415   133735038.63548     -2310.654          50.250    25448915.605    99867095.59208     -1725.508          49.150    25448912.584   108551195.38307     -1875.462          46.950    25448913.432   102472352.01708     -1770.421          49.850    25448914.216   101169809.23608     -1747.972          52.950
E31  24172376.846   127026779.54448      1865.110          53.150    24172380.425    94857736.27808      1392.760          52.800    24172375.618   103106135.67608      1513.896          50.600    24172378.218    97332279.74708      1429.084          53.600    24172378.940    96095005.94609      1410.916          56.700
E34                                                                  28499542.464   111838327.71105     -1008.007          34.300                                                                    28499540.293   114755844.31205     -1034.414          34.900    28499540.864   113297078.93906     -1021.025          38.050
C08  39447249.704   207296712.87606       356.060          41.700    39447249.733   205412204.20307       352.772          43.050    39447251.319   154799516.87507       265.897          45.400    39447249.576   166914251.92307       286.665          42.450    39447248.866   158837742.74706       272.655          41.400
C11  27137641.462   142609307.53716      2788.718          37.200    27137642.065   141312822.38116      2763.405          37.850    27137644.830   106493944.42816      2082.411          39.400    27137643.551   114828250.78516      2245.235          36.600    27137642.933   109272041.72515      2136.671          35.950
C14  23946096.240   125837608.83007      2098.534          46.500    23946095.771   124693635.51408      2079.367          48.900    23946116.071    93969743.24908      1567.136          48.750    23946087.047   101323771.43907      1689.752          46.700    23946115.012    96421115.16507      1607.972          45.850
C19  26998695.175   141879136.37406     -3599.321          37.850    26998695.336   140589331.09506     -3566.718          39.600    26998701.676   105948759.58206     -2687.736          40.700    26998697.120   114240372.22406     -2898.403          36.200    26998699.459   108712577.26616     -2757.947          36.700
C21  22747058.141   119536638.27308       747.624          51.700    22747057.032   118449940.67508       740.846          53.750    22747057.854    89264429.65809       558.335          54.000    22747054.719    96250290.74608       601.971          52.250    22747055.804    91593027.01108       572.860          50.650
C22  22696280.479   119269785.63908     -2445.802          51.350    22696279.023   118185556.86008     -2423.615          53.050    22696278.981    89065177.85708     -1826.441          53.200    22696276.516    96035467.99508     -1969.312          51.600    22696276.776    91388597.92008     -1874.062          50.700
C26  26559238.650   139569738.03406      2999.623          36.850    26559236.859   138300918.97606      2972.675          39.850    26559242.224   104224184.76606      2240.362          38.950    26559241.345   112380843.51806      2415.617          39.600
C27  26174053.498   137545588.33306       336.525          38.300    26174052.345   136295172.69406       333.388          41.000    26174055.918   102712628.37006       251.497          40.600    26174054.359   110751001.00106       271.099          36.550    26174053.576   105392068.32506       257.838          37.900
C30  25981531.552   136533882.48606      2314.995          37.400    25981530.432   135292656.24306      2294.269          41.050    25981537.213   101957142.77807      1728.901          42.350    25981536.254   109936395.21306      1864.262          39.950    25981535.097   104616888.46506      1774.064          38.500
C36  22061364.612   115933374.77808     -1458.333          52.000    22061363.781   114879444.86509     -1445.088          54.150    22061373.221    86573738.16009     -1089.012          55.200    22061370.917    93349050.28808     -1174.219          53.100    22061370.989    88832085.40608     -1117.443          51.750
C39  22306864.750   117223396.41308      1306.642          52.750    22306862.573   116157789.24609      1294.685          54.000    22306858.549    87536983.97209       975.711          55.700    22306857.784    94387706.72008      1052.061          53.050    22306856.285    89820550.74808      1001.224          52.250
C42  25992273.604   136590313.79906      2995.393          40.200    25992272.139   135348594.39007      2968.254          42.400    25992286.505   101999339.82307      2237.012          44.050    25992282.565   109981868.41906      2412.249          39.450    25992284.066   104660157.84106      2295.167          39.800
S21  38211505.245   200802630.60807        -2.073          46.650
S36  38097131.909   200201799.96807          .972          46.500    38097104.392   149501450.23507          .928          45.900
> 2026 05 13 00 08  0.0000000  0 46
G05  25161390.848   132224006.41707     -3748.671          43.000                                                                    25161393.275   103031674.87506     -2921.051          39.750    25161393.323   103031699.88307     -2921.049          43.150
G10  24867512.399   130679665.60906      2416.577          40.350                                                                    24867513.562   101828322.38707      1883.047          42.100    24867514.380   101828324.38706      1883.048          40.150    24867511.751    97585466.87907      1804.724          46.050
G12  24292683.247   127658945.64207      3823.361          42.250                                                                    24292684.179    99474506.08207      2979.246          42.050    24292684.038    99474503.07707      2979.247          42.650
G13  23935296.232   125780838.21906      3576.284          41.350    23935296.161   125780888.24306      3575.661          41.700    23935297.926    98011049.62607      2786.721          45.300    23935298.139    98011063.62106      2786.718          40.900    23935301.182    93927271.41107      2670.018          45.750
G14  22493899.782   118206367.34207     -2757.750          46.500    22493899.786   118206376.35607     -2757.865          46.650    22493899.220    92108904.76808     -2148.896          48.550    22493899.462    92108924.76907     -2148.896          45.450    22493902.683    88271068.58308     -2059.412          49.350
G15  19988311.691   105039331.51508      -885.809          53.500                                                                    19988310.322    81848843.46409      -690.241          54.150    19988310.414    81848842.46308      -690.241          53.400
G17  22873284.502   120199972.31707       785.156          46.050                                                                    22873283.769    93662339.60607       611.811          45.950    22873283.978    93662341.60407       611.811          46.550
G19  23342660.901   122666529.20607      2739.366          45.750                                                                                                                                    23342658.971    95584334.84607      2134.572          43.750
G20  20795599.674   109281697.22908     -1849.706          51.300    20795599.651   109281704.23108     -1849.682          51.300    20795599.328    85154612.84009     -1441.330          54.800    20795599.569    85154616.83908     -1441.330          51.050    20795602.207    81606525.68609     -1381.321          56.550
G22  21801006.482   114565147.77408     -2266.404          49.750                                                                                                                                    21801005.074    89271581.84807     -1766.029          47.100
G23  22524645.194   118367828.88607       365.207          47.100    22524645.032   118367835.88707       365.279          46.900    22524644.079    92234683.82407       284.576          47.800    22524644.449    92234683.82507       284.576          44.500    22524647.819    88391595.37208       272.774          50.750
G24  20763923.993   109115211.77808      2042.256          50.950                                                                    20763925.027    85024872.54408      1591.369          51.050    20763925.346    85024872.54308      1591.369          50.650    20763925.115    81482178.19009      1525.008          55.250
G30  24745435.111   130038247.15506     -3003.725          38.700                                                                    24745438.826   101328550.61706     -2340.567          40.300    24745438.817   101328576.62306     -2340.566          38.700    24745437.166    97106598.13607     -2243.055          42.800
R03  21217535.907   113579204.05608     -3729.791          51.150    21217537.757    88339416.73708     -2900.949          48.600    21217537.898    88339413.74008     -2900.949          49.000
R04  19141192.418   102500274.66608      -122.828          53.250    19141193.652    79722455.30508       -95.533          52.100    19141193.503    79722457.30608       -95.533          52.700    19141184.782    76747119.69809       -91.957          59.100
R05  21370914.996   114239825.85308      3470.454          48.850    21370917.399    88853219.69307      2699.243          47.600    21370917.480    88853224.69508      2699.242          48.250    21370908.288    85687206.85908      2602.990          50.850
R13  21643223.920   115573719.52607     -3421.838          43.400
R14  19238821.217   102553852.74409        91.000          54.400    19238824.393    79764154.45008        70.778          51.750    19238824.396    79764157.45408        70.779          52.500
R15  21734693.797   116143661.31308      3229.744          48.900    21734697.399    90333923.26407      2512.025          45.950    21734697.456    90333965.27307      2512.025          46.550
R22  23641569.856   126200304.06707       608.610          42.400    23641571.796    98155808.14306       473.366          37.700    23641571.874    98155805.13806       473.366          37.850    23641562.831    94791416.13806       457.055          41.400
R23  23989053.816   128325251.99605      2757.389          34.150
E04  23930695.177   125756774.68048     -1408.659          53.800    23930696.537    93909351.44408     -1051.965          53.700    23930695.019   102075299.47108     -1143.458          51.850    23930694.234    96359166.55809     -1079.392          54.850    23930695.350    95134271.43309     -1065.680          57.700
E05  27687037.987   145496372.79946      2749.400          39.500    27687041.190   108649907.35707      2053.170          42.050    27687037.004   118097703.19706      2231.595          38.550    27687038.971   111484243.58707      2106.708          43.100    27687040.321   110067072.40207      2080.012          46.000
E06  23315970.704   122526351.25649       -91.533          54.650    23315973.506    91497017.31309       -68.379          55.300    23315969.486    99453238.62408       -74.296          53.550    23315971.446    93883882.69309       -70.131          56.450    23315971.955    92690444.43709       -69.263          59.250
E09  23874785.356   125462888.92549      1234.949          54.650    23874787.682    93689856.59809       922.193          54.250    23874784.944   101836774.66708      1002.387          52.100    23874785.225    96133927.24609       946.265          55.350    23874786.119    94911879.85409       934.225          58.150
E16  28259121.003   148502685.84846      3109.362          38.550    28259126.083   110894910.37607      2321.965          42.550    28259121.817   120537892.04716      2523.861          36.050    28259124.590   113787806.41907      2382.567          43.650    28259124.644   112341346.82807      2352.221          46.200
E19                                                                  27260085.327   106974523.73506     -2092.565          36.700                                                                    27260083.137   109765168.11806     -2147.240          38.350    27260083.826   108369859.85906     -2119.868          40.850
E21  27906259.079   146648458.77146     -2808.076          41.500    27906261.827   109510287.86806     -2096.921          39.950    27906259.394   119032861.74406     -2279.436          37.200    27906259.766   112367068.87306     -2151.628          41.650    27906260.618   110938679.80507     -2124.325          44.200
E23  23961870.904   125920562.85849      -918.477          54.000    23961873.415    94031654.51008      -685.848          53.200    23961870.609   102208271.43108      -745.478          51.550    23961871.475    96484636.22009      -703.742          54.600    23961872.111    95258137.29809      -694.805          57.350
E28  25462120.583   133804447.97448     -2316.722          50.050    25462123.882    99918927.20308     -1729.975          49.200    25462120.822   108607534.10607     -1880.435          47.050    25462121.567   102525535.77208     -1775.138          49.850    25462122.400   101222316.92008     -1752.549          52.950
E31  24161758.773   126970980.75748      1854.723          53.150    24161762.188    94816068.37608      1385.010          52.900    24161757.427   103060844.46608      1505.479          50.650    24161760.109    97289524.85208      1421.175          53.800    24161760.788    96052794.54709      1403.090          56.800
E34                                                                  28507282.694   111868701.90105     -1016.886          34.500                                                                    28507280.743   114787010.86406     -1043.397          37.350    28507281.105   113327849.30306     -1029.962          39.600
C08  39445233.028   207286114.66006       350.309          41.300    39445232.784   205401702.33407       347.305          42.750    39445235.157   154791602.63207       261.644          45.650    39445232.833   166905718.29207       282.008          42.900    39445232.327   158829622.02606       268.597          41.750
C11  27121719.453   142525638.89706      2788.885          38.300    27121719.567   141229914.29606      2764.046          39.100    27121722.123   106431464.62406      2082.920          39.000    27121722.586   114760881.20906      2245.925          38.500    27121720.871   109207931.99906      2137.184          36.800
C14  23934151.222   125774837.85507      2086.105          46.750    23934150.961   124631435.18808      2067.184          49.500    23934170.939    93922868.84808      1557.823          49.650    23934142.242   101273228.61508      1679.714          48.050    23934169.989    96373017.95407      1598.428          46.700
C19  27019241.864   141987108.39806     -3598.672          37.850    27019241.844   140696321.58706     -3566.239          38.950    27019248.585   106029387.79906     -2687.404          40.300    27019243.466   114327310.66406     -2898.009          36.400    27019246.609   108795308.86106     -2757.707          39.300
C21  22742836.777   119514454.65708       731.181          51.800    22742835.643   118427958.73008       724.562          53.750    22742836.330    89247863.97108       546.002          53.950    22742833.252    96232428.61108       588.761          52.300    22742834.461    91576029.17808       560.255          50.800
C22  22710277.484   119343340.44308     -2457.954          50.950    22710276.108   118258442.98108     -2435.633          53.250    22710276.004    89120105.12708     -1835.466          53.150    22710273.512    96094693.93708     -1979.175          51.650    22710273.826    91444958.08508     -1883.423          50.900
C26  26542117.560   139479768.42606      2997.219          36.750    26542116.198   138211767.21506      2970.660          39.600    26542122.138   104156999.70306      2238.590          40.750    26542120.730   112308400.55406      2413.737          39.850    26542119.087   106874113.88216      2297.225          37.600
C27  26172175.255   137535717.72606       321.437          38.700    26172174.038   136285391.82206       318.573          41.200    26172177.515   102705257.50906       239.996          40.850    26172175.929   110743053.28906       258.773          36.650    26172174.855   105384505.16506       246.307          37.750
C30  25968333.616   136464527.41406      2308.272          37.250    25968332.726   135223931.67506      2287.373          40.550    25968339.554   101905351.75207      1723.630          42.750    25968338.464   109880550.94406      1858.637          40.500    25968337.144   104563746.32106      1768.579          36.950
C36  22069713.698   115977249.50808     -1466.686          52.050    22069712.854   114922920.73609     -1453.460          54.000    22069722.274    86606501.76009     -1095.292          55.200    22069719.984    93384377.99708     -1181.031          53.100    22069720.079    88865703.70608     -1123.877          52.000
C39  22299434.404   117184349.61208      1296.491          52.550    22299432.172   116119097.41908      1284.654          53.850    22299428.132    87507825.66909       968.109          55.750    22299427.292    94356266.45308      1043.895          53.050    22299425.895    89790631.79208       993.360          52.450
C42  25975191.113   136500545.64106      2988.713          39.800    25975189.724   135259642.30106      2961.674          41.650    25975204.038   101932305.21707      2231.917          44.000    25975200.064   109909587.60006      2406.796          39.400    25975202.049   104591374.50806      2290.215          41.700
S21  38211515.157   200802682.17807        -1.535          46.400
S36  38097126.108   200201769.94207         1.253          46.000    38097098.101   149501423.68707          .983          45.800
> 2026 05 13 00 08 30.0000000  0 46
G05  25182785.706   132336437.68505     -3746.995          35.000                                                                    25182787.562   103119283.63505     -2919.733          33.350    25182787.830   103119308.62105     -2919.733          34.000
G10  24853756.144   130607376.13306      2402.486          40.950                                                                    24853757.539   101771992.97106      1872.069          41.750    24853758.314   101771994.97406      1872.069          41.250    24853755.854    97531484.52007      1794.103          45.450
G12  24270870.308   127544318.85807      3818.638          43.550                                                                    24270870.641    99385186.58206      2975.565          41.150    24270870.572    99385183.58707      2975.566          44.050
G13  23914899.370   125673652.74407      3570.247          42.200    23914899.245   125673702.75807      3570.080          42.200    23914900.754    97927528.60107      2782.012          42.250    23914901.138    97927542.61006      2782.013          39.600    23914903.633    93847230.41307      2666.027          44.900
G14  22509670.082   118289240.85007     -2766.943          46.050    22509670.019   118289249.85907     -2767.170          46.150    22509669.655    92173481.52007     -2156.060          47.550    22509669.912    92173501.52307     -2156.060          44.100    22509672.784    88332954.64408     -2066.296          49.100
G15  19993428.349   105066219.66108      -906.690          53.400                                                                    19993426.990    81869795.25808      -706.512          53.750    19993427.072    81869794.25608      -706.512          53.450
G17  22868853.688   120176688.74007       767.045          46.250                                                                    22868853.144    93644196.58707       597.698          46.150    22868853.302    93644198.58507       597.698          46.100
G19  23327049.035   122584487.67107      2730.176          46.100                                                                                                                                    23327046.925    95520406.41507      2127.410          43.400
G20  20806204.578   109337426.39308     -1865.510          51.200    20806204.526   109337433.39608     -1865.542          51.200    20806204.212    85198038.14809     -1453.645          54.300    20806204.462    85198042.14708     -1453.645          50.800    20806207.114    81648141.60109     -1393.090          56.500
G22  21813981.789   114633333.14508     -2279.041          49.900                                                                                                                                    21813980.385    89324713.30507     -1775.876          46.550
G23  22522619.992   118357186.38207       344.260          46.550    22522619.844   118357193.39307       344.276          46.600    22522618.739    92226390.96307       268.255          47.700    22522619.137    92226390.96207       268.255          44.750    22522622.484    88383648.04608       257.080          50.650
G24  20752298.440   109054119.09508      2030.617          51.100                                                                    20752299.425    84977267.87708      1582.300          50.650    20752299.753    84977267.87208      1582.300          50.950    20752299.514    81436557.04709      1516.406          55.300
G30  24762589.613   130128393.26006     -3006.480          39.700                                                                    24762592.816   101398794.32406     -2342.713          37.000    24762592.820   101398820.31906     -2342.715          38.200    24762591.678    97173915.00607     -2244.663          44.200
R03  21238480.110   113691319.25108     -3744.509          51.300    21238481.960    88426617.40608     -2912.397          48.700    21238481.993    88426614.40808     -2912.397          48.950
R04  19141954.502   102504355.75908      -149.311          52.900    19141955.724    79725629.48308      -116.131          51.900    19141955.595    79725631.48408      -116.130          52.600    19141946.970    76750175.40509      -111.751          58.950
R05  21351477.077   114135918.93008      3456.613          48.650    21351479.251    88772403.20407      2688.478          47.800    21351479.407    88772408.20608      2688.478          48.550    21351470.206    85609270.00208      2592.696          50.550
R13  21662465.839   115676469.46907     -3428.029          43.800
R14  19238362.482   102551407.35409        72.016          54.200    19238365.574    79762252.48808        56.013          51.700    19238365.647    79762255.49608        56.014          52.450
R15  21716594.128   116046943.12408      3218.168          49.150    21716598.066    90258698.07007      2503.022          46.200    21716598.101    90258740.07507      2503.022          46.700
R22  23638218.380   126182413.62907       584.196          42.400    23638220.416    98141893.45006       454.376          36.900    23638220.400    98141890.45806       454.378          37.550    23638211.685    94777978.37906       438.876          41.150
R23  23973634.150   128242768.88005      2741.289          33.700
E04  23938765.567   125799184.79949     -1418.568          54.050    23938766.994    93941021.31808     -1059.318          53.700    23938765.391   102109723.25608     -1151.402          51.800    23938764.730    96391662.60609     -1086.967          54.050    23938765.729    95166354.39409     -1073.114          57.500
E05  27671344.375   145413903.73346      2748.710          40.050    27671347.947   108588323.40006      2052.458          41.800    27671343.578   118030764.08006      2230.878          39.600    27671345.688   111421053.08607      2106.197          42.250    27671346.979   110004685.17807      2079.283          45.700
E06  23316523.913   122529258.39149      -102.245          54.600    23316526.661    91499188.22109       -76.306          55.200    23316522.724    99455598.31108       -82.992          53.550    23316524.616    93886110.23709       -78.326          55.750    23316525.174    92692643.66309       -77.327          59.050
E09  23867760.457   125425972.68949      1226.109          54.650    23867762.660    93662289.27409       915.620          54.250    23867759.991   101806810.18408       995.253          52.100    23867760.264    96105640.77109       939.502          54.650    23867761.189    94883952.95409       927.595          58.000
E16  28241374.395   148409428.36246      3107.683          39.700    28241379.939   110825270.18206      2320.866          41.950    28241376.719   120462196.12006      2522.591          39.600    28241378.180   113716349.47106      2381.361          38.900    28241378.529   112270798.25707      2351.130          44.400
E19  27276087.108   143336805.05755     -2804.745          35.050    27276091.690   107037335.97806     -2094.737          37.900                                                                    27276089.573   109829618.91706     -2149.647          36.850    27276090.109   108433491.38106     -2122.205          41.050
E21  27922299.926   146732753.15646     -2811.537          41.600    27922302.528   109573234.97306     -2099.466          40.000    27922300.052   119101282.48606     -2282.151          37.300    27922300.392   112431658.06206     -2154.345          40.500    27922301.212   111002447.95207     -2126.897          43.900
E23  23967149.216   125948300.52048      -930.778          53.900    23967151.778    94052367.69808      -695.005          53.250    23967148.951   102230785.76508      -755.459          51.600    23967149.871    96505889.74908      -713.145          53.800    23967150.423    95279120.65409      -704.070          57.100
E28  25475365.912   133874052.43648     -2323.486          49.950    25475369.190    99970904.53708     -1735.095          49.150    25475366.164   108664031.21407     -1886.007          46.850    25475366.866   102578869.03708     -1780.307          49.000    25475367.748   101274972.22108     -1757.693          52.700
E31  24151202.187   126915505.00448      1843.652          53.250    24151205.474    94774641.69408      1376.759          52.900    24151200.764   103015815.46008      1496.456          50.700    24151203.344    97247017.47608      1412.678          53.000    24151204.106    96010827.51809      1394.720          56.600
E34  28515090.054   149847809.88955     -1374.325          32.600    28515092.986   111899350.42205     -1026.621          34.350                                                                    28515090.967   114818458.92405     -1052.825          33.950    28515091.397   113358897.59106     -1039.562          38.200
C08  39443250.792   207275697.64406       344.031          41.100    39443250.294   205391379.99607       340.987          42.650    39443253.312   154783823.69407       256.927          45.550    39443250.745   166897330.55707       277.006          43.350    39443250.391   158821640.15406       263.610          41.200
C11  27105796.521   142441962.72306      2788.999          37.900    27105796.926   141146998.80506      2764.024          40.600    27105799.850   106368979.26106      2083.028          40.850    27105799.753   114693505.67905      2245.913          35.350    27105796.896   109143812.61815      2137.066          35.700
C14  23922279.780   125712452.84807      2072.900          46.100    23922279.430   124569617.30508      2054.131          48.400    23922299.585    93876282.65908      1548.000          48.400    23922270.249   101222996.52508      1669.135          48.000    23922298.236    96325216.46507      1588.310          44.850
C19  27039787.648   142095075.96906     -3599.473          36.450    27039787.208   140803307.57206     -3566.286          36.350    27039794.491   106110012.65806     -2687.709          36.950    27039789.260   114414245.37806     -2897.876          40.100    27039792.411   108878036.94306     -2757.563          37.800
C21  22738711.669   119492777.02408       713.979          51.750    22738710.501   118406478.16108       707.547          53.650    22738711.127    89231676.12308       533.174          53.950    22738708.115    96214973.89008       574.903          52.350    22738709.281    91559419.03308       547.158          50.000
C22  22724346.185   119417272.05108     -2470.746          51.000    22724344.953   118331702.47408     -2448.207          53.300    22724344.714    89175313.77308     -1845.057          53.200    22724342.333    96154223.26208     -1989.463          51.800    22724342.642    91501606.95308     -1893.218          50.200
C26  26525012.212   139389879.59706      2994.975          39.250    26525011.051   138122695.61406      2967.499          41.650    26525017.147   104089875.02906      2236.421          41.800    26525015.306   112236022.59606      2411.382          36.850    26525014.283   106805238.13306      2294.714          38.150
C27  26170386.098   137526316.01406       305.480          39.650    26170385.206   136276075.57107       302.540          42.000    26170388.320   102698236.80206       228.125          40.650    26170386.836   110735483.11206       246.166          36.500    26170385.690   105377301.28406       234.247          36.850
C30  25955178.089   136395395.05906      2300.807          39.400    25955177.040   135155427.79306      2279.479          40.700    25955184.205   101853727.02907      1717.907          42.800    25955183.349   109824886.02906      1852.269          40.150    25955180.971   104510774.81205      1763.177          34.600
C36  22078113.087   116021388.53408     -1475.896          51.950    22078112.162   114966658.50108     -1462.471          53.850    22078121.618    86639462.71009     -1102.053          55.200    22078119.361    93419918.50308     -1188.343          53.200    22078119.513    88899524.50908     -1130.802          51.150
C39  22292064.434   117145620.25708      1285.616          52.450    22292062.154   116080720.14508      1273.921          53.800    22292058.092    87478904.41409       960.004          55.700    22292057.214    94325081.79008      1035.108          53.150    22292055.988    89760956.06808       985.040          51.800
C42  25958149.481   136410991.55506      2981.163          40.850    25958148.079   135170902.31806      2954.360          41.700    25958162.267   101865430.44107      2226.430          43.150    25958158.861   109837479.16906      2400.628          40.200    25958160.617   104522755.19306      2284.410          40.100
S21  38211524.966   200802734.95107        -1.778          46.550
S36  38097119.997   200201739.55607          .382          45.750    38097092.784   149501403.35207          .902          45.850
> 2026 05 13 00 09  0.0000000  0 46
G05  25204168.077   132448803.67207     -3744.523          42.200                                                                    25204170.057   103206841.31406     -2917.814          39.450    25204170.329   103206866.29907     -2917.816          42.200
G10  24840079.904   130535506.22306      2388.322          40.500                                                                    24840081.144   101715990.46506      1861.031          40.850    24840081.853   101715992.46606      1861.031          40.800    24840079.563    97477815.46207      1783.591          44.500
G12  24249081.543   127429817.56807      3814.314          44.100                                                                    24249081.980    99295964.91507      2972.198          43.000    24249081.940    99295961.91607      2972.198          44.100
G13  23894531.745   125566619.59407      3565.228          43.150    23894531.510   125566669.62807      3564.935          43.650    23894532.626    97844126.21307      2778.104          45.300    23894533.065    97844140.21706      2778.104          41.600    23894534.718    93767303.15207      2662.141          44.250
G14  22525490.870   118372380.37807     -2775.856          46.300    22525490.755   118372389.38307     -2775.709          46.450    22525490.600    92238265.56807     -2163.005          47.900    22525490.851    92238285.57207     -2163.004          43.900    22525493.694    88395039.36008     -2072.905          49.300
G15  19998662.050   105093722.84309      -927.123          54.050                                                                    19998660.753    81891226.29808      -722.434          53.800    19998660.824    81891225.29408      -722.434          53.900
G17  22864524.508   120153939.23407       749.309          46.650                                                                    22864524.161    93626469.72407       583.878          46.100    22864524.332    93626471.72207       583.878          46.600
G19  23311487.782   122502712.49607      2721.363          46.600                                                                                                                                    23311485.553    95456685.53207      2120.544          43.250
G20  20816897.403   109393617.69408     -1880.807          51.900    20816897.360   109393624.69608     -1880.819          51.850    20816897.085    85241823.56309     -1465.564          54.250    20816897.337    85241827.56208     -1465.564          50.250    20816899.971    81690102.62109     -1404.586          56.400
G22  21827025.939   114701880.56508     -2291.100          50.250                                                                                                                                    21827024.549    89378126.88107     -1785.273          45.750
G23  22520712.779   118347164.06207       323.725          46.650    22520712.627   118347171.07007       323.621          46.650    22520711.712    92218581.36207       252.254          47.950    22520712.085    92218581.35507       252.254          45.800    22520715.175    88376163.83508       241.630          50.400
G24  20740736.600   108993361.40808      2019.651          51.450                                                                    20740737.661    84929924.24608      1573.756          50.650    20740737.957    84929924.24008      1573.756          51.250    20740737.757    81391186.07509      1508.084          55.550
G30  24779754.107   130218592.33406     -3007.661          38.800                                                                    24779756.495   101469079.36105     -2343.630          35.200    24779756.602   101469105.36206     -2343.630          39.900    24779756.392    97241271.46407     -2245.935          44.550
R03  21259504.466   113803864.48208     -3758.824          51.600    21259506.438    88514152.54708     -2923.531          48.800    21259506.447    88514149.55108     -2923.531          49.100
R04  19142862.510   102509218.61208      -175.268          53.350    19142863.784    79729411.69108      -136.320          52.050    19142863.657    79729413.69408      -136.319          52.700    19142855.106    76753816.46709      -131.261          58.800
R05  21332115.035   114032417.81308      3443.117          48.950    21332117.407    88691902.35908      2677.980          48.000    21332117.473    88691907.36308      2677.980          48.800    21332108.112    85531637.53208      2582.487          50.650
R13  21681740.424   115779394.88107     -3433.861          43.750
R14  19238008.438   102549520.51109        53.479          54.750    19238011.636    79760784.95308        41.596          51.850    19238011.693    79760787.96108        41.596          52.750
R15  21698557.384   115950560.58008      3206.996          49.350    21698561.162    90183733.90807      2494.331          45.700    21698561.225    90183775.91107      2494.332          46.200
R22  23635002.264   126165245.83206       559.986          41.600    23635004.694    98128540.70606       435.544          37.700    23635004.338    98128537.69606       435.543          38.650    23634995.190    94765083.29406       420.625          41.600
R23  23958302.912   128160760.46905      2725.423          31.050
E04  23946889.891   125841878.02849     -1427.967          54.400    23946891.340    93972902.60508     -1066.355          53.750    23946889.556   102144376.84008     -1159.038          52.050    23946889.056    96424375.58008     -1094.147          53.850    23946889.986    95198651.52309     -1080.219          57.300
E05  27655654.291   145331452.36046      2747.965          41.650    27655658.142   108526752.62007      2052.057          42.850    27655654.159   117963839.31706      2230.526          39.650    27655655.442   111357876.08606      2105.621          41.800    27655656.918   109942311.28507      2078.800          45.850
E06  23317136.607   122532478.06249      -112.752          55.100    23317139.299    91501592.52009       -84.156          55.250    23317135.453    99458211.68008       -91.477          53.900    23317137.279    93888577.25509       -86.351          55.550    23317137.861    92695079.32109       -85.256          58.900
E09  23860783.881   125389310.43249      1217.696          55.100    23860786.042    93634911.61909       909.259          54.300    23860783.321   101777051.86208       988.330          52.600    23860783.731    96077548.91609       932.984          54.500    23860784.589    94856218.20009       921.129          57.900
E16  28223635.294   148316210.53946      3106.485          37.650    28223641.291   110755659.53006      2319.776          38.000    28223637.730   120386532.40506      2521.542          37.700    28223638.375   113644922.82206      2380.294          40.000    28223639.317   112200279.61407      2349.945          42.500
E19  27292109.900   143421000.68855     -2808.262          35.950    27292113.241   107100206.24006     -2097.006          37.250                                                                    27292110.099   109894129.30206     -2151.330          36.000    27292111.270   108497181.70606     -2124.184          40.050
E21  27938358.831   146817143.15946     -2814.553          41.950    27938361.672   109636253.50906     -2101.883          40.350    27938358.863   119169780.87806     -2284.741          37.500    27938359.292   112496320.55706     -2156.761          39.900    27938360.023   111066288.45807     -2129.229          43.800
E23  23972495.709   125976396.13649      -942.635          54.600    23972498.173    94073348.19808      -703.913          53.200    23972495.385   102253590.65508      -765.133          51.900    23972496.221    96527417.56808      -722.285          53.500    23972496.844    95300374.81409      -713.099          56.850
E28  25488647.964   133943849.95448     -2329.955          50.300    25488651.255   100023026.03908     -1739.952          49.150    25488648.075   108720685.03407     -1891.247          47.000    25488649.013   102632350.24208     -1785.316          48.900    25488649.851   101327773.57508     -1762.639          52.600
E31  24140706.861   126860351.43648      1832.885          53.800    24140710.054    94733455.60808      1368.721          53.000    24140705.395   102971047.97008      1487.724          51.000    24140707.771    97204756.96208      1404.499          52.750    24140708.720    95969104.22009      1386.599          56.400
E34  28522968.790   149889223.48455     -1385.880          34.800    28522972.051   111930270.99905     -1035.575          32.650                                                                    28522970.025   114850186.08005     -1062.324          33.300    28522970.767   113390221.48206     -1049.048          36.700
C08  39441302.651   207265460.18506       337.960          41.550    39441302.113   205381235.62007       334.929          42.750    39441305.391   154776178.85907       252.385          45.300    39441302.933   166889087.43007       272.208          43.650    39441302.633   158813795.88306       259.102          41.250
C11  27089872.452   142358279.99005      2789.170          33.700    27089872.639   141064076.85006      2764.302          37.550    27089875.647   106306488.99606      2082.948          38.000    27089875.082   114626124.84805      2245.884          33.900    27089874.348   109079692.18406      2137.207          36.050
C14  23910481.928   125650454.18707      2060.125          45.550    23910481.335   124508182.26907      2041.369          47.300    23910501.624    93829984.96608      1538.287          49.650    23910473.122   101173075.55308      1658.639          48.050    23910500.400    96277711.01107      1578.347          45.550
C19  27060331.873   142203035.70206     -3599.082          36.300    27060331.175   140910285.86906     -3565.855          37.500    27060338.152   106190579.77115     -2687.255          33.850    27060333.792   114501173.72406     -2897.553          40.400
C21  22734682.718   119471604.75608       697.230          52.150    22734681.488   118385498.37308       690.881          53.600    22734682.166    89215865.67209       520.560          54.000    22734679.189    96197926.09208       561.298          52.700    22734680.254    91543196.13608       534.209          49.850
C22  22738486.039   119491577.18508     -2483.110          51.650    22738484.815   118405332.10808     -2460.616          53.200    22738484.515    89230801.36008     -1854.345          53.300    22738482.201    96214053.35508     -1999.457          51.850    22738482.519    91558542.04008     -1902.763          50.000
C26  26507922.275   139300070.54506      2992.087          37.800    26507920.910   138033703.04906      2964.913          40.900    26507927.073   104022809.92706      2234.355          41.050    26507925.104   112163708.80106      2409.216          40.050    26507924.565   106736423.49705      2292.681          35.650
C27  26168686.029   137517382.14206       289.942          39.400    26168685.392   136267222.94607       287.349          42.100    26168687.834   102691565.39206       216.546          40.150    26168686.965   110728289.60406       233.294          36.650    26168686.051   105370455.85506       222.118          36.950
C30  25942065.247   136326486.38206      2293.151          39.350    25942064.449   135087145.52006      2272.209          41.950    25942071.228   101802269.29106      1712.320          41.400    25942070.116   109769401.12506      1846.231          38.450
C36  22086562.273   116065789.11008     -1484.437          52.600    22086561.253   115010655.43308     -1470.999          53.800    22086570.723    86672618.98809     -1108.564          55.200    22086568.578    93455669.61708     -1195.320          53.500    22086568.654    88933545.73208     -1137.500          50.950
C39  22284754.557   117107206.77708      1275.056          52.900    22284752.247   116042655.88608      1263.444          53.850    22284748.178    87450219.04609       952.125          55.800    22284747.295    94294151.47208      1026.617          53.400    22284746.234    89731522.38508       976.940          51.700
C42  25941148.710   136321652.08306      2974.118          40.750    25941147.468   135082375.03307      2947.237          42.550    25941161.595   101798715.96807      2221.011          44.500    25941158.569   109765543.53306      2394.981          40.650    25941159.828   104454300.32406      2279.007          39.950
S21  38211533.971   200802783.31307        -1.711          46.900
S36  38097112.421   200201701.37507         1.468          46.600    38097085.620   149501375.99607          .564          45.850
> 2026 05 13 00 09 30.0000000  0 46
G05  25225538.363   132561103.16606     -3741.903          41.100                                                                    25225540.488   103294347.20406     -2915.776          40.550    25225540.638   103294372.19706     -2915.778          41.900
G10  24826484.187   130464059.63206      2374.525          40.950                                                                    24826485.293   101660317.81406      1850.279          40.350    24826485.979   101660319.82206      1850.279          41.350    24826483.105    97424462.48607      1773.460          44.800
G12  24227317.064   127315444.99207      3810.501          43.250                                                                    24227317.872    99206843.59807      2969.228          42.200    24227317.852    99206840.58407      2969.227          42.750
G13  23874193.478   125459741.89407      3560.403          42.850    23874193.289   125459791.91707      3560.201          43.000    23874194.829    97760845.02707      2774.345          45.300    23874195.365    97760859.02306      2774.343          41.100    23874197.076    93687492.02407      2658.741          47.200
G14  22541362.303   118455785.12107     -2784.224          46.150    22541362.074   118455794.13007     -2784.332          46.650    22541362.031    92303256.27807     -2169.525          47.650    22541362.301    92303276.27907     -2169.525          44.400    22541365.340    88457322.11108     -2079.130          49.850
G15  20004012.969   105121842.16608      -947.293          53.950                                                                    20004011.757    81913137.44609      -738.151          54.100    20004011.838    81913136.44408      -738.151          53.900
G17  22860297.525   120131726.58607       731.561          46.550                                                                    22860297.126    93609161.20107       570.049          46.000    22860297.291    93609163.19707       570.048          46.600
G19  23295977.888   122421208.19207      2712.753          45.800                                                                                                                                    23295975.807    95393175.73107      2113.836          43.650
G20  20827678.286   109450271.58308     -1895.803          51.900    20827678.296   109450278.59608     -1895.948          51.850    20827678.013    85285969.44409     -1477.250          54.400    20827678.255    85285973.44208     -1477.249          50.750    20827680.810    81732409.08509     -1415.697          56.800
G22  21840138.770   114770788.88808     -2302.626          50.400                                                                                                                                    21840137.399    89431821.68207     -1794.253          46.300
G23  22518923.874   118337763.47207       303.321          46.900    22518923.630   118337770.47107       303.263          46.900    22518923.017    92211256.20007       236.354          47.900    22518923.311    92211256.20507       236.355          44.900    22518926.267    88369143.89308       226.466          51.050
G24  20729238.996   108932941.22508      2008.631          51.500                                                                    20729240.057    84882843.59908      1565.168          51.050    20729240.370    84882843.59608      1565.168          51.700    20729240.324    81346067.12009      1500.005          56.050
G30  24796928.711   130308845.40806     -3008.726          38.050                                                                    24796930.942   101539406.43206     -2344.464          37.950    24796931.032   101539432.43106     -2344.465          37.300    24796931.087    97308668.19707     -2246.959          44.500
R03  21280608.927   113916838.22108     -3772.639          51.050    21280611.021    88602020.97808     -2934.276          48.650    21280610.959    88602017.98108     -2934.276          49.100
R04  19143916.920   102514865.06308      -201.020          53.200    19143918.154    79733803.36908      -156.348          52.000    19143918.082    79733805.36808      -156.348          52.750    19143909.530    76758044.23809      -150.430          59.150
R05  21312829.890   113929327.64408      3429.772          49.650    21312832.345    88611721.15007      2667.601          47.900    21312832.353    88611726.15608      2667.601          48.650    21312822.949    85454313.30108      2572.583          51.300
R13  21701047.700   115882494.93707     -3439.082          43.850
R14  19237759.240   102548192.56309        35.232          54.450    19237762.531    79759752.10908        27.403          51.900    19237762.583    79759755.11408        27.402          52.800
R15  21680584.008   115854516.46708      3196.065          50.000    21680587.501    90109032.98507      2485.830          45.450    21680587.577    90109074.98907      2485.829          45.600
R22  23631922.258   126148803.35507       536.043          42.550    23631924.239    98115752.10006       416.922          36.950    23631924.034    98115749.08606       416.921          38.200    23631915.197    94752733.03007       402.748          42.750
R23  23943061.964   128079231.86605      2709.685          30.200
E04  23955068.306   125884855.64449     -1437.081          54.400    23955069.781    94004996.25809     -1073.096          54.150    23955067.928   102179261.25108     -1166.396          52.300    23955067.452    96457306.45909     -1101.075          54.600    23955068.368    95231163.79109     -1087.084          57.650
E05  27639968.165   145249021.02546      2747.734          41.700    27639971.875   108465196.77907      2051.938          42.100    27639967.716   117896930.76106      2230.164          38.500    27639969.371   111294714.44907      2105.400          42.950    27639970.563   109879952.55007      2078.590          45.900
E06  23317809.141   122536012.19549      -122.692          55.000    23317811.816    91504231.64509       -91.681          55.750    23317808.016    99461080.29709       -99.634          54.000    23317809.810    93891285.22809       -94.071          56.250    23317810.387    92697752.86809       -92.862          59.250
E09  23853856.097   125352904.68549      1209.571          55.100    23853858.259    93607725.51009       903.242          54.750    23853855.528   101747501.74108       981.835          52.650    23853856.050    96049653.60509       926.815          55.250    23853856.808    94828677.49209       915.026          58.250
E16  28205904.532   148223034.84046      3105.549          40.250    28205910.350   110686080.35207      2319.039          42.500    28205907.112   120310908.77715      2520.765          35.350    28205907.524   113573528.62307      2379.457          44.150    28205908.719   112129792.92407      2349.228          46.500
E19  27308146.356   143505270.69455     -2810.063          35.100    27308149.195   107163135.08305     -2098.041          35.800                                                                    27308146.317   109958699.73506     -2152.964          37.550    27308147.429   108560931.33906     -2125.521          39.950
E21  27954435.882   146901628.70046     -2817.424          41.600    27954439.048   109699343.35606     -2103.994          41.250    27954435.842   119238356.80506     -2287.039          37.350    27954436.513   112561056.22306     -2158.883          40.150    27954437.072   111130201.22007     -2131.512          44.050
E23  23977910.375   126004850.03949      -954.159          54.650    23977912.653    94094596.24208      -712.455          53.650    23977909.938   102276686.35508      -774.418          52.050    23977910.662    96549219.90809      -731.066          54.250    23977911.433    95321900.00809      -721.770          57.250
E28  25501966.827   134013841.43248     -2335.938          49.950    25501970.249   100075292.37008     -1744.387          49.550    25501967.025   108777496.28007     -1896.074          47.150    25501968.043   102685980.04508     -1789.857          49.700    25501968.838   101380721.64008     -1767.124          53.000
E31  24130273.179   126805522.15248      1822.573          53.850    24130276.355    94692511.68208      1361.005          53.500    24130271.635   102926543.69508      1479.366          51.100    24130273.950    97162744.93508      1396.505          53.550    24130275.029    95927626.24309      1378.759          56.800
E34  28530917.350   149930982.59055     -1399.202          33.650    28530920.384   111961459.68315     -1044.118          33.300                                                                    28530918.253   114882192.46405     -1071.040          32.050    28530919.297   113421820.99806     -1057.544          36.750
C08  39439388.853   207255403.57406       332.830          41.550    39439388.432   205371270.46007       329.366          43.150    39439391.516   154768669.07807       248.375          45.350    39439389.538   166880989.93707       267.818          43.500    39439389.160   158806090.21206       254.721          41.950
C11  27073947.528   142274594.27505      2789.328          35.250    27073947.589   140981152.02806      2764.573          36.350    27073950.685   106243996.60006      2083.507          40.350    27073950.449   114558741.66605      2246.534          35.800    27073948.870   109015569.53406      2137.705          37.200
C14  23898758.105   125588845.15007      2047.256          46.650    23898757.567   124447133.30408      2028.858          48.350    23898777.084    93783978.19008      1528.956          48.800    23898749.154   101123468.25308      1648.560          48.750    23898775.951    96230504.05007      1568.868          46.100
C19  27080874.519   142310987.05506     -3598.106          38.350    27080873.947   141017255.80406     -3564.952          37.900    27080881.117   106271192.59206     -2686.639          40.400    27080876.535   114588095.47505     -2897.307          34.550
C21  22730750.433   119450940.26408       680.763          51.950    22730749.105   118365021.75008       674.421          53.750    22730749.928    89200434.38809       508.332          54.600    22730746.887    96181287.14808       548.090          52.400    22730747.934    91527362.30508       521.559          50.650
C22  22752696.895   119566255.54008     -2495.152          51.450    22752695.600   118479331.57908     -2472.526          53.150    22752695.328    89286567.64008     -1863.271          53.650    22752692.973    96274183.96408     -2009.023          51.450    22752693.303    91615763.09708     -1911.843          50.600
C26  26490847.656   139210343.45806      2990.033          38.750    26490846.263   137944791.60006      2962.758          41.300    26490851.609   103955805.91506      2232.627          39.400    26490850.527   112091461.07006      2407.245          39.600    26490849.848   106667671.51306      2290.923          37.750
C27  26167075.467   137508918.27006       274.166          39.350    26167074.681   136258835.96506       271.968          41.150    26167077.068   102685244.90006       205.141          40.700    26167076.265   110721474.47906       221.332          36.700    26167075.053   105363970.51706       210.388          37.650
C30  25928995.800   136257805.13706      2285.568          40.000    25928995.167   135019088.63606      2264.888          41.800    25929001.149   101750981.40806      1706.900          41.150    25928999.596   109714099.36206      1840.442          37.350    25928998.081   104405329.85116      1751.562          37.250
C36  22095061.287   116110451.42808     -1492.766          52.350    22095060.189   115054911.73209     -1479.227          54.000    22095069.671    86705970.71109     -1114.709          55.650    22095067.572    93491631.47808     -1201.954          53.150    22095067.609    88967767.50108     -1143.773          51.650
C39  22277505.069   117069110.60408      1264.849          52.950    22277502.747   116004906.03908      1253.357          53.950    22277498.658    87421770.61609       944.578          56.250    22277497.805    94263476.63508      1018.535          53.200    22277496.866    89702331.81908       969.221          52.450
C42  25924189.342   136232530.80806      2967.472          40.500    25924188.201   134994063.99506      2940.110          41.700    25924202.420   101732164.45707      2215.888          45.100    25924199.699   109693783.64006      2389.358          40.850    25924200.413   104386012.66106      2273.920          40.300
S21  38211543.123   200802830.59707        -1.271          47.000
S36  38097105.197   200201661.57207         1.528          46.550    38097078.672   149501350.09307         1.120          46.300
> 2026 05 13 00 10  0.0000000  0 46
G05  25246894.818   132673331.47406     -3739.843          40.100                                                                    25246896.645   103381797.61005     -2914.168          32.250    25246896.888   103381822.63806     -2914.166          39.550
G10  24812968.852   130393036.47706      2359.974          41.650                                                                    24812969.957   101604975.15206      1838.942          41.250    24812970.686   101604977.15206      1838.942          41.300    24812967.780    97371425.77407      1762.580          45.350
G12  24205576.901   127201200.82207      3806.125          44.200                                                                    24205577.037    99117822.24106      2965.813          40.100    24205577.074    99117819.23207      2965.814          43.950
G13  23853884.775   125353019.26807      3554.898          43.550    23853884.656   125353069.28007      3554.749          43.750    23853886.092    97677684.66907      2770.055          44.150    23853886.401    97677698.67106      2770.055          40.200    23853888.773    93607796.69207      2654.603          46.250
G14  22557283.403   118539450.85707     -2793.370          46.400    22557283.040   118539459.85807     -2793.187          46.600    22557283.082    92368450.34707     -2176.653          47.600    22557283.384    92368470.35407     -2176.652          44.900    22557286.456    88519799.76008     -2085.830          49.400
G15  20009480.646   105150574.95908      -968.030          53.800                                                                    20009479.475    81935526.62008      -754.310          53.800    20009479.541    81935525.62308      -754.310          53.850
G17  22856172.518   120110049.46507       713.431          46.650                                                                    22856171.881    93592269.96507       555.921          45.550    22856172.028    93592271.97007       555.921          46.600
G19  23280519.707   122339975.35907      2703.182          46.300                                                                                                                                    23280517.712    95329877.45407      2106.377          43.000
G20  20838546.649   109507385.04208     -1911.467          51.800    20838546.684   109507392.04208     -1911.401          51.700    20838546.355    85330473.42509     -1489.455          54.250    20838546.600    85330477.42408     -1489.455          50.600    20838549.091    81775058.72909     -1427.326          56.700
G22  21853319.499   114840053.97608     -2314.807          50.350                                                                                                                                    21853318.207    89485794.47607     -1803.746          46.150
G23  22517252.939   118328982.65107       282.293          47.000    22517252.672   118328989.64907       282.451          46.950    22517252.054    92204414.00707       219.969          47.550    22517252.350    92204414.00407       219.968          44.800    22517255.309    88362586.78208       210.836          50.800
G24  20717805.474   108872857.53008      1997.091          51.850                                                                    20717806.443    84836025.15008      1556.174          50.850    20717806.758    84836025.15108      1556.175          51.700    20717806.802    81301199.45109      1491.380          56.000
G30  24814112.974   130399149.74206     -3010.606          38.800                                                                    24814115.756   101609773.38106     -2345.929          39.200    24814115.692   101609799.38006     -2345.929          39.750    24814115.403    97376103.23407     -2248.463          42.900
R03  21301792.558   114030235.40308     -3786.871          51.050    21301794.697    88690218.74708     -2945.345          48.400    21301794.634    88690215.75208     -2945.345          48.800
R04  19145117.395   102521294.03308      -227.382          53.100    19145118.727    79738803.67208      -176.853          51.950    19145118.631    79738805.67008      -176.853          52.550    19145110.072    76762857.92709      -170.195          59.050
R05  21293622.255   113826650.60408      3415.647          49.100    21293624.449    88531861.24608      2656.616          48.250    21293624.340    88531866.24908      2656.616          49.100    21293614.911    85377298.93808      2562.022          51.250
R13  21720386.804   115985764.59907     -3445.106          43.300
R14  19237614.283   102547420.10109        16.461          54.350    19237617.695    79759151.30708        12.803          51.750    19237617.660    79759154.31108        12.803          52.700
R15  21662673.816   115758809.81808      3184.553          49.250    21662677.077    90034594.51307      2476.876          45.950    21662677.214    90034636.50907      2476.876          46.350
R22  23628977.788   126133085.38206       511.867          41.100    23628979.256    98103526.98106       398.120          37.050    23628979.343    98103523.96906       398.120          36.900    23628970.910    94740926.91907       384.736          42.900
E04  23963300.441   125928115.48749     -1446.601          54.300    23963301.896    94037300.67408     -1080.258          53.950    23963300.054   102214374.75208     -1174.186          52.200    23963299.528    96490453.60309     -1108.458          54.050    23963300.466    95263889.57109     -1094.357          57.600
E05  27624285.364   145166608.56546      2746.648          40.350    27624289.251   108403655.06607      2051.192          42.800    27624285.248   117830037.57206      2229.535          40.000    27624286.782   111231567.29607      2104.546          42.650    27624287.997   109817608.11207      2077.892          46.200
E06  23318541.211   122539859.34049      -133.370          54.900    23318543.902    91507104.50709       -99.622          55.650    23318540.088    99464202.97308      -108.302          53.950    23318541.881    93894233.03309      -102.221          55.850    23318542.476    92700663.20409      -100.934          59.200
E09  23846976.968   125316754.59949      1200.773          54.850    23846979.142    93580730.31809       896.678          54.700    23846976.413   101718159.14208       974.651          52.600    23846976.976    96021954.19209       920.058          54.900    23846977.683    94801330.18609       908.377          58.200
E16  28188182.110   148129900.55446      3103.659          40.650    28188187.426   110616532.12007      2317.765          43.900    28188184.876   120235312.80406      2519.431          41.050    28188185.162   113502166.07206      2378.238          41.500    28188186.140   112059337.52907      2348.038          46.350
E19  27324196.985   143589616.50355     -2812.708          34.800    27324199.985   107226120.48006     -2100.240          38.050                                                                    27324196.712   110023328.31306     -2155.308          36.550    27324197.907   108624738.32906     -2127.734          40.650
E21  27970530.354   146986206.22247     -2820.585          42.100    27970533.769   109762501.87006     -2106.324          41.350    27970530.281   119307007.40606     -2289.677          37.250    27970530.982   112625862.39306     -2161.437          39.850    27970531.793   111194183.56607     -2133.882          44.350
E23  23983392.595   126033659.06749      -966.127          54.350    23983394.774    94116109.48808      -721.483          53.550    23983392.101   102300070.31408      -784.258          51.950    23983392.791    96571294.37008      -740.343          53.800    23983393.592    95343693.85909      -730.893          57.250
E28  25515322.129   134084024.26148     -2342.593          50.000    25515325.538   100127701.59408     -1749.318          49.250    25515322.554   108834462.84607     -1901.490          47.400    25515323.464   102739756.46908     -1794.953          49.550    25515324.216   101433814.46908     -1772.167          52.900
E31  24119900.901   126751015.81348      1811.477          53.600    24119904.185    94651808.91808      1352.788          53.550    24119899.300   102882301.55208      1470.422          51.000    24119901.714    97120980.36008      1388.021          53.250    24119902.786    95886392.57209      1370.387          56.950
E34                                                                  28538937.614   111992920.78315     -1053.362          34.400                                                                    28538935.461   114914475.36105     -1080.794          34.750    28538936.552   113453693.49106     -1066.951          38.200
C08  39437509.086   207245525.78106       326.308          41.500    39437508.891   205361482.43407       323.151          43.200    39437511.296   154761292.81107       243.605          44.900    39437510.116   166873036.38107       262.752          43.250    39437509.548   158798521.49506       250.080          41.550
C11  27058022.141   142190906.09606      2788.830          38.400    27058021.781   140898224.55605      2764.241          35.950    27058024.989   106181502.28006      2083.094          37.550    27058025.120   114491356.40805      2246.208          35.900    27058023.059   108951444.81505      2137.616          35.350
C14  23887108.255   125527625.52607      2033.998          47.200    23887107.876   124386470.23108      2015.716          49.100    23887127.882    93738262.28908      1519.008          49.750    23887099.149   101074174.55207      1637.891          47.150    23887126.960    96183595.56207      1558.618          45.700
C19  27101414.912   142418926.25705     -3598.248          35.700    27101414.161   141124213.73505     -3565.480          34.250    27101421.971   106351796.28307     -2686.557          42.250    27101416.475   114675007.49105     -2896.580          34.100    27101419.954   109126181.47516     -2756.679          37.700
C21  22726914.529   119430782.43408       663.427          51.850    22726913.179   118345047.15808       657.438          53.550    22726914.142    89185381.46009       495.435          54.550    22726910.974    96165056.16708       534.230          52.100    22726912.071    91511916.68708       508.420          50.250
C22  22766977.999   119641303.25108     -2507.837          51.300    22766976.729   118553697.02908     -2485.036          53.000    22766976.409    89342609.74108     -1872.646          53.450    22766974.024    96334611.97308     -2019.148          51.000    22766974.358    91673267.16808     -1921.426          50.150
C26  26473788.387   139120696.81006      2986.868          37.150    26473787.328   137855959.92006      2959.733          41.150    26473792.177   103888862.01006      2230.516          41.000    26473790.698   112019278.08106      2405.070          37.100    26473790.491   106598981.29206      2288.327          38.000
C27  26165554.159   137500922.81306       258.832          39.650    26165552.977   136250913.22106       256.208          41.050    26165556.021   102679274.37006       193.113          41.450    26165554.445   110715036.64906       208.231          36.600    26165553.437   105357844.21406       198.171          36.700
C30  25915969.763   136189351.69106      2277.950          38.100    25915968.900   134951257.54306      2257.159          41.800    25915974.477   101699863.64206      1701.138          40.850    25915972.970   109658981.05906      1834.066          37.850    25915972.847   104352878.58206      1745.393          38.450
C36  22103609.447   116155372.21808     -1501.707          52.250    22103608.334   115099424.14908     -1487.986          53.750    22103617.750    86739515.45409     -1121.368          55.450    22103615.664    93527801.46008     -1209.098          52.850    22103615.812    89002187.31908     -1150.564          51.300
C39  22270315.599   117031329.69308      1254.089          52.750    22270313.223   115967468.58508      1242.733          53.700    22270309.128    87393557.61809       936.546          56.100    22270308.352    94233055.65808      1009.831          52.900    22270307.418    89673382.82608       960.967          52.050
C42  25907271.629   136143627.91406      2959.637          41.350    25907270.687   134905969.31507      2932.790          42.400    25907284.798   101665775.98007      2210.301          45.050    25907282.047   109622199.54606      2383.011          39.850    25907282.398   104317892.32106      2267.864          39.950
S21  38211551.933   200802876.37007        -1.551          46.850
S23  38279048.539   201157757.09117         3.105          47.300
S36  38097098.849   200201626.84607         1.131          46.600    38097071.253   149501320.53007          .804          46.250
> 2026 05 13 00 10 30.0000000  0 46
G05  25268237.690   132785487.14107     -3737.370          42.150                                                                    25268239.437   103469191.62706     -2912.239          40.150    25268239.560   103469216.62607     -2912.240          42.550
G10  24799534.977   130322441.35606      2346.237          40.350                                                                    24799536.123   101549965.98706      1828.236          41.350    24799536.916   101549967.99006      1828.237          40.300    24799533.913    97318708.67807      1751.870          46.150
G12  24183862.299   127087089.74607      3801.655          43.900                                                                    24183862.286    99028904.60707      2962.334          43.550    24183862.383    99028901.60207      2962.333          43.850
G13  23833606.370   125246455.59106      3549.377          41.700    23833606.234   125246505.60407      3549.360          42.300    23833607.012    97594648.07307      2765.752          44.500    23833607.382    97594662.07706      2765.751          41.200    23833610.352    93528220.03907      2650.437          45.450
G14  22573254.212   118623377.59107     -2801.885          47.050    22573253.856   118623386.59107     -2801.811          47.050    22573253.910    92433847.80207     -2183.287          47.950    22573254.129    92433867.80907     -2183.286          44.200    22573257.054    88582472.32308     -2092.266          49.400
G15  20015065.382   105179922.81808      -988.490          53.900                                                                    20015064.203    81958395.07308      -770.252          53.950    20015064.237    81958394.07608      -770.252          53.950
G17  22852150.217   120088911.45907       695.571          47.550                                                                    22852149.270    93575798.81007       542.003          46.050    22852149.476    93575800.81107       542.003          47.300
G19  23265114.266   122259019.15507      2693.929          46.400                                                                                                                                    23265112.062    95266794.71907      2099.165          42.950
G20  20849502.655   109564959.27608     -1926.781          51.600    20849502.711   109564966.27508     -1926.806          51.600    20849502.448    85375336.44809     -1501.388          54.700    20849502.671    85375340.44608     -1501.388          50.950    20849505.156    81818052.45909     -1438.873          56.750
G22  21866568.104   114909675.68708     -2326.658          50.200                                                                                                                                    21866566.736    89540045.16107     -1812.980          46.350
G23  22515700.372   118320823.89207       261.512          47.050    22515700.070   118320830.89207       261.457          46.850    22515699.426    92198056.52407       203.775          47.750    22515699.743    92198056.52107       203.774          44.400    22515702.767    88356494.20008       195.312          51.150
G24  20706436.585   108813113.57608      1985.820          52.000                                                                    20706437.503    84789471.44008      1547.392          51.000    20706437.833    84789471.43808      1547.392          52.000    20706437.849    81256585.47809      1482.962          56.150
G30  24831307.538   130489507.08106     -3013.069          39.150                                                                    24831310.477   101680181.64906     -2347.847          38.800    24831310.491   101680207.64806     -2347.847          38.750    24831309.806    97443577.83707     -2249.835          43.100
R03  21323054.928   114144054.53708     -3800.939          50.650    21323056.979    88778744.70908     -2956.287          48.050    21323056.926    88778741.71308     -2956.287          48.250
R04  19146464.595   102528508.19708      -253.628          53.250    19146465.927    79744414.67508      -197.267          51.950    19146465.803    79744416.67408      -197.267          52.550    19146457.240    76768259.52309      -189.859          58.950
R05  21274492.734   113724392.51408      3401.565          49.050    21274494.984    88452327.20608      2645.663          48.050    21274494.847    88452332.20808      2645.663          49.000    21274485.519    85300598.83408      2551.367          51.200
R13  21739757.474   116089203.80107     -3450.756          43.150
R14  19237573.731   102547204.15109        -2.093          54.300    19237577.132    79758983.35308        -1.628          51.750    19237577.159    79758986.35808        -1.628          52.750
R15  21644827.358   115663444.17408      3173.177          49.300    21644830.960    89960421.29007      2468.029          46.250    21644831.015    89960463.29107      2468.028          46.700
R22  23626169.510   126118095.17507       487.681          42.100    23626171.343    98091867.96006       379.310          36.800    23626171.347    98091864.95706       379.310          37.100    23626163.201    94729667.52407       366.195          43.500
R23  23912854.182                        2677.722          27.150
E04  23971586.634   125971659.63049     -1456.250          54.200    23971588.036    94069817.39009     -1087.504          54.000    23971586.225   102249719.01008     -1182.039          52.100    23971585.679    96523818.58109     -1115.848          54.000    23971586.665    95296830.41609     -1101.693          57.400
E05  27608606.884   145084218.23646      2746.022          40.300    27608610.855   108342129.86607      2050.471          42.450    27608606.806   117763162.34706      2228.866          39.850    27608608.535   111168437.09007      2104.033          42.900    27608609.602   109755280.40707      2077.277          46.100
E06  23319333.368   122544022.23849      -144.068          55.000    23319336.075    91510213.15809      -107.578          55.750    23319332.221    99467581.94408      -116.903          53.950    23319334.011    93897422.78009      -110.355          55.800    23319334.652    92703812.40309      -108.987          59.100
E09  23840147.115   125280863.44249      1192.074          54.950    23840149.276    93553928.47609       890.143          54.750    23840146.587   101689026.70908       967.538          52.700    23840147.149    95994453.17109       913.372          54.850    23840147.827    94774178.75609       901.758          58.150
E16  28170467.703   148036810.83046      3102.277          38.200    28170472.791   110547017.23306      2316.524          39.650    28170469.302   120159753.17406      2518.255          39.500    28170470.811   113430837.65306      2376.990          38.900    28170471.474   111988915.87507      2346.802          42.600
E19  27340261.489   143674034.66655     -2815.457          34.800    27340265.219   107289163.67605     -2102.722          34.950                                                                    27340262.616   110088015.99506     -2157.214          37.100    27340263.223   108688603.75806     -2129.819          39.500
E21  27986642.589   147070876.44247     -2823.928          42.000    27986646.092   109825729.62006     -2108.714          41.200    27986642.199   119375733.22206     -2292.224          37.000    27986643.032   112690739.56106     -2163.755          40.250    27986644.211   111258236.02207     -2136.203          44.250
E23  23988942.618   126062824.29249      -978.151          54.500    23988944.780    94137888.71308      -730.396          53.700    23988942.047   102323743.38408      -793.897          51.900    23988942.804    96593641.74808      -749.485          53.800    23988943.541    95365757.16509      -739.957          57.100
E28  25528714.286   134154400.10748     -2349.036          50.050    25528717.558   100180254.96708     -1754.170          49.300    25528714.878   108891586.07407     -1906.691          47.550    25528715.699   102793680.79508     -1799.912          49.700    25528716.293   101487053.31208     -1777.007          52.850
E31  24109590.653   126696835.31148      1800.549          53.750    24109594.097    94611349.47708      1344.568          53.750    24109589.008   102838323.88908      1461.509          51.000    24109591.536    97079465.45008      1379.664          53.300    24109592.554    95845405.39509      1362.119          56.850
E34                                                                  28547024.228   112024652.85806     -1062.124          36.950                                                                    28547021.660   114947035.24605     -1089.819          35.550    28547023.052   113485839.50106     -1076.050          39.950
C08  39435663.898   207235828.79306       320.198          41.800    39435663.789   205351873.62507       317.028          43.400    39435665.246   154754051.55207       239.162          44.650    39435664.977   166865228.43707       257.856          43.000    39435664.179   158791091.37506       245.254          41.200
C11  27042097.265   142107220.11406      2789.600          39.550    27042096.515   140815299.38106      2764.197          37.400    27042099.610   106119009.57206      2083.173          38.800    27042100.098   114423972.96806      2245.937          37.600    27042098.159   108887321.86906      2137.504          37.600
C14  23875533.475   125466799.44107      2020.964          46.650    23875532.806   124326197.11008      2002.565          48.450    23875552.481    93692840.20808      1509.155          49.950    23875524.769   101025197.73507      1627.239          47.950    23875551.724    96136988.57607      1548.455          46.400
C19  27121952.979   142526824.91215     -3597.240          30.600    27121951.406   141231119.31415     -3564.348          35.300    27121960.201   106432391.44106     -2686.419          37.550    27121954.703   114761910.11806     -2896.578          38.500    27121957.980   109208879.07506     -2756.438          36.400
C21  22723175.615   119411134.41108       646.430          51.950    22723174.310   118325577.76108       640.595          53.700    22723175.287    89170709.23209       482.737          54.550    22723172.080    96149235.68108       520.490          52.150    22723173.247    91496861.70708       495.359          50.200
C22  22781329.526   119716720.79708     -2519.914          51.600    22781328.217   118628428.97208     -2497.207          53.200    22781327.876    89398928.02908     -1881.876          53.600    22781325.482    96395337.78508     -2029.157          51.050    22781325.831    91731054.63208     -1930.964          50.050
C26  26456745.104   139031133.27806      2984.040          39.550    26456743.874   137767210.62506      2956.876          41.200    26456748.475   103821980.27106      2228.419          41.900    26456747.276   111947162.03206      2402.726          38.550    26456747.004   106530354.77906      2286.543          36.950
C27  26164122.462   137493398.64106       243.014          39.800    26164121.069   136243457.41907       240.660          42.800    26164124.510   102673655.71406       181.331          41.500    26164122.579   110708978.23706       195.566          37.350    26164121.736   105352078.93906       186.160          36.800
C30  25902987.477   136121130.67506      2269.963          36.600    25902986.743   134883656.72406      2249.469          40.900    25902992.247   101648919.40906      1695.285          41.150    25902991.198   109604049.89206      1827.847          39.750    25902991.475   104300605.42406      1739.424          38.750
C36  22112206.972   116200552.47508     -1510.347          52.200    22112205.865   115144193.67408     -1496.601          53.900    22112215.262    86773253.94709     -1127.848          55.600    22112213.152    93564180.36308     -1216.131          52.900    22112213.280    89036805.95208     -1157.285          51.250
C39  22263186.522   116993866.24508      1243.530          52.850    22263184.100   115930345.71108      1232.227          53.800    22263179.992    87365581.68809       928.551          56.250    22263179.335    94202890.29808      1001.294          53.050    22263178.302    89644677.08608       952.772          52.000
C42  25890396.397   136054947.70407      2952.412          42.000    25890395.073   134818095.26506      2925.411          41.900    25890409.460   101599553.80607      2204.603          44.700    25890406.355   109550794.72606      2377.121          38.900    25890406.955   104249942.61006      2262.160          40.400
S21  38211561.470   200802924.59507        -1.781          47.050
S36  38097092.034   200201591.20707          .932          46.050    38097064.178   149501291.74207         1.001          46.350
> 2026 05 13 00 11  0.0000000  0 45
G05  25289565.904   132897566.67806     -3734.721          37.250                                                                    25289568.387   103556526.07607     -2910.184          42.250    25289568.416   103556551.07706     -2910.185          37.350
G10  24786182.845   130252274.71307      2331.481          42.350                                                                    24786183.717   101495290.73207      1816.741          42.650    24786184.517   101495292.72207      1816.740          42.800    24786182.273    97266311.57907      1741.097          46.400
G12  24162172.813   126973111.65007      3796.880          43.200                                                                    24162173.532    98940090.66807      2958.613          42.750    24162173.517    98940087.65807      2958.613          43.750
G13  23813357.915   125140050.66007      3544.096          42.800    23813357.785   125140100.66407      3543.968          43.200    23813359.392    97511735.31007      2761.638          45.400    23813359.649    97511749.31907      2761.639          42.400    23813362.054    93448761.93107      2646.471          47.600
G14  22589273.893   118707561.37607     -2810.410          46.950    22589273.683   118707570.37307     -2810.565          47.100    22589273.487    92499445.55607     -2189.930          47.600    22589273.643    92499465.56007     -2189.929          44.300    22589276.513    88645336.84108     -2098.753          49.400
G15  20020766.692   105209883.37908     -1009.135          53.800                                                                    20020765.488    81981740.95708      -786.339          53.650    20020765.530    81981739.95908      -786.339          53.900
G17  22848230.366   120068312.06007       677.432          46.950                                                                    22848229.431    93559747.36507       527.870          45.950    22848229.596    93559749.36507       527.870          47.300
G19  23249761.633   122178340.50907      2684.433          46.950                                                                                                                                    23249759.324    95203928.27107      2091.766          42.900
G20  20860545.811   109622991.50508     -1942.256          51.800    20860545.873   109622998.50508     -1942.155          51.750    20860545.682    85420556.34609     -1513.447          54.250    20860545.895    85420560.34508     -1513.447          50.600    20860548.289    81861388.19209     -1450.325          56.650
G22  21879883.660   114979649.69308     -2338.471          50.000                                                                                                                                    21879882.281    89594570.36107     -1822.185          46.350
G23  22514265.764   118313285.45607       240.722          47.100    22514265.403   118313292.45707       240.740          47.000    22514264.840    92192182.43107       187.576          47.700    22514265.223    92192182.42807       187.576          44.350    22514268.408    88350864.85108       179.817          51.200
G24  20695132.213   108753708.65308      1974.344          52.000                                                                    20695133.106    84743181.90208      1538.450          50.900    20695133.422    84743181.89908      1538.450          51.950    20695133.377    81212224.67509      1474.369          56.250
G30  24848511.653   130579914.98106     -3014.997          39.250                                                                    24848514.652   101750629.34106     -2349.348          36.800    24848514.699   101750655.33906     -2349.349          38.750    24848513.954    97511090.23307     -2251.112          43.900
R03  21344395.200   114258290.91708     -3814.996          51.150    21344397.349    88867595.19808     -2967.220          48.100    21344397.223    88867592.20408     -2967.220          48.650
R04  19147958.199   102536506.36108      -279.833          53.700    19147959.550    79750635.46008      -217.649          51.850    19147959.366    79750637.46008      -217.649          52.250    19147950.837    76774248.14609      -209.509          58.950
R05  21255441.927   113622556.15808      3387.324          49.750    21255444.232    88373121.17807      2634.585          47.900    21255444.131    88373126.18408      2634.586          48.600    21255435.022    85224215.05508      2540.697          51.400
R13  21759159.305   116192808.11407     -3456.290          43.900
R14  19237636.994   102547541.37709       -20.636          54.550    19237640.361    79759245.64708       -16.050          51.750    19237640.403    79759248.65108       -16.050          52.550
R15  21627044.845   115568419.23808      3161.592          49.550    21627048.236    89886513.04307      2459.018          46.000    21627048.318    89886555.04107      2459.017          46.300
R22  23623497.567   126103831.93007       463.062          43.000    23623499.178    98080774.32806       360.160          36.400    23623499.142    98080771.32106       360.158          36.650    23623491.300    94718954.13907       347.811          43.550
E04  23979926.507   126015486.14049     -1465.726          54.300    23979927.897    94102544.96609     -1094.516          54.050    23979926.083   102285292.46608     -1189.639          52.000    23979925.578    96557399.91909     -1123.036          54.150    23979926.572    95329984.87409     -1108.764          57.400
E05  27592932.501   145001849.14146      2745.267          40.350    27592936.661   108280620.56407      2049.853          43.450    27592932.224   117696304.36706      2228.449          38.900    27592934.403   111105323.17107      2103.503          43.550    27592935.290   109692968.80307      2076.657          46.750
E06  23320185.361   122548499.62349      -154.692          55.200    23320188.111    91513556.65709      -115.525          55.850    23320184.168    99471216.18208      -125.540          53.800    23320186.012    93900853.50009      -118.533          55.900    23320186.679    92707199.51409      -117.025          59.100
E09  23833366.424   125245230.56249      1183.251          55.300    23833368.594    93527319.50109       883.656          54.900    23833365.884   101660103.91208       960.451          52.650    23833366.423    95967150.05309       906.677          54.950    23833367.123    94747222.71009       895.191          58.150
E16  28152762.111   147943765.35447      3100.578          43.900    28152766.691   110477535.16606      2315.451          41.800                                                                    28152764.590   113359543.10107      2375.778          43.150    28152765.414   111918527.57107      2345.597          45.700
E19                                                                  27356344.902   107352262.52306     -2104.387          37.800                                                                    27356342.095   110152760.98306     -2158.996          37.000    27356342.683   108752525.69106     -2131.668          40.600
E21  28002771.873   147155635.99247     -2826.820          42.200    28002775.104   109889024.10306     -2110.975          40.500    28002771.318   119444531.56106     -2294.383          37.150    28002772.060   112755685.20106     -2166.001          40.800    28002773.565   111322356.08107     -2138.507          44.000
E23  23994559.822   126092342.76849      -989.965          54.650    23994562.005    94159931.73708      -739.257          53.700    23994559.214   102347703.19108      -803.559          51.750    23994560.053    96616259.80808      -758.550          53.950    23994560.743    95388087.70509      -748.908          57.100
E28  25542142.727   134224966.62148     -2355.578          49.950    25542145.936   100232950.71908     -1759.045          49.550    25542143.340   108948864.07307     -1912.000          47.400    25542144.183   102847751.21908     -1804.877          49.750    25542144.623   101540436.39808     -1781.940          52.900
E31  24099342.218   126642979.51548      1789.630          53.950    24099345.744    94571132.51208      1336.421          53.750    24099340.548   102794609.78508      1452.642          51.000    24099343.155    97038199.34108      1371.284          53.450    24099344.110    95804663.86009      1353.849          56.850
E34                                                                  28555178.813   112056652.48606     -1071.302          37.600                                                                    28555176.401   114979869.62906     -1099.191          37.100    28555177.512   113518256.47806     -1085.201          40.600
C08  39433852.756   207226310.79607       314.007          42.100    39433852.785   205342442.12207       311.235          43.550    39433853.217   154746943.96107       234.559          44.750    39433853.764   166857564.59807       252.900          42.900    39433852.692   158783798.35506       240.719          41.300
C11  27026173.015   142023536.83706      2789.195          40.150    27026172.126   140732376.79006      2764.113          41.800    27026174.803   106056518.84106      2082.856          38.650    27026175.352   114356591.62706      2246.004          37.650    27026173.930   108823200.92106      2137.251          37.550
C14  23864033.591   125406367.03107      2007.616          46.550    23864032.988   124266314.08207      1989.484          47.750    23864053.574    93647712.13908      1499.185          49.850    23864024.377   100976537.85108      1616.582          48.250    23864051.593    96090683.22107      1538.353          45.200
C19  27142488.167   142634737.27106     -3596.947          37.850    27142487.188   141338050.57706     -3564.183          39.550    27142494.764   106512987.32815     -2686.017          34.200    27142490.032   114848800.46406     -2896.425          38.000
C21  22719533.565   119391995.31408       629.307          52.050    22719532.233   118306612.65308       623.618          53.550    22719533.114    89156417.04809       469.971          54.600    22719530.116    96133824.97708       506.736          52.300    22719531.201    91482196.68608       482.213          50.250
C22  22795750.730   119792504.61008     -2532.478          51.650    22795749.370   118703523.83108     -2509.305          53.050    22795749.099    89455519.80908     -1891.045          53.750    22795746.693    96456358.49808     -2039.033          51.200    22795747.005    91789122.72108     -1940.325          50.250
C26  26439717.449   138941651.94006      2981.144          38.500    26439716.144   137678542.76506      2954.007          41.650    26439720.767   103755159.83606      2226.256          40.250    26439720.006   111875112.17306      2400.352          39.500    26439718.849   106461791.15905      2284.191          35.800
C27  26162779.929   137486344.29706       226.844          38.600    26162778.907   136236467.24406       224.961          41.850    26162781.699   102668387.88706       169.630          40.800    26162780.383   110703298.14906       183.087          37.550    26162779.890   105346673.70706       173.967          37.300
C30  25890049.409   136053142.71606      2262.072          38.900    25890048.768   134816286.80006      2241.615          39.950    25890054.454   101598149.27206      1689.278          41.700    25890054.142   109549306.41006      1821.567          40.550    25890053.741   104248510.82906      1733.235          38.350
C36  22120853.321   116245989.20608     -1518.972          52.350    22120852.264   115189217.34709     -1505.215          54.050    22120861.644    86807183.97409     -1134.274          55.700    22120859.511    93600765.78308     -1223.083          53.100    22120859.561    89071621.10708     -1163.866          51.350
C39  22256117.500   116956718.45608      1232.784          52.850    22256115.045   115893535.63208      1221.628          53.800    22256110.960    87337841.47209       920.664          56.400    22256110.405    94172979.10708       992.651          53.250    22256109.200    89616213.21108       944.660          52.050
C42  25873563.728   135966490.60406      2944.620          41.850    25873562.060   134730442.29907      2917.872          42.900    25873576.373   101533498.20507      2199.047          45.300    25873572.959   109479569.52606      2371.096          40.150    25873573.576   104182163.82606      2256.348          40.100
S21  38211570.786   200802973.31307        -1.811          47.050
S36  38097084.232   200201549.32107          .987          46.750    38097057.307   149501263.72107          .665          46.400
